{
"type": "FeatureCollection",
"name": "atm",
"crs": { "type": "name", "properties": { "name": "urn:ogc:def:crs:OGC:1.3:CRS84" } },
"features": [
{ "type": "Feature", "properties": { "service_name": "Газпромбанк", "city_service_type": "Банкоматы", "address": "Невский проспект, 67", "municipality": "Владимирский", "administrative_unit": "Центральный район", "city": "Санкт-Петербург", "Широта": 59.931776, "Долгота": 30.353661 }, "geometry": { "type": "Point", "coordinates": [ 30.353661, 59.931776 ] } },
{ "type": "Feature", "properties": { "service_name": "Тинькофф банк", "city_service_type": "Банкоматы", "address": "Ефимова, 2", "municipality": "Сенной", "administrative_unit": "Адмиралтейский район", "city": "Санкт-Петербург", "Широта": 59.926294, "Долгота": 30.320596 }, "geometry": { "type": "Point", "coordinates": [ 30.320596, 59.926294 ] } },
{ "type": "Feature", "properties": { "service_name": "МТС Банк", "city_service_type": "Банкоматы", "address": "проспект Добролюбова, 16 к2 лит А", "municipality": "Введенский", "administrative_unit": "Петроградский район", "city": "Санкт-Петербург", "Широта": 59.950241, "Долгота": 30.294476 }, "geometry": { "type": "Point", "coordinates": [ 30.294476, 59.950241 ] } },
{ "type": "Feature", "properties": { "service_name": "СберБанк", "city_service_type": "Банкоматы", "address": "площадь Восстания, 2 лит А", "municipality": "Смольнинское", "administrative_unit": "Центральный район", "city": "Санкт-Петербург", "Широта": 59.931601, "Долгота": 30.360206 }, "geometry": { "type": "Point", "coordinates": [ 30.360206, 59.931601 ] } },
{ "type": "Feature", "properties": { "service_name": "СберБанк", "city_service_type": "Банкоматы", "address": "Думская, 1-3", "municipality": "Муниципальный округ №78", "administrative_unit": "Центральный район", "city": "Санкт-Петербург", "Широта": 59.934352, "Долгота": 30.329352 }, "geometry": { "type": "Point", "coordinates": [ 30.329352, 59.934352 ] } },
{ "type": "Feature", "properties": { "service_name": "Тинькофф банк", "city_service_type": "Банкоматы", "address": "Восстания, 2", "municipality": "Литейный", "administrative_unit": "Центральный район", "city": "Санкт-Петербург", "Широта": 59.931722, "Долгота": 30.358839 }, "geometry": { "type": "Point", "coordinates": [ 30.358839, 59.931722 ] } },
{ "type": "Feature", "properties": { "service_name": "Тинькофф банк", "city_service_type": "Банкоматы", "address": "улица Марата, 1/71", "municipality": "Владимирский", "administrative_unit": "Центральный район", "city": "Санкт-Петербург", "Широта": 59.931435, "Долгота": 30.355111 }, "geometry": { "type": "Point", "coordinates": [ 30.355111, 59.931435 ] } },
{ "type": "Feature", "properties": { "service_name": "СберБанк", "city_service_type": "Банкоматы", "address": "Литейный проспект, 35", "municipality": "Литейный", "administrative_unit": "Центральный район", "city": "Санкт-Петербург", "Широта": 59.940831, "Долгота": 30.348131 }, "geometry": { "type": "Point", "coordinates": [ 30.348131, 59.940831 ] } },
{ "type": "Feature", "properties": { "service_name": "Тинькофф банк", "city_service_type": "Банкоматы", "address": "Думская, 4 лит А", "municipality": "Муниципальный округ №78", "administrative_unit": "Центральный район", "city": "Санкт-Петербург", "Широта": 59.933751, "Долгота": 30.329088 }, "geometry": { "type": "Point", "coordinates": [ 30.329088, 59.933751 ] } },
{ "type": "Feature", "properties": { "service_name": "СберБанк", "city_service_type": "Банкоматы", "address": "Лиговский проспект, 105", "municipality": "Владимирский", "administrative_unit": "Центральный район", "city": "Санкт-Петербург", "Широта": 59.921724, "Долгота": 30.354319 }, "geometry": { "type": "Point", "coordinates": [ 30.354319, 59.921724 ] } },
{ "type": "Feature", "properties": { "service_name": "СберБанк", "city_service_type": "Банкоматы", "address": "Большая Московская, 2/1", "municipality": "Владимирский", "administrative_unit": "Центральный район", "city": "Санкт-Петербург", "Широта": 59.927637, "Долгота": 30.347954 }, "geometry": { "type": "Point", "coordinates": [ 30.347954, 59.927637 ] } },
{ "type": "Feature", "properties": { "service_name": "Тинькофф банк", "city_service_type": "Банкоматы", "address": "Ефимова, 3", "municipality": "Сенной", "administrative_unit": "Адмиралтейский район", "city": "Санкт-Петербург", "Широта": 59.925444, "Долгота": 30.319469 }, "geometry": { "type": "Point", "coordinates": [ 30.319469, 59.925444 ] } },
{ "type": "Feature", "properties": { "service_name": "Тинькофф банк", "city_service_type": "Банкоматы", "address": "Литейный проспект, 26 лит А", "municipality": "Литейный", "administrative_unit": "Центральный район", "city": "Санкт-Петербург", "Широта": 59.942133, "Долгота": 30.348772 }, "geometry": { "type": "Point", "coordinates": [ 30.348772, 59.942133 ] } },
{ "type": "Feature", "properties": { "service_name": "Примсоцбанк", "city_service_type": "Банкоматы", "address": "улица Садовая, 40", "municipality": "Сенной", "administrative_unit": "Адмиралтейский район", "city": "Санкт-Петербург", "Широта": 59.927443, "Долгота": 30.321037 }, "geometry": { "type": "Point", "coordinates": [ 30.321037, 59.927443 ] } },
{ "type": "Feature", "properties": { "service_name": "Тинькофф банк", "city_service_type": "Банкоматы", "address": "Невский проспект, 25", "municipality": "Муниципальный округ №78", "administrative_unit": "Центральный район", "city": "Санкт-Петербург", "Широта": 59.935367, "Долгота": 30.323679 }, "geometry": { "type": "Point", "coordinates": [ 30.323679, 59.935367 ] } },
{ "type": "Feature", "properties": { "service_name": "СберБанк", "city_service_type": "Банкоматы", "address": "Невский проспект, 118", "municipality": "Смольнинское", "administrative_unit": "Центральный район", "city": "Санкт-Петербург", "Широта": 59.932748, "Долгота": 30.362463 }, "geometry": { "type": "Point", "coordinates": [ 30.362463, 59.932748 ] } },
{ "type": "Feature", "properties": { "service_name": "СберБанк", "city_service_type": "Банкоматы", "address": "Невский проспект, 49", "municipality": "Владимирский", "administrative_unit": "Центральный район", "city": "Санкт-Петербург", "Широта": 59.932421, "Долгота": 30.348508 }, "geometry": { "type": "Point", "coordinates": [ 30.348508, 59.932421 ] } },
{ "type": "Feature", "properties": { "service_name": "Тинькофф банк", "city_service_type": "Банкоматы", "address": "Егорова, 25", "municipality": "Измайловское", "administrative_unit": "Адмиралтейский район", "city": "Санкт-Петербург", "Широта": 59.910209, "Долгота": 30.314042 }, "geometry": { "type": "Point", "coordinates": [ 30.314042, 59.910209 ] } },
{ "type": "Feature", "properties": { "service_name": "Тинькофф банк", "city_service_type": "Банкоматы", "address": "Каменноостровский проспект, 42", "municipality": "Аптекарский остров", "administrative_unit": "Петроградский район", "city": "Санкт-Петербург", "Широта": 59.966904, "Долгота": 30.309966 }, "geometry": { "type": "Point", "coordinates": [ 30.309966, 59.966904 ] } },
{ "type": "Feature", "properties": { "service_name": "Тинькофф банк", "city_service_type": "Банкоматы", "address": "Владимирский проспект, 23", "municipality": "Владимирский", "administrative_unit": "Центральный район", "city": "Санкт-Петербург", "Широта": 59.928151, "Долгота": 30.346801 }, "geometry": { "type": "Point", "coordinates": [ 30.346801, 59.928151 ] } },
{ "type": "Feature", "properties": { "service_name": "Тинькофф банк", "city_service_type": "Банкоматы", "address": "Кронверкская, 5", "municipality": "Кронверкское", "administrative_unit": "Петроградский район", "city": "Санкт-Петербург", "Широта": 59.958287, "Долгота": 30.312922 }, "geometry": { "type": "Point", "coordinates": [ 30.312922, 59.958287 ] } },
{ "type": "Feature", "properties": { "service_name": "Тинькофф банк", "city_service_type": "Банкоматы", "address": "Средний проспект В.О., 36/40", "municipality": "Муниципальный округ №7", "administrative_unit": "Василеостровский район", "city": "Санкт-Петербург", "Широта": 59.942191, "Долгота": 30.275701 }, "geometry": { "type": "Point", "coordinates": [ 30.275701, 59.942191 ] } },
{ "type": "Feature", "properties": { "service_name": "СберБанк", "city_service_type": "Банкоматы", "address": "проспект Чернышевского, 18", "municipality": "Смольнинское", "administrative_unit": "Центральный район", "city": "Санкт-Петербург", "Широта": 59.944886, "Долгота": 30.359941 }, "geometry": { "type": "Point", "coordinates": [ 30.359941, 59.944886 ] } },
{ "type": "Feature", "properties": { "service_name": "Альфа-Банк", "city_service_type": "Банкоматы", "address": "Ефимова, 3", "municipality": "Сенной", "administrative_unit": "Адмиралтейский район", "city": "Санкт-Петербург", "Широта": 59.925437, "Долгота": 30.319482 }, "geometry": { "type": "Point", "coordinates": [ 30.319482, 59.925437 ] } },
{ "type": "Feature", "properties": { "service_name": "СберБанк", "city_service_type": "Банкоматы", "address": "Большой проспект П.С., 18", "municipality": "Петровский", "administrative_unit": "Петроградский район", "city": "Санкт-Петербург", "Широта": 59.955608, "Долгота": 30.295189 }, "geometry": { "type": "Point", "coordinates": [ 30.295189, 59.955608 ] } },
{ "type": "Feature", "properties": { "service_name": "СберБанк", "city_service_type": "Банкоматы", "address": "Вознесенский проспект, 37", "municipality": "Адмиралтейский", "administrative_unit": "Адмиралтейский район", "city": "Санкт-Петербург", "Широта": 59.92433, "Долгота": 30.307292 }, "geometry": { "type": "Point", "coordinates": [ 30.307292, 59.92433 ] } },
{ "type": "Feature", "properties": { "service_name": "СберБанк", "city_service_type": "Банкоматы", "address": "Казанская, 1", "municipality": "Муниципальный округ №78", "administrative_unit": "Центральный район", "city": "Санкт-Петербург", "Широта": 59.935536, "Долгота": 30.323425 }, "geometry": { "type": "Point", "coordinates": [ 30.323425, 59.935536 ] } },
{ "type": "Feature", "properties": { "service_name": "СберБанк", "city_service_type": "Банкоматы", "address": "Московский проспект, 75", "municipality": "Измайловское", "administrative_unit": "Адмиралтейский район", "city": "Санкт-Петербург", "Широта": 59.903258, "Долгота": 30.318203 }, "geometry": { "type": "Point", "coordinates": [ 30.318203, 59.903258 ] } },
{ "type": "Feature", "properties": { "service_name": "СберБанк", "city_service_type": "Банкоматы", "address": "3-я линия В.О., 34", "municipality": "Васильевский", "administrative_unit": "Василеостровский район", "city": "Санкт-Петербург", "Широта": 59.944541, "Долгота": 30.282812 }, "geometry": { "type": "Point", "coordinates": [ 30.282812, 59.944541 ] } },
{ "type": "Feature", "properties": { "service_name": "СберБанк", "city_service_type": "Банкоматы", "address": "Казанская, 8-10", "municipality": "Муниципальный округ №78", "administrative_unit": "Центральный район", "city": "Санкт-Петербург", "Широта": 59.932719, "Долгота": 30.322096 }, "geometry": { "type": "Point", "coordinates": [ 30.322096, 59.932719 ] } },
{ "type": "Feature", "properties": { "service_name": "СберБанк", "city_service_type": "Банкоматы", "address": "Ефимова, 2", "municipality": "Сенной", "administrative_unit": "Адмиралтейский район", "city": "Санкт-Петербург", "Широта": 59.926287, "Долгота": 30.320607 }, "geometry": { "type": "Point", "coordinates": [ 30.320607, 59.926287 ] } },
{ "type": "Feature", "properties": { "service_name": "СберБанк", "city_service_type": "Банкоматы", "address": "Малая Морская, 4", "municipality": "Муниципальный округ №78", "administrative_unit": "Центральный район", "city": "Санкт-Петербург", "Широта": 59.936103, "Долгота": 30.314675 }, "geometry": { "type": "Point", "coordinates": [ 30.314675, 59.936103 ] } },
{ "type": "Feature", "properties": { "service_name": "Тинькофф банк", "city_service_type": "Банкоматы", "address": "Малая Морская, 24", "municipality": "Адмиралтейский", "administrative_unit": "Адмиралтейский район", "city": "Санкт-Петербург", "Широта": 59.933651, "Долгота": 30.308605 }, "geometry": { "type": "Point", "coordinates": [ 30.308605, 59.933651 ] } },
{ "type": "Feature", "properties": { "service_name": "СберБанк", "city_service_type": "Банкоматы", "address": "Средний проспект В.О., 91 к2", "municipality": "Гавань", "administrative_unit": "Василеостровский район", "city": "Санкт-Петербург", "Широта": 59.935181, "Долгота": 30.250194 }, "geometry": { "type": "Point", "coordinates": [ 30.250194, 59.935181 ] } },
{ "type": "Feature", "properties": { "service_name": "СберБанк", "city_service_type": "Банкоматы", "address": "площадь Александра Невского, 2", "municipality": "Смольнинское", "administrative_unit": "Центральный район", "city": "Санкт-Петербург", "Широта": 59.924257, "Долгота": 30.385444 }, "geometry": { "type": "Point", "coordinates": [ 30.385444, 59.924257 ] } },
{ "type": "Feature", "properties": { "service_name": "СберБанк", "city_service_type": "Банкоматы", "address": "улица Боткинская, 5", "municipality": "Финляндский", "administrative_unit": "Калининский район", "city": "Санкт-Петербург", "Широта": 59.958542, "Долгота": 30.355078 }, "geometry": { "type": "Point", "coordinates": [ 30.355078, 59.958542 ] } },
{ "type": "Feature", "properties": { "service_name": "Тинькофф банк", "city_service_type": "Банкоматы", "address": "Лиговский проспект, 30 лит А", "municipality": "Лиговка-Ямская", "administrative_unit": "Центральный район", "city": "Санкт-Петербург", "Широта": 59.928225, "Долгота": 30.360778 }, "geometry": { "type": "Point", "coordinates": [ 30.360778, 59.928225 ] } },
{ "type": "Feature", "properties": { "service_name": "Тинькофф банк", "city_service_type": "Банкоматы", "address": "улица Херсонская, 12-14", "municipality": "Смольнинское", "administrative_unit": "Центральный район", "city": "Санкт-Петербург", "Широта": 59.928602, "Долгота": 30.381623 }, "geometry": { "type": "Point", "coordinates": [ 30.381623, 59.928602 ] } },
{ "type": "Feature", "properties": { "service_name": "СберБанк", "city_service_type": "Банкоматы", "address": "Жуковского, 30", "municipality": "Смольнинское", "administrative_unit": "Центральный район", "city": "Санкт-Петербург", "Широта": 59.935953, "Долгота": 30.360486 }, "geometry": { "type": "Point", "coordinates": [ 30.360486, 59.935953 ] } },
{ "type": "Feature", "properties": { "service_name": "СберБанк", "city_service_type": "Банкоматы", "address": "Средний проспект В.О., 32 лит А", "municipality": "Муниципальный округ №7", "administrative_unit": "Василеостровский район", "city": "Санкт-Петербург", "Широта": 59.942801, "Долгота": 30.278193 }, "geometry": { "type": "Point", "coordinates": [ 30.278193, 59.942801 ] } },
{ "type": "Feature", "properties": { "service_name": "СберБанк", "city_service_type": "Банкоматы", "address": "Кирпичный переулок, 1", "municipality": "Муниципальный округ №78", "administrative_unit": "Центральный район", "city": "Санкт-Петербург", "Широта": 59.936029, "Долгота": 30.314801 }, "geometry": { "type": "Point", "coordinates": [ 30.314801, 59.936029 ] } },
{ "type": "Feature", "properties": { "service_name": "СберБанк", "city_service_type": "Банкоматы", "address": "Московский проспект, 27", "municipality": "Измайловское", "administrative_unit": "Адмиралтейский район", "city": "Санкт-Петербург", "Широта": 59.915186, "Долгота": 30.31791 }, "geometry": { "type": "Point", "coordinates": [ 30.31791, 59.915186 ] } },
{ "type": "Feature", "properties": { "service_name": "Тинькофф банк", "city_service_type": "Банкоматы", "address": "площадь Ленина, 6", "municipality": "Финляндский", "administrative_unit": "Калининский район", "city": "Санкт-Петербург", "Широта": 59.955479, "Долгота": 30.356374 }, "geometry": { "type": "Point", "coordinates": [ 30.356374, 59.955479 ] } },
{ "type": "Feature", "properties": { "service_name": "СберБанк", "city_service_type": "Банкоматы", "address": "7-я Советская улица, 9/20", "municipality": "Смольнинское", "administrative_unit": "Центральный район", "city": "Санкт-Петербург", "Широта": 59.936037, "Долгота": 30.371947 }, "geometry": { "type": "Point", "coordinates": [ 30.371947, 59.936037 ] } },
{ "type": "Feature", "properties": { "service_name": "ВТБ", "city_service_type": "Банкоматы", "address": "Московский проспект, 6", "municipality": "Сенной", "administrative_unit": "Адмиралтейский район", "city": "Санкт-Петербург", "Широта": 59.924767, "Долгота": 30.317885 }, "geometry": { "type": "Point", "coordinates": [ 30.317885, 59.924767 ] } },
{ "type": "Feature", "properties": { "service_name": "Тинькофф банк", "city_service_type": "Банкоматы", "address": "Московский проспект, 73 к5", "municipality": "Измайловское", "administrative_unit": "Адмиралтейский район", "city": "Санкт-Петербург", "Широта": 59.903709, "Долгота": 30.312785 }, "geometry": { "type": "Point", "coordinates": [ 30.312785, 59.903709 ] } },
{ "type": "Feature", "properties": { "service_name": "СберБанк", "city_service_type": "Банкоматы", "address": "Каменноостровский проспект, 37", "municipality": "Аптекарский остров", "administrative_unit": "Петроградский район", "city": "Санкт-Петербург", "Широта": 59.966401, "Долгота": 30.311323 }, "geometry": { "type": "Point", "coordinates": [ 30.311323, 59.966401 ] } },
{ "type": "Feature", "properties": { "service_name": "СберБанк", "city_service_type": "Банкоматы", "address": "Лиговский проспект, 30", "municipality": "Лиговка-Ямская", "administrative_unit": "Центральный район", "city": "Санкт-Петербург", "Широта": 59.926782, "Долгота": 30.359116 }, "geometry": { "type": "Point", "coordinates": [ 30.359116, 59.926782 ] } },
{ "type": "Feature", "properties": { "service_name": "СберБанк", "city_service_type": "Банкоматы", "address": "Невский проспект, 35", "municipality": "Муниципальный округ №78", "administrative_unit": "Центральный район", "city": "Санкт-Петербург", "Широта": 59.933972, "Долгота": 30.333548 }, "geometry": { "type": "Point", "coordinates": [ 30.333548, 59.933972 ] } },
{ "type": "Feature", "properties": { "service_name": "СберБанк", "city_service_type": "Банкоматы", "address": "Английский проспект, 40", "municipality": "Коломна", "administrative_unit": "Адмиралтейский район", "city": "Санкт-Петербург", "Широта": 59.921193, "Долгота": 30.287224 }, "geometry": { "type": "Point", "coordinates": [ 30.287224, 59.921193 ] } },
{ "type": "Feature", "properties": { "service_name": "СберБанк", "city_service_type": "Банкоматы", "address": "Невский проспект, 48", "municipality": "Дворцовый", "administrative_unit": "Центральный район", "city": "Санкт-Петербург", "Широта": 59.936002, "Долгота": 30.334777 }, "geometry": { "type": "Point", "coordinates": [ 30.334777, 59.936002 ] } },
{ "type": "Feature", "properties": { "service_name": "ВТБ", "city_service_type": "Банкоматы", "address": "Большая Морская, 11", "municipality": "Муниципальный округ №78", "administrative_unit": "Центральный район", "city": "Санкт-Петербург", "Широта": 59.9358, "Долгота": 30.316829 }, "geometry": { "type": "Point", "coordinates": [ 30.316829, 59.9358 ] } },
{ "type": "Feature", "properties": { "service_name": "Альфа-Банк", "city_service_type": "Банкоматы", "address": "Лиговский проспект, 30", "municipality": "Лиговка-Ямская", "administrative_unit": "Центральный район", "city": "Санкт-Петербург", "Широта": 59.927126, "Долгота": 30.359511 }, "geometry": { "type": "Point", "coordinates": [ 30.359511, 59.927126 ] } },
{ "type": "Feature", "properties": { "service_name": "СберБанк", "city_service_type": "Банкоматы", "address": "Спасский переулок, 14", "municipality": "Сенной", "administrative_unit": "Адмиралтейский район", "city": "Санкт-Петербург", "Широта": 59.927868, "Долгота": 30.320018 }, "geometry": { "type": "Point", "coordinates": [ 30.320018, 59.927868 ] } },
{ "type": "Feature", "properties": { "service_name": "Тинькофф банк", "city_service_type": "Банкоматы", "address": "Чкаловский проспект, 15", "municipality": "Петровский", "administrative_unit": "Петроградский район", "city": "Санкт-Петербург", "Широта": 59.9627, "Долгота": 30.29413 }, "geometry": { "type": "Point", "coordinates": [ 30.29413, 59.9627 ] } },
{ "type": "Feature", "properties": { "service_name": "СберБанк", "city_service_type": "Банкоматы", "address": "Большой проспект П.С., 56/1", "municipality": "Петровский", "administrative_unit": "Петроградский район", "city": "Санкт-Петербург", "Широта": 59.960613, "Долгота": 30.303318 }, "geometry": { "type": "Point", "coordinates": [ 30.303318, 59.960613 ] } },
{ "type": "Feature", "properties": { "service_name": "Тинькофф банк", "city_service_type": "Банкоматы", "address": "Кирпичный переулок, 1", "municipality": "Муниципальный округ №78", "administrative_unit": "Центральный район", "city": "Санкт-Петербург", "Широта": 59.936095, "Долгота": 30.314655 }, "geometry": { "type": "Point", "coordinates": [ 30.314655, 59.936095 ] } },
{ "type": "Feature", "properties": { "service_name": "СберБанк", "city_service_type": "Банкоматы", "address": "площадь Ленина, 6", "municipality": "Финляндский", "administrative_unit": "Калининский район", "city": "Санкт-Петербург", "Широта": 59.955479, "Долгота": 30.356374 }, "geometry": { "type": "Point", "coordinates": [ 30.356374, 59.955479 ] } },
{ "type": "Feature", "properties": { "service_name": "Тинькофф банк", "city_service_type": "Банкоматы", "address": "Английский проспект, 16", "municipality": "Коломна", "administrative_unit": "Адмиралтейский район", "city": "Санкт-Петербург", "Широта": 59.925508, "Долгота": 30.283409 }, "geometry": { "type": "Point", "coordinates": [ 30.283409, 59.925508 ] } },
{ "type": "Feature", "properties": { "service_name": "Тинькофф банк", "city_service_type": "Банкоматы", "address": "Социалистическая улица, 21", "municipality": "Владимирский", "administrative_unit": "Центральный район", "city": "Санкт-Петербург", "Широта": 59.92038, "Долгота": 30.346194 }, "geometry": { "type": "Point", "coordinates": [ 30.346194, 59.92038 ] } },
{ "type": "Feature", "properties": { "service_name": "Альфа-Банк", "city_service_type": "Банкоматы", "address": "Думская, 4 лит А", "municipality": "Муниципальный округ №78", "administrative_unit": "Центральный район", "city": "Санкт-Петербург", "Широта": 59.933751, "Долгота": 30.329088 }, "geometry": { "type": "Point", "coordinates": [ 30.329088, 59.933751 ] } },
{ "type": "Feature", "properties": { "service_name": "СберБанк", "city_service_type": "Банкоматы", "address": "Чкаловский проспект, 15", "municipality": "Петровский", "administrative_unit": "Петроградский район", "city": "Санкт-Петербург", "Широта": 59.9627, "Долгота": 30.29413 }, "geometry": { "type": "Point", "coordinates": [ 30.29413, 59.9627 ] } },
{ "type": "Feature", "properties": { "service_name": "Тинькофф банк", "city_service_type": "Банкоматы", "address": "15-я линия В.О., 36", "municipality": "Муниципальный округ №7", "administrative_unit": "Василеостровский район", "city": "Санкт-Петербург", "Широта": 59.940036, "Долгота": 30.268325 }, "geometry": { "type": "Point", "coordinates": [ 30.268325, 59.940036 ] } },
{ "type": "Feature", "properties": { "service_name": "СберБанк", "city_service_type": "Банкоматы", "address": "6-я линия В.О., 9", "municipality": "Муниципальный округ №7", "administrative_unit": "Василеостровский район", "city": "Санкт-Петербург", "Широта": 59.939095, "Долгота": 30.284762 }, "geometry": { "type": "Point", "coordinates": [ 30.284762, 59.939095 ] } },
{ "type": "Feature", "properties": { "service_name": "Тинькофф банк", "city_service_type": "Банкоматы", "address": "Транспортный переулок, 1", "municipality": "Лиговка-Ямская", "administrative_unit": "Центральный район", "city": "Санкт-Петербург", "Широта": 59.920718, "Долгота": 30.35629 }, "geometry": { "type": "Point", "coordinates": [ 30.35629, 59.920718 ] } },
{ "type": "Feature", "properties": { "service_name": "Тинькофф банк", "city_service_type": "Банкоматы", "address": "Полтавский проезд, 2", "municipality": "Лиговка-Ямская", "administrative_unit": "Центральный район", "city": "Санкт-Петербург", "Широта": 59.925973, "Долгота": 30.367484 }, "geometry": { "type": "Point", "coordinates": [ 30.367484, 59.925973 ] } },
{ "type": "Feature", "properties": { "service_name": "СберБанк", "city_service_type": "Банкоматы", "address": "Большой проспект В.О., 57", "municipality": "Муниципальный округ №7", "administrative_unit": "Василеостровский район", "city": "Санкт-Петербург", "Широта": 59.936169, "Долгота": 30.270126 }, "geometry": { "type": "Point", "coordinates": [ 30.270126, 59.936169 ] } },
{ "type": "Feature", "properties": { "service_name": "Тинькофф банк", "city_service_type": "Банкоматы", "address": "улица Звенигородская, 1 к2", "municipality": "Семёновский", "administrative_unit": "Адмиралтейский район", "city": "Санкт-Петербург", "Широта": 59.922474, "Долгота": 30.335811 }, "geometry": { "type": "Point", "coordinates": [ 30.335811, 59.922474 ] } },
{ "type": "Feature", "properties": { "service_name": "Тинькофф банк", "city_service_type": "Банкоматы", "address": "Моховая, 37", "municipality": "Литейный", "administrative_unit": "Центральный район", "city": "Санкт-Петербург", "Широта": 59.940136, "Долгота": 30.344935 }, "geometry": { "type": "Point", "coordinates": [ 30.344935, 59.940136 ] } },
{ "type": "Feature", "properties": { "service_name": "СберБанк", "city_service_type": "Банкоматы", "address": "Каменноостровский проспект, 41", "municipality": "Аптекарский остров", "administrative_unit": "Петроградский район", "city": "Санкт-Петербург", "Широта": 59.968418, "Долгота": 30.310087 }, "geometry": { "type": "Point", "coordinates": [ 30.310087, 59.968418 ] } },
{ "type": "Feature", "properties": { "service_name": "СберБанк", "city_service_type": "Банкоматы", "address": "улица Савушкина, 2 лит А", "municipality": "Ланское", "administrative_unit": "Приморский район", "city": "Санкт-Петербург", "Широта": 59.985582, "Долгота": 30.300731 }, "geometry": { "type": "Point", "coordinates": [ 30.300731, 59.985582 ] } },
{ "type": "Feature", "properties": { "service_name": "ВТБ", "city_service_type": "Банкоматы", "address": "Невский проспект, 71", "municipality": "Владимирский", "administrative_unit": "Центральный район", "city": "Санкт-Петербург", "Широта": 59.931398, "Долгота": 30.355142 }, "geometry": { "type": "Point", "coordinates": [ 30.355142, 59.931398 ] } },
{ "type": "Feature", "properties": { "service_name": "Альфа-Банк", "city_service_type": "Банкоматы", "address": "Каменноостровский проспект, 41 лит А", "municipality": "Аптекарский остров", "administrative_unit": "Петроградский район", "city": "Санкт-Петербург", "Широта": 59.968173, "Долгота": 30.309518 }, "geometry": { "type": "Point", "coordinates": [ 30.309518, 59.968173 ] } },
{ "type": "Feature", "properties": { "service_name": "Тинькофф банк", "city_service_type": "Банкоматы", "address": "Большой проспект П.С., 58", "municipality": "Петровский", "administrative_unit": "Петроградский район", "city": "Санкт-Петербург", "Широта": 59.960956, "Долгота": 30.303595 }, "geometry": { "type": "Point", "coordinates": [ 30.303595, 59.960956 ] } },
{ "type": "Feature", "properties": { "service_name": "СберБанк", "city_service_type": "Банкоматы", "address": "\nСанкт-Петербург, Садовая улица", "municipality": "Сенной", "administrative_unit": "Адмиралтейский район", "city": "Санкт-Петербург", "Широта": 59.926615, "Долгота": 30.318551 }, "geometry": { "type": "Point", "coordinates": [ 30.318551, 59.926615 ] } },
{ "type": "Feature", "properties": { "service_name": "СберБанк", "city_service_type": "Банкоматы", "address": "Ефимова, 3", "municipality": "Сенной", "administrative_unit": "Адмиралтейский район", "city": "Санкт-Петербург", "Широта": 59.924977, "Долгота": 30.320132 }, "geometry": { "type": "Point", "coordinates": [ 30.320132, 59.924977 ] } },
{ "type": "Feature", "properties": { "service_name": "ВТБ", "city_service_type": "Банкоматы", "address": "Невский проспект, 30", "municipality": "Дворцовый", "administrative_unit": "Центральный район", "city": "Санкт-Петербург", "Широта": 59.935509, "Долгота": 30.326905 }, "geometry": { "type": "Point", "coordinates": [ 30.326905, 59.935509 ] } },
{ "type": "Feature", "properties": { "service_name": "Тинькофф банк", "city_service_type": "Банкоматы", "address": "Караванная, 1 лит А", "municipality": "Дворцовый", "administrative_unit": "Центральный район", "city": "Санкт-Петербург", "Широта": 59.93677, "Долгота": 30.340781 }, "geometry": { "type": "Point", "coordinates": [ 30.340781, 59.93677 ] } },
{ "type": "Feature", "properties": { "service_name": "СберБанк", "city_service_type": "Банкоматы", "address": "Невский проспект, 35", "municipality": "Муниципальный округ №78", "administrative_unit": "Центральный район", "city": "Санкт-Петербург", "Широта": 59.934005, "Долгота": 30.333785 }, "geometry": { "type": "Point", "coordinates": [ 30.333785, 59.934005 ] } },
{ "type": "Feature", "properties": { "service_name": "Альфа-Банк", "city_service_type": "Банкоматы", "address": "Полюстровский проспект, 84а", "municipality": "Сампсониевское", "administrative_unit": "Выборгский район", "city": "Санкт-Петербург", "Широта": 59.987149, "Долгота": 30.355252 }, "geometry": { "type": "Point", "coordinates": [ 30.355252, 59.987149 ] } },
{ "type": "Feature", "properties": { "service_name": "Альфа-Банк", "city_service_type": "Банкоматы", "address": "Владимирский проспект, 19", "municipality": "Владимирский", "administrative_unit": "Центральный район", "city": "Санкт-Петербург", "Широта": 59.928545, "Долгота": 30.346427 }, "geometry": { "type": "Point", "coordinates": [ 30.346427, 59.928545 ] } },
{ "type": "Feature", "properties": { "service_name": "Газпромбанк", "city_service_type": "Банкоматы", "address": "Маяковского, 3Б лит А", "municipality": "Литейный", "administrative_unit": "Центральный район", "city": "Санкт-Петербург", "Широта": 59.93354, "Долгота": 30.357542 }, "geometry": { "type": "Point", "coordinates": [ 30.357542, 59.93354 ] } },
{ "type": "Feature", "properties": { "service_name": "СберБанк", "city_service_type": "Банкоматы", "address": "Владимирский проспект, 19", "municipality": "Владимирский", "administrative_unit": "Центральный район", "city": "Санкт-Петербург", "Широта": 59.928656, "Долгота": 30.346589 }, "geometry": { "type": "Point", "coordinates": [ 30.346589, 59.928656 ] } },
{ "type": "Feature", "properties": { "service_name": "Альфа-Банк", "city_service_type": "Банкоматы", "address": "7-я линия В.О., 54", "municipality": "Васильевский", "administrative_unit": "Василеостровский район", "city": "Санкт-Петербург", "Широта": 59.94376, "Долгота": 30.277576 }, "geometry": { "type": "Point", "coordinates": [ 30.277576, 59.94376 ] } },
{ "type": "Feature", "properties": { "service_name": "Райффайзенбанк", "city_service_type": "Банкоматы", "address": "Невский проспект, 114-116", "municipality": "Литейный", "administrative_unit": "Центральный район", "city": "Санкт-Петербург", "Широта": 59.932086, "Долгота": 30.359105 }, "geometry": { "type": "Point", "coordinates": [ 30.359105, 59.932086 ] } },
{ "type": "Feature", "properties": { "service_name": "Тинькофф банк", "city_service_type": "Банкоматы", "address": "набережная реки Мойки, 22", "municipality": "Дворцовый", "administrative_unit": "Центральный район", "city": "Санкт-Петербург", "Широта": 59.939564, "Долгота": 30.319766 }, "geometry": { "type": "Point", "coordinates": [ 30.319766, 59.939564 ] } },
{ "type": "Feature", "properties": { "service_name": "Альфа-Банк", "city_service_type": "Банкоматы", "address": "улица Фурштатская, 40 лит А", "municipality": "Смольнинское", "administrative_unit": "Центральный район", "city": "Санкт-Петербург", "Широта": 59.945312, "Долгота": 30.3614 }, "geometry": { "type": "Point", "coordinates": [ 30.3614, 59.945312 ] } },
{ "type": "Feature", "properties": { "service_name": "СберБанк", "city_service_type": "Банкоматы", "address": "Суворовский проспект, 35", "municipality": "Смольнинское", "administrative_unit": "Центральный район", "city": "Санкт-Петербург", "Широта": 59.938721, "Долгота": 30.375974 }, "geometry": { "type": "Point", "coordinates": [ 30.375974, 59.938721 ] } },
{ "type": "Feature", "properties": { "service_name": "Тинькофф банк", "city_service_type": "Банкоматы", "address": "Лиговский проспект, 30а", "municipality": "Лиговка-Ямская", "administrative_unit": "Центральный район", "city": "Санкт-Петербург", "Широта": 59.927134, "Долгота": 30.359516 }, "geometry": { "type": "Point", "coordinates": [ 30.359516, 59.927134 ] } },
{ "type": "Feature", "properties": { "service_name": "СберБанк", "city_service_type": "Банкоматы", "address": "Мира, 10", "municipality": "Кронверкское", "administrative_unit": "Петроградский район", "city": "Санкт-Петербург", "Широта": 59.960344, "Долгота": 30.316528 }, "geometry": { "type": "Point", "coordinates": [ 30.316528, 59.960344 ] } },
{ "type": "Feature", "properties": { "service_name": "СберБанк", "city_service_type": "Банкоматы", "address": "Загородный проспект, 52а", "municipality": "Семёновский", "administrative_unit": "Адмиралтейский район", "city": "Санкт-Петербург", "Широта": 59.920692, "Долгота": 30.329571 }, "geometry": { "type": "Point", "coordinates": [ 30.329571, 59.920692 ] } },
{ "type": "Feature", "properties": { "service_name": "ВТБ", "city_service_type": "Банкоматы", "address": "Средний проспект В.О., 32 лит А", "municipality": "Муниципальный округ №7", "administrative_unit": "Василеостровский район", "city": "Санкт-Петербург", "Широта": 59.942732, "Долгота": 30.278419 }, "geometry": { "type": "Point", "coordinates": [ 30.278419, 59.942732 ] } },
{ "type": "Feature", "properties": { "service_name": "Тинькофф банк", "city_service_type": "Банкоматы", "address": "улица Льва Толстого, 9", "municipality": "Аптекарский остров", "administrative_unit": "Петроградский район", "city": "Санкт-Петербург", "Широта": 59.965318, "Долгота": 30.31563 }, "geometry": { "type": "Point", "coordinates": [ 30.31563, 59.965318 ] } },
{ "type": "Feature", "properties": { "service_name": "СберБанк", "city_service_type": "Банкоматы", "address": "Сенная площадь, 2а", "municipality": "Сенной", "administrative_unit": "Адмиралтейский район", "city": "Санкт-Петербург", "Широта": 59.927151, "Долгота": 30.320357 }, "geometry": { "type": "Point", "coordinates": [ 30.320357, 59.927151 ] } },
{ "type": "Feature", "properties": { "service_name": "СберБанк", "city_service_type": "Банкоматы", "address": "Большая Зеленина, 12", "municipality": "Петровский", "administrative_unit": "Петроградский район", "city": "Санкт-Петербург", "Широта": 59.961033, "Долгота": 30.292247 }, "geometry": { "type": "Point", "coordinates": [ 30.292247, 59.961033 ] } },
{ "type": "Feature", "properties": { "service_name": "СберБанк", "city_service_type": "Банкоматы", "address": "Средний проспект В.О., 33", "municipality": "Васильевский", "administrative_unit": "Василеостровский район", "city": "Санкт-Петербург", "Широта": 59.942897, "Долгота": 30.277207 }, "geometry": { "type": "Point", "coordinates": [ 30.277207, 59.942897 ] } },
{ "type": "Feature", "properties": { "service_name": "Альфа-Банк", "city_service_type": "Банкоматы", "address": "Московский проспект, 94", "municipality": "Московская застава", "administrative_unit": "Московский район", "city": "Санкт-Петербург", "Широта": 59.901486, "Долгота": 30.319399 }, "geometry": { "type": "Point", "coordinates": [ 30.319399, 59.901486 ] } },
{ "type": "Feature", "properties": { "service_name": "Тинькофф банк", "city_service_type": "Банкоматы", "address": "Большой проспект В.О., 16", "municipality": "Муниципальный округ №7", "administrative_unit": "Василеостровский район", "city": "Санкт-Петербург", "Широта": 59.939293, "Долгота": 30.285043 }, "geometry": { "type": "Point", "coordinates": [ 30.285043, 59.939293 ] } },
{ "type": "Feature", "properties": { "service_name": "ВТБ", "city_service_type": "Банкоматы", "address": "Восстания, 1", "municipality": "Смольнинское", "administrative_unit": "Центральный район", "city": "Санкт-Петербург", "Широта": 59.931941, "Долгота": 30.360672 }, "geometry": { "type": "Point", "coordinates": [ 30.360672, 59.931941 ] } },
{ "type": "Feature", "properties": { "service_name": "Газпромбанк", "city_service_type": "Банкоматы", "address": "Большая Морская, 39Б", "municipality": "Адмиралтейский", "administrative_unit": "Адмиралтейский район", "city": "Санкт-Петербург", "Широта": 59.934118, "Долгота": 30.309096 }, "geometry": { "type": "Point", "coordinates": [ 30.309096, 59.934118 ] } },
{ "type": "Feature", "properties": { "service_name": "СберБанк", "city_service_type": "Банкоматы", "address": "набережная Обводного канала, 120", "municipality": "Измайловское", "administrative_unit": "Адмиралтейский район", "city": "Санкт-Петербург", "Широта": 59.90736, "Долгота": 30.298825 }, "geometry": { "type": "Point", "coordinates": [ 30.298825, 59.90736 ] } },
{ "type": "Feature", "properties": { "service_name": "СберБанк", "city_service_type": "Банкоматы", "address": "Средний проспект В.О., 35", "municipality": "Васильевский", "administrative_unit": "Василеостровский район", "city": "Санкт-Петербург", "Широта": 59.942876, "Долгота": 30.277134 }, "geometry": { "type": "Point", "coordinates": [ 30.277134, 59.942876 ] } },
{ "type": "Feature", "properties": { "service_name": "СберБанк", "city_service_type": "Банкоматы", "address": "Лиговский проспект, 30", "municipality": "Лиговка-Ямская", "administrative_unit": "Центральный район", "city": "Санкт-Петербург", "Широта": 59.928216, "Долгота": 30.360782 }, "geometry": { "type": "Point", "coordinates": [ 30.360782, 59.928216 ] } },
{ "type": "Feature", "properties": { "service_name": "СберБанк", "city_service_type": "Банкоматы", "address": "Невский проспект, 85", "municipality": "Лиговка-Ямская", "administrative_unit": "Центральный район", "city": "Санкт-Петербург", "Широта": 59.929745, "Долгота": 30.360828 }, "geometry": { "type": "Point", "coordinates": [ 30.360828, 59.929745 ] } },
{ "type": "Feature", "properties": { "service_name": "СберБанк", "city_service_type": "Банкоматы", "address": "площадь Ленина, 6", "municipality": "Финляндский", "administrative_unit": "Калининский район", "city": "Санкт-Петербург", "Широта": 59.955574, "Долгота": 30.355669 }, "geometry": { "type": "Point", "coordinates": [ 30.355669, 59.955574 ] } },
{ "type": "Feature", "properties": { "service_name": "Тинькофф банк", "city_service_type": "Банкоматы", "address": "Полюстровский проспект, 84а", "municipality": "Сампсониевское", "administrative_unit": "Выборгский район", "city": "Санкт-Петербург", "Широта": 59.987645, "Долгота": 30.353327 }, "geometry": { "type": "Point", "coordinates": [ 30.353327, 59.987645 ] } },
{ "type": "Feature", "properties": { "service_name": "Тинькофф банк", "city_service_type": "Банкоматы", "address": "набережная Обводного канала, 120 лит Б", "municipality": "Измайловское", "administrative_unit": "Адмиралтейский район", "city": "Санкт-Петербург", "Широта": 59.90736, "Долгота": 30.298825 }, "geometry": { "type": "Point", "coordinates": [ 30.298825, 59.90736 ] } },
{ "type": "Feature", "properties": { "service_name": "Альфа-Банк", "city_service_type": "Банкоматы", "address": "Лиговский проспект, 10", "municipality": "Смольнинское", "administrative_unit": "Центральный район", "city": "Санкт-Петербург", "Широта": 59.931852, "Долгота": 30.361863 }, "geometry": { "type": "Point", "coordinates": [ 30.361863, 59.931852 ] } },
{ "type": "Feature", "properties": { "service_name": "Газпромбанк", "city_service_type": "Банкоматы", "address": "3-я линия В.О., 62", "municipality": "Васильевский", "administrative_unit": "Василеостровский район", "city": "Санкт-Петербург", "Широта": 59.949125, "Долгота": 30.277908 }, "geometry": { "type": "Point", "coordinates": [ 30.277908, 59.949125 ] } },
{ "type": "Feature", "properties": { "service_name": "РНКБ", "city_service_type": "Банкоматы", "address": "улица Малая Конюшенная, 14", "municipality": "Дворцовый", "administrative_unit": "Центральный район", "city": "Санкт-Петербург", "Широта": 59.936269, "Долгота": 30.326333 }, "geometry": { "type": "Point", "coordinates": [ 30.326333, 59.936269 ] } },
{ "type": "Feature", "properties": { "service_name": "Тинькофф банк", "city_service_type": "Банкоматы", "address": "площадь Александра Невского, 2 лит Е", "municipality": "Смольнинское", "administrative_unit": "Центральный район", "city": "Санкт-Петербург", "Широта": 59.924381, "Долгота": 30.386015 }, "geometry": { "type": "Point", "coordinates": [ 30.386015, 59.924381 ] } },
{ "type": "Feature", "properties": { "service_name": "Альфа-Банк", "city_service_type": "Банкоматы", "address": "Суворовский проспект, 18/12", "municipality": "Смольнинское", "administrative_unit": "Центральный район", "city": "Санкт-Петербург", "Широта": 59.935399, "Долгота": 30.37125 }, "geometry": { "type": "Point", "coordinates": [ 30.37125, 59.935399 ] } },
{ "type": "Feature", "properties": { "service_name": "СберБанк", "city_service_type": "Банкоматы", "address": "Невский проспект, 82", "municipality": "Литейный", "administrative_unit": "Центральный район", "city": "Санкт-Петербург", "Широта": 59.932665, "Долгота": 30.349435 }, "geometry": { "type": "Point", "coordinates": [ 30.349435, 59.932665 ] } },
{ "type": "Feature", "properties": { "service_name": "Альфа-Банк", "city_service_type": "Банкоматы", "address": "Большой проспект П.С., 58", "municipality": "Петровский", "administrative_unit": "Петроградский район", "city": "Санкт-Петербург", "Широта": 59.960968, "Долгота": 30.303615 }, "geometry": { "type": "Point", "coordinates": [ 30.303615, 59.960968 ] } },
{ "type": "Feature", "properties": { "service_name": "Альфа-Банк", "city_service_type": "Банкоматы", "address": "Московский проспект, 212", "municipality": "Звёздное", "administrative_unit": "Московский район", "city": "Санкт-Петербург", "Широта": null, "Долгота": null }, "geometry": { "type": "Point", "coordinates": [ 30.32725, 59.852118 ] } },
{ "type": "Feature", "properties": { "service_name": "Тинькофф банк", "city_service_type": "Банкоматы", "address": "улица Пионерская, 21", "municipality": "Петровский", "administrative_unit": "Петроградский район", "city": "Санкт-Петербург", "Широта": 59.957788, "Долгота": 30.290394 }, "geometry": { "type": "Point", "coordinates": [ 30.290394, 59.957788 ] } },
{ "type": "Feature", "properties": { "service_name": "СберБанк", "city_service_type": "Банкоматы", "address": "Лиговский проспект, 153 лит А", "municipality": "Волковское", "administrative_unit": "Фрунзенский район", "city": "Санкт-Петербург", "Широта": 59.914783, "Долгота": 30.349309 }, "geometry": { "type": "Point", "coordinates": [ 30.349309, 59.914783 ] } },
{ "type": "Feature", "properties": { "service_name": "Альфа-Банк", "city_service_type": "Банкоматы", "address": "Московский проспект, 22 лит А", "municipality": "Семёновский", "administrative_unit": "Адмиралтейский район", "city": "Санкт-Петербург", "Широта": 59.919781, "Долгота": 30.318198 }, "geometry": { "type": "Point", "coordinates": [ 30.318198, 59.919781 ] } },
{ "type": "Feature", "properties": { "service_name": "СберБанк", "city_service_type": "Банкоматы", "address": "Кронверкский проспект, 49", "municipality": "Кронверкское", "administrative_unit": "Петроградский район", "city": "Санкт-Петербург", "Широта": 59.957248, "Долгота": 30.308415 }, "geometry": { "type": "Point", "coordinates": [ 30.308415, 59.957248 ] } },
{ "type": "Feature", "properties": { "service_name": "СберБанк", "city_service_type": "Банкоматы", "address": "1-я Красноармейская улица, 4", "municipality": "Измайловское", "administrative_unit": "Адмиралтейский район", "city": "Санкт-Петербург", "Широта": 59.915981, "Долгота": 30.316219 }, "geometry": { "type": "Point", "coordinates": [ 30.316219, 59.915981 ] } },
{ "type": "Feature", "properties": { "service_name": "Альфа-Банк", "city_service_type": "Банкоматы", "address": "Московский проспект, 44", "municipality": "Семёновский", "administrative_unit": "Адмиралтейский район", "city": "Санкт-Петербург", "Широта": 59.912505, "Долгота": 30.319547 }, "geometry": { "type": "Point", "coordinates": [ 30.319547, 59.912505 ] } },
{ "type": "Feature", "properties": { "service_name": "Открытие", "city_service_type": "Банкоматы", "address": "Стремянная, 18", "municipality": "Владимирский", "administrative_unit": "Центральный район", "city": "Санкт-Петербург", "Широта": 59.931018, "Долгота": 30.353134 }, "geometry": { "type": "Point", "coordinates": [ 30.353134, 59.931018 ] } },
{ "type": "Feature", "properties": { "service_name": "Альфа-Банк", "city_service_type": "Банкоматы", "address": "улица Большая Конюшенная, 19/8", "municipality": "Дворцовый", "administrative_unit": "Центральный район", "city": "Санкт-Петербург", "Широта": 59.938495, "Долгота": 30.322844 }, "geometry": { "type": "Point", "coordinates": [ 30.322844, 59.938495 ] } },
{ "type": "Feature", "properties": { "service_name": "Газпромбанк", "city_service_type": "Банкоматы", "address": "Ефимова, 4а", "municipality": "Сенной", "administrative_unit": "Адмиралтейский район", "city": "Санкт-Петербург", "Широта": 59.926076, "Долгота": 30.321861 }, "geometry": { "type": "Point", "coordinates": [ 30.321861, 59.926076 ] } },
{ "type": "Feature", "properties": { "service_name": "СберБанк", "city_service_type": "Банкоматы", "address": "Большая Пушкарская, 47", "municipality": "Кронверкское", "administrative_unit": "Петроградский район", "city": "Санкт-Петербург", "Широта": 59.964017, "Долгота": 30.312999 }, "geometry": { "type": "Point", "coordinates": [ 30.312999, 59.964017 ] } },
{ "type": "Feature", "properties": { "service_name": "СберБанк", "city_service_type": "Банкоматы", "address": "Ушаковская набережная, 3 к1", "municipality": "Ланское", "administrative_unit": "Приморский район", "city": "Санкт-Петербург", "Широта": 59.981711, "Долгота": 30.314824 }, "geometry": { "type": "Point", "coordinates": [ 30.314824, 59.981711 ] } },
{ "type": "Feature", "properties": { "service_name": "Тинькофф банк", "city_service_type": "Банкоматы", "address": "улица Железноводская, 68 к1", "municipality": "Остров Декабристов", "administrative_unit": "Василеостровский район", "city": "Санкт-Петербург", "Широта": 59.949018, "Долгота": 30.233885 }, "geometry": { "type": "Point", "coordinates": [ 30.233885, 59.949018 ] } },
{ "type": "Feature", "properties": { "service_name": "СберБанк", "city_service_type": "Банкоматы", "address": "Ланское шоссе, 18 к1", "municipality": "Ланское", "administrative_unit": "Приморский район", "city": "Санкт-Петербург", "Широта": 59.994703, "Долгота": 30.316058 }, "geometry": { "type": "Point", "coordinates": [ 30.316058, 59.994703 ] } },
{ "type": "Feature", "properties": { "service_name": "СберБанк", "city_service_type": "Банкоматы", "address": "Старо-Петергофский проспект, 30 к1", "municipality": "Екатерингофский", "administrative_unit": "Адмиралтейский район", "city": "Санкт-Петербург", "Широта": 59.904614, "Долгота": 30.27804 }, "geometry": { "type": "Point", "coordinates": [ 30.27804, 59.904614 ] } },
{ "type": "Feature", "properties": { "service_name": "СберБанк", "city_service_type": "Банкоматы", "address": "улица Марата, 11", "municipality": "Владимирский", "administrative_unit": "Центральный район", "city": "Санкт-Петербург", "Широта": 59.929753, "Долгота": 30.353524 }, "geometry": { "type": "Point", "coordinates": [ 30.353524, 59.929753 ] } },
{ "type": "Feature", "properties": { "service_name": "СберБанк", "city_service_type": "Банкоматы", "address": "Александровский парк, 6", "municipality": "Кронверкское", "administrative_unit": "Петроградский район", "city": "Санкт-Петербург", "Широта": 59.956237, "Долгота": 30.319098 }, "geometry": { "type": "Point", "coordinates": [ 30.319098, 59.956237 ] } },
{ "type": "Feature", "properties": { "service_name": "СберБанк", "city_service_type": "Банкоматы", "address": "набережная реки Фонтанки, 76", "municipality": "Владимирский", "administrative_unit": "Центральный район", "city": "Санкт-Петербург", "Широта": 59.926242, "Долгота": 30.336152 }, "geometry": { "type": "Point", "coordinates": [ 30.336152, 59.926242 ] } },
{ "type": "Feature", "properties": { "service_name": "СберБанк", "city_service_type": "Банкоматы", "address": "Троицкий проспект, 7", "municipality": "Измайловское", "administrative_unit": "Адмиралтейский район", "city": "Санкт-Петербург", "Широта": 59.916063, "Долгота": 30.298235 }, "geometry": { "type": "Point", "coordinates": [ 30.298235, 59.916063 ] } },
{ "type": "Feature", "properties": { "service_name": "Газпромбанк", "city_service_type": "Банкоматы", "address": "Большая Пушкарская, 47", "municipality": "Кронверкское", "administrative_unit": "Петроградский район", "city": "Санкт-Петербург", "Широта": 59.964128, "Долгота": 30.312893 }, "geometry": { "type": "Point", "coordinates": [ 30.312893, 59.964128 ] } },
{ "type": "Feature", "properties": { "service_name": "Альфа-Банк", "city_service_type": "Банкоматы", "address": "улица Пионерская, 21", "municipality": "Петровский", "administrative_unit": "Петроградский район", "city": "Санкт-Петербург", "Широта": 59.957788, "Долгота": 30.290394 }, "geometry": { "type": "Point", "coordinates": [ 30.290394, 59.957788 ] } },
{ "type": "Feature", "properties": { "service_name": "ВТБ", "city_service_type": "Банкоматы", "address": "Парадная, 9", "municipality": "Смольнинское", "administrative_unit": "Центральный район", "city": "Санкт-Петербург", "Широта": 59.940566, "Долгота": 30.370457 }, "geometry": { "type": "Point", "coordinates": [ 30.370457, 59.940566 ] } },
{ "type": "Feature", "properties": { "service_name": "Райффайзенбанк", "city_service_type": "Банкоматы", "address": "Лиговский проспект, 30", "municipality": "Лиговка-Ямская", "administrative_unit": "Центральный район", "city": "Санкт-Петербург", "Широта": 59.927117, "Долгота": 30.359505 }, "geometry": { "type": "Point", "coordinates": [ 30.359505, 59.927117 ] } },
{ "type": "Feature", "properties": { "service_name": "Тинькофф банк", "city_service_type": "Банкоматы", "address": "улица Нахимова, 5", "municipality": "Морской", "administrative_unit": "Василеостровский район", "city": "Санкт-Петербург", "Широта": 59.941963, "Долгота": 30.225635 }, "geometry": { "type": "Point", "coordinates": [ 30.225635, 59.941963 ] } },
{ "type": "Feature", "properties": { "service_name": "Тинькофф банк", "city_service_type": "Банкоматы", "address": "Аптекарский проспект, 18 лит А", "municipality": "Аптекарский остров", "administrative_unit": "Петроградский район", "city": "Санкт-Петербург", "Широта": 59.975017, "Долгота": 30.317632 }, "geometry": { "type": "Point", "coordinates": [ 30.317632, 59.975017 ] } },
{ "type": "Feature", "properties": { "service_name": "Альфа-Банк", "city_service_type": "Банкоматы", "address": "набережная Обводного канала, 118 к7", "municipality": "Измайловское", "administrative_unit": "Адмиралтейский район", "city": "Санкт-Петербург", "Широта": 59.907281, "Долгота": 30.302206 }, "geometry": { "type": "Point", "coordinates": [ 30.302206, 59.907281 ] } },
{ "type": "Feature", "properties": { "service_name": "СберБанк", "city_service_type": "Банкоматы", "address": "набережная реки Мойки, 76", "municipality": "Адмиралтейский", "administrative_unit": "Адмиралтейский район", "city": "Санкт-Петербург", "Широта": 59.930546, "Долгота": 30.305677 }, "geometry": { "type": "Point", "coordinates": [ 30.305677, 59.930546 ] } },
{ "type": "Feature", "properties": { "service_name": "Банк Санкт-Петербург", "city_service_type": "Банкоматы", "address": "площадь Островского, 7", "municipality": "Муниципальный округ №78", "administrative_unit": "Центральный район", "city": "Санкт-Петербург", "Широта": 59.931791, "Долгота": 30.334946 }, "geometry": { "type": "Point", "coordinates": [ 30.334946, 59.931791 ] } },
{ "type": "Feature", "properties": { "service_name": "Открытие", "city_service_type": "Банкоматы", "address": "Невский проспект, 68а", "municipality": "Литейный", "administrative_unit": "Центральный район", "city": "Санкт-Петербург", "Широта": 59.933291, "Долгота": 30.344674 }, "geometry": { "type": "Point", "coordinates": [ 30.344674, 59.933291 ] } },
{ "type": "Feature", "properties": { "service_name": "Альфа-Банк", "city_service_type": "Банкоматы", "address": "Лиговский проспект, 153 лит А", "municipality": "Волковское", "administrative_unit": "Фрунзенский район", "city": "Санкт-Петербург", "Широта": 59.914795, "Долгота": 30.349315 }, "geometry": { "type": "Point", "coordinates": [ 30.349315, 59.914795 ] } },
{ "type": "Feature", "properties": { "service_name": "СберБанк", "city_service_type": "Банкоматы", "address": "Белоостровская, 6 лит А", "municipality": "Ланское", "administrative_unit": "Приморский район", "city": "Санкт-Петербург", "Широта": 59.984976, "Долгота": 30.328054 }, "geometry": { "type": "Point", "coordinates": [ 30.328054, 59.984976 ] } },
{ "type": "Feature", "properties": { "service_name": "СберБанк", "city_service_type": "Банкоматы", "address": "Петроградская набережная, 36 лит А", "municipality": "Посадский", "administrative_unit": "Петроградский район", "city": "Санкт-Петербург", "Широта": 59.962984, "Долгота": 30.334024 }, "geometry": { "type": "Point", "coordinates": [ 30.334024, 59.962984 ] } },
{ "type": "Feature", "properties": { "service_name": "Промсвязьбанк", "city_service_type": "Банкоматы", "address": "улица Садовая, 38", "municipality": "Сенной", "administrative_unit": "Адмиралтейский район", "city": "Санкт-Петербург", "Широта": 59.927926, "Долгота": 30.320954 }, "geometry": { "type": "Point", "coordinates": [ 30.320954, 59.927926 ] } },
{ "type": "Feature", "properties": { "service_name": "СберБанк", "city_service_type": "Банкоматы", "address": "Адмиралтейский проезд, 1", "municipality": "Адмиралтейский", "administrative_unit": "Адмиралтейский район", "city": "Санкт-Петербург", "Широта": 59.938326, "Долгота": 30.309049 }, "geometry": { "type": "Point", "coordinates": [ 30.309049, 59.938326 ] } },
{ "type": "Feature", "properties": { "service_name": "СберБанк", "city_service_type": "Банкоматы", "address": "Лиговский проспект, 140", "municipality": "Волковское", "administrative_unit": "Фрунзенский район", "city": "Санкт-Петербург", "Широта": 59.913885, "Долгота": 30.350247 }, "geometry": { "type": "Point", "coordinates": [ 30.350247, 59.913885 ] } },
{ "type": "Feature", "properties": { "service_name": "СберБанк", "city_service_type": "Банкоматы", "address": "набережная канала Грибоедова, 133", "municipality": "Коломна", "administrative_unit": "Адмиралтейский район", "city": "Санкт-Петербург", "Широта": 59.921626, "Долгота": 30.295468 }, "geometry": { "type": "Point", "coordinates": [ 30.295468, 59.921626 ] } },
{ "type": "Feature", "properties": { "service_name": "Альфа-Банк", "city_service_type": "Банкоматы", "address": "улица Звенигородская, 1 к2", "municipality": "Семёновский", "administrative_unit": "Адмиралтейский район", "city": "Санкт-Петербург", "Широта": 59.922333, "Долгота": 30.335983 }, "geometry": { "type": "Point", "coordinates": [ 30.335983, 59.922333 ] } },
{ "type": "Feature", "properties": { "service_name": "СберБанк", "city_service_type": "Банкоматы", "address": "Красного Текстильщика, 2", "municipality": "Смольнинское", "administrative_unit": "Центральный район", "city": "Санкт-Петербург", "Широта": 59.942497, "Долгота": 30.395437 }, "geometry": { "type": "Point", "coordinates": [ 30.395437, 59.942497 ] } },
{ "type": "Feature", "properties": { "service_name": "Альфа-Банк", "city_service_type": "Банкоматы", "address": "площадь Александра Невского, 2", "municipality": "Смольнинское", "administrative_unit": "Центральный район", "city": "Санкт-Петербург", "Широта": 59.924381, "Долгота": 30.386015 }, "geometry": { "type": "Point", "coordinates": [ 30.386015, 59.924381 ] } },
{ "type": "Feature", "properties": { "service_name": "Тинькофф банк", "city_service_type": "Банкоматы", "address": "Большой проспект П.С., 35а", "municipality": "Кронверкское", "administrative_unit": "Петроградский район", "city": "Санкт-Петербург", "Широта": 59.959628, "Долгота": 30.302309 }, "geometry": { "type": "Point", "coordinates": [ 30.302309, 59.959628 ] } },
{ "type": "Feature", "properties": { "service_name": "СберБанк", "city_service_type": "Банкоматы", "address": "улица Кантемировская, 25", "municipality": "Сампсониевское", "administrative_unit": "Выборгский район", "city": "Санкт-Петербург", "Широта": 59.984759, "Долгота": 30.344451 }, "geometry": { "type": "Point", "coordinates": [ 30.344451, 59.984759 ] } },
{ "type": "Feature", "properties": { "service_name": "СберБанк", "city_service_type": "Банкоматы", "address": "переулок Гривцова, 11", "municipality": "Сенной", "administrative_unit": "Адмиралтейский район", "city": "Санкт-Петербург", "Широта": 59.927722, "Долгота": 30.316277 }, "geometry": { "type": "Point", "coordinates": [ 30.316277, 59.927722 ] } },
{ "type": "Feature", "properties": { "service_name": "СберБанк", "city_service_type": "Банкоматы", "address": "Инженерная, 2-4", "municipality": "Дворцовый", "administrative_unit": "Центральный район", "city": "Санкт-Петербург", "Широта": 59.938403, "Долгота": 30.332954 }, "geometry": { "type": "Point", "coordinates": [ 30.332954, 59.938403 ] } },
{ "type": "Feature", "properties": { "service_name": "ВТБ", "city_service_type": "Банкоматы", "address": "Лиговский проспект, 54", "municipality": "Лиговка-Ямская", "administrative_unit": "Центральный район", "city": "Санкт-Петербург", "Широта": 59.924631, "Долгота": 30.357426 }, "geometry": { "type": "Point", "coordinates": [ 30.357426, 59.924631 ] } },
{ "type": "Feature", "properties": { "service_name": "СберБанк", "city_service_type": "Банкоматы", "address": "улица Пионерская, 21", "municipality": "Петровский", "administrative_unit": "Петроградский район", "city": "Санкт-Петербург", "Широта": 59.957788, "Долгота": 30.290394 }, "geometry": { "type": "Point", "coordinates": [ 30.290394, 59.957788 ] } },
{ "type": "Feature", "properties": { "service_name": "СберБанк", "city_service_type": "Банкоматы", "address": "улица Марата, 65", "municipality": "Владимирский", "administrative_unit": "Центральный район", "city": "Санкт-Петербург", "Широта": 59.921508, "Долгота": 30.344964 }, "geometry": { "type": "Point", "coordinates": [ 30.344964, 59.921508 ] } },
{ "type": "Feature", "properties": { "service_name": "СберБанк", "city_service_type": "Банкоматы", "address": "Московский проспект, 28", "municipality": "Семёновский", "administrative_unit": "Адмиралтейский район", "city": "Санкт-Петербург", "Широта": 59.916685, "Долгота": 30.318667 }, "geometry": { "type": "Point", "coordinates": [ 30.318667, 59.916685 ] } },
{ "type": "Feature", "properties": { "service_name": "СберБанк", "city_service_type": "Банкоматы", "address": "Загородный проспект, 52", "municipality": "Семёновский", "administrative_unit": "Адмиралтейский район", "city": "Санкт-Петербург", "Широта": 59.92017, "Долгота": 30.328832 }, "geometry": { "type": "Point", "coordinates": [ 30.328832, 59.92017 ] } },
{ "type": "Feature", "properties": { "service_name": "Тинькофф банк", "city_service_type": "Банкоматы", "address": "Коломяжский проспект, 17 к1", "municipality": "Комендантский аэродром", "administrative_unit": "Приморский район", "city": "Санкт-Петербург", "Широта": 60.005177, "Долгота": 30.299439 }, "geometry": { "type": "Point", "coordinates": [ 30.299439, 60.005177 ] } },
{ "type": "Feature", "properties": { "service_name": "Альфа-Банк", "city_service_type": "Банкоматы", "address": "Английский проспект, 16", "municipality": "Коломна", "administrative_unit": "Адмиралтейский район", "city": "Санкт-Петербург", "Широта": 59.925686, "Долгота": 30.283647 }, "geometry": { "type": "Point", "coordinates": [ 30.283647, 59.925686 ] } },
{ "type": "Feature", "properties": { "service_name": "Газпромбанк", "city_service_type": "Банкоматы", "address": "Невский проспект, 48а", "municipality": "Дворцовый", "administrative_unit": "Центральный район", "city": "Санкт-Петербург", "Широта": 59.935935, "Долгота": 30.334645 }, "geometry": { "type": "Point", "coordinates": [ 30.334645, 59.935935 ] } },
{ "type": "Feature", "properties": { "service_name": "СберБанк", "city_service_type": "Банкоматы", "address": "улица Уральская, 19 к9", "municipality": "Остров Декабристов", "administrative_unit": "Василеостровский район", "city": "Санкт-Петербург", "Широта": 59.954646, "Долгота": 30.257094 }, "geometry": { "type": "Point", "coordinates": [ 30.257094, 59.954646 ] } },
{ "type": "Feature", "properties": { "service_name": "СберБанк", "city_service_type": "Банкоматы", "address": "Московский проспект, 97 лит А", "municipality": "Московская застава", "administrative_unit": "Московский район", "city": "Санкт-Петербург", "Широта": 59.893025, "Долгота": 30.31853 }, "geometry": { "type": "Point", "coordinates": [ 30.31853, 59.893025 ] } },
{ "type": "Feature", "properties": { "service_name": "ВТБ", "city_service_type": "Банкоматы", "address": "площадь Ленина, 6", "municipality": "Финляндский", "administrative_unit": "Калининский район", "city": "Санкт-Петербург", "Широта": 59.955543, "Долгота": 30.355898 }, "geometry": { "type": "Point", "coordinates": [ 30.355898, 59.955543 ] } },
{ "type": "Feature", "properties": { "service_name": "ВТБ", "city_service_type": "Банкоматы", "address": "площадь Восстания, 2 лит А", "municipality": "Смольнинское", "administrative_unit": "Центральный район", "city": "Санкт-Петербург", "Широта": 59.931516, "Долгота": 30.360778 }, "geometry": { "type": "Point", "coordinates": [ 30.360778, 59.931516 ] } },
{ "type": "Feature", "properties": { "service_name": "ВТБ", "city_service_type": "Банкоматы", "address": "Невский проспект, 85", "municipality": "Лиговка-Ямская", "administrative_unit": "Центральный район", "city": "Санкт-Петербург", "Широта": 59.92911, "Долгота": 30.363446 }, "geometry": { "type": "Point", "coordinates": [ 30.363446, 59.92911 ] } },
{ "type": "Feature", "properties": { "service_name": "Почта Банк", "city_service_type": "Банкоматы", "address": "Невский проспект, 70", "municipality": "Литейный", "administrative_unit": "Центральный район", "city": "Санкт-Петербург", "Широта": 59.933161, "Долгота": 30.345714 }, "geometry": { "type": "Point", "coordinates": [ 30.345714, 59.933161 ] } },
{ "type": "Feature", "properties": { "service_name": "СберБанк", "city_service_type": "Банкоматы", "address": "Биржевой переулок, 2-4", "municipality": "Муниципальный округ №7", "administrative_unit": "Василеостровский район", "city": "Санкт-Петербург", "Широта": 59.944837, "Долгота": 30.293792 }, "geometry": { "type": "Point", "coordinates": [ 30.293792, 59.944837 ] } },
{ "type": "Feature", "properties": { "service_name": "Альфа-Банк", "city_service_type": "Банкоматы", "address": "Кронверкский проспект, 49", "municipality": "Кронверкское", "administrative_unit": "Петроградский район", "city": "Санкт-Петербург", "Широта": 59.95724, "Долгота": 30.308424 }, "geometry": { "type": "Point", "coordinates": [ 30.308424, 59.95724 ] } },
{ "type": "Feature", "properties": { "service_name": "СберБанк", "city_service_type": "Банкоматы", "address": "Мясная, 19-21", "municipality": "Коломна", "administrative_unit": "Адмиралтейский район", "city": "Санкт-Петербург", "Широта": 59.918538, "Долгота": 30.28127 }, "geometry": { "type": "Point", "coordinates": [ 30.28127, 59.918538 ] } },
{ "type": "Feature", "properties": { "service_name": "СберБанк", "city_service_type": "Банкоматы", "address": "Коломяжский проспект, 15 к2", "municipality": "Комендантский аэродром", "administrative_unit": "Приморский район", "city": "Санкт-Петербург", "Широта": 60.001609, "Долгота": 30.2992 }, "geometry": { "type": "Point", "coordinates": [ 30.2992, 60.001609 ] } },
{ "type": "Feature", "properties": { "service_name": "СберБанк", "city_service_type": "Банкоматы", "address": "Малый проспект В.О., 52 лит Б", "municipality": "Васильевский", "administrative_unit": "Василеостровский район", "city": "Санкт-Петербург", "Широта": 59.942498, "Долгота": 30.26159 }, "geometry": { "type": "Point", "coordinates": [ 30.26159, 59.942498 ] } },
{ "type": "Feature", "properties": { "service_name": "СберБанк", "city_service_type": "Банкоматы", "address": "Косая линия, 16", "municipality": "Муниципальный округ №7", "administrative_unit": "Василеостровский район", "city": "Санкт-Петербург", "Широта": 59.927714, "Долгота": 30.258117 }, "geometry": { "type": "Point", "coordinates": [ 30.258117, 59.927714 ] } },
{ "type": "Feature", "properties": { "service_name": "Альфа-Банк", "city_service_type": "Банкоматы", "address": "улица Академика Лебедева, 31 к2", "municipality": "Финляндский", "administrative_unit": "Калининский район", "city": "Санкт-Петербург", "Широта": 59.959088, "Долгота": 30.35408 }, "geometry": { "type": "Point", "coordinates": [ 30.35408, 59.959088 ] } },
{ "type": "Feature", "properties": { "service_name": "Тинькофф банк", "city_service_type": "Банкоматы", "address": "улица Торжковская, 7", "municipality": "Ланское", "administrative_unit": "Приморский район", "city": "Санкт-Петербург", "Широта": 59.988958, "Долгота": 30.311342 }, "geometry": { "type": "Point", "coordinates": [ 30.311342, 59.988958 ] } },
{ "type": "Feature", "properties": { "service_name": "Альфа-Банк", "city_service_type": "Банкоматы", "address": "Новосмоленская набережная, 1", "municipality": "Остров Декабристов", "administrative_unit": "Василеостровский район", "city": "Санкт-Петербург", "Широта": 59.949177, "Долгота": 30.229664 }, "geometry": { "type": "Point", "coordinates": [ 30.229664, 59.949177 ] } },
{ "type": "Feature", "properties": { "service_name": "СберБанк", "city_service_type": "Банкоматы", "address": "Малый проспект В.О., 88", "municipality": "Гавань", "administrative_unit": "Василеостровский район", "city": "Санкт-Петербург", "Широта": 59.938667, "Долгота": 30.22998 }, "geometry": { "type": "Point", "coordinates": [ 30.22998, 59.938667 ] } },
{ "type": "Feature", "properties": { "service_name": "Тинькофф банк", "city_service_type": "Банкоматы", "address": "Лиговский проспект, 161", "municipality": "Волковское", "administrative_unit": "Фрунзенский район", "city": "Санкт-Петербург", "Широта": 59.913735, "Долгота": 30.349021 }, "geometry": { "type": "Point", "coordinates": [ 30.349021, 59.913735 ] } },
{ "type": "Feature", "properties": { "service_name": "ВТБ", "city_service_type": "Банкоматы", "address": "Каменноостровский проспект, 24", "municipality": "Кронверкское", "administrative_unit": "Петроградский район", "city": "Санкт-Петербург", "Широта": 59.961612, "Долгота": 30.315145 }, "geometry": { "type": "Point", "coordinates": [ 30.315145, 59.961612 ] } },
{ "type": "Feature", "properties": { "service_name": "Газпромбанк", "city_service_type": "Банкоматы", "address": "Большой проспект В.О., 80", "municipality": "Муниципальный округ №7", "administrative_unit": "Василеостровский район", "city": "Санкт-Петербург", "Широта": 59.930299, "Долгота": 30.253144 }, "geometry": { "type": "Point", "coordinates": [ 30.253144, 59.930299 ] } },
{ "type": "Feature", "properties": { "service_name": "ВТБ", "city_service_type": "Банкоматы", "address": "Малый проспект В.О., 22", "municipality": "Васильевский", "administrative_unit": "Василеостровский район", "city": "Санкт-Петербург", "Широта": 59.94591, "Долгота": 30.270896 }, "geometry": { "type": "Point", "coordinates": [ 30.270896, 59.94591 ] } },
{ "type": "Feature", "properties": { "service_name": "СберБанк", "city_service_type": "Банкоматы", "address": "улица Гаванская, 19", "municipality": "Гавань", "administrative_unit": "Василеостровский район", "city": "Санкт-Петербург", "Широта": 59.931689, "Долгота": 30.240635 }, "geometry": { "type": "Point", "coordinates": [ 30.240635, 59.931689 ] } },
{ "type": "Feature", "properties": { "service_name": "ВТБ", "city_service_type": "Банкоматы", "address": "площадь Восстания, 2 лит А", "municipality": "Смольнинское", "administrative_unit": "Центральный район", "city": "Санкт-Петербург", "Широта": 59.931601, "Долгота": 30.360206 }, "geometry": { "type": "Point", "coordinates": [ 30.360206, 59.931601 ] } },
{ "type": "Feature", "properties": { "service_name": "СберБанк", "city_service_type": "Банкоматы", "address": "Замятин переулок, 4", "municipality": "Адмиралтейский", "administrative_unit": "Адмиралтейский район", "city": "Санкт-Петербург", "Широта": 59.933255, "Долгота": 30.297214 }, "geometry": { "type": "Point", "coordinates": [ 30.297214, 59.933255 ] } },
{ "type": "Feature", "properties": { "service_name": "СберБанк", "city_service_type": "Банкоматы", "address": "Восстания, 2", "municipality": "Литейный", "administrative_unit": "Центральный район", "city": "Санкт-Петербург", "Широта": 59.932032, "Долгота": 30.358782 }, "geometry": { "type": "Point", "coordinates": [ 30.358782, 59.932032 ] } },
{ "type": "Feature", "properties": { "service_name": "Альфа-Банк", "city_service_type": "Банкоматы", "address": "Большой проспект В.О., 16/14", "municipality": "Муниципальный округ №7", "administrative_unit": "Василеостровский район", "city": "Санкт-Петербург", "Широта": 59.939325, "Долгота": 30.284968 }, "geometry": { "type": "Point", "coordinates": [ 30.284968, 59.939325 ] } },
{ "type": "Feature", "properties": { "service_name": "Альфа-Банк", "city_service_type": "Банкоматы", "address": "Лиговский проспект, 73", "municipality": "Владимирский", "administrative_unit": "Центральный район", "city": "Санкт-Петербург", "Широта": 59.925454, "Долгота": 30.357057 }, "geometry": { "type": "Point", "coordinates": [ 30.357057, 59.925454 ] } },
{ "type": "Feature", "properties": { "service_name": "СберБанк", "city_service_type": "Банкоматы", "address": "Литовская, 2 лит А", "municipality": "Сампсониевское", "administrative_unit": "Выборгский район", "city": "Санкт-Петербург", "Широта": 59.977766, "Долгота": 30.340171 }, "geometry": { "type": "Point", "coordinates": [ 30.340171, 59.977766 ] } },
{ "type": "Feature", "properties": { "service_name": "СберБанк", "city_service_type": "Банкоматы", "address": "Казанская, 36", "municipality": "Сенной", "administrative_unit": "Адмиралтейский район", "city": "Санкт-Петербург", "Широта": 59.929422, "Долгота": 30.3134 }, "geometry": { "type": "Point", "coordinates": [ 30.3134, 59.929422 ] } },
{ "type": "Feature", "properties": { "service_name": "СберБанк", "city_service_type": "Банкоматы", "address": "Московский проспект, 124", "municipality": "Московская застава", "administrative_unit": "Московский район", "city": "Санкт-Петербург", "Широта": 59.889423, "Долгота": 30.320103 }, "geometry": { "type": "Point", "coordinates": [ 30.320103, 59.889423 ] } },
{ "type": "Feature", "properties": { "service_name": "СберБанк", "city_service_type": "Банкоматы", "address": "Московский проспект, 28", "municipality": "Семёновский", "administrative_unit": "Адмиралтейский район", "city": "Санкт-Петербург", "Широта": 59.916156, "Долгота": 30.31837 }, "geometry": { "type": "Point", "coordinates": [ 30.31837, 59.916156 ] } },
{ "type": "Feature", "properties": { "service_name": "СберБанк", "city_service_type": "Банкоматы", "address": "площадь Александра Невского, 2", "municipality": "Смольнинское", "administrative_unit": "Центральный район", "city": "Санкт-Петербург", "Широта": 59.925154, "Долгота": 30.387576 }, "geometry": { "type": "Point", "coordinates": [ 30.387576, 59.925154 ] } },
{ "type": "Feature", "properties": { "service_name": "Газпромбанк", "city_service_type": "Банкоматы", "address": "улица Железноводская, 68 к1", "municipality": "Остров Декабристов", "administrative_unit": "Василеостровский район", "city": "Санкт-Петербург", "Широта": 59.948981, "Долгота": 30.233765 }, "geometry": { "type": "Point", "coordinates": [ 30.233765, 59.948981 ] } },
{ "type": "Feature", "properties": { "service_name": "СберБанк", "city_service_type": "Банкоматы", "address": "Лиговский проспект, 37", "municipality": "Смольнинское", "administrative_unit": "Центральный район", "city": "Санкт-Петербург", "Широта": 59.932435, "Долгота": 30.361412 }, "geometry": { "type": "Point", "coordinates": [ 30.361412, 59.932435 ] } },
{ "type": "Feature", "properties": { "service_name": "СберБанк", "city_service_type": "Банкоматы", "address": "Рюхина улица, 8", "municipality": "Чкаловское", "administrative_unit": "Петроградский район", "city": "Санкт-Петербург", "Широта": 59.971871, "Долгота": 30.259668 }, "geometry": { "type": "Point", "coordinates": [ 30.259668, 59.971871 ] } },
{ "type": "Feature", "properties": { "service_name": "Тинькофф банк", "city_service_type": "Банкоматы", "address": "Курляндская, 8 к2", "municipality": "Екатерингофский", "administrative_unit": "Адмиралтейский район", "city": "Санкт-Петербург", "Широта": 59.911416, "Долгота": 30.289598 }, "geometry": { "type": "Point", "coordinates": [ 30.289598, 59.911416 ] } },
{ "type": "Feature", "properties": { "service_name": "Росбанк", "city_service_type": "Банкоматы", "address": "Караванная, 1", "municipality": "Дворцовый", "administrative_unit": "Центральный район", "city": "Санкт-Петербург", "Широта": 59.936498, "Долгота": 30.341195 }, "geometry": { "type": "Point", "coordinates": [ 30.341195, 59.936498 ] } },
{ "type": "Feature", "properties": { "service_name": "Росбанк", "city_service_type": "Банкоматы", "address": "Невский проспект, 68а", "municipality": "Литейный", "administrative_unit": "Центральный район", "city": "Санкт-Петербург", "Широта": 59.933225, "Долгота": 30.345203 }, "geometry": { "type": "Point", "coordinates": [ 30.345203, 59.933225 ] } },
{ "type": "Feature", "properties": { "service_name": "СберБанк", "city_service_type": "Банкоматы", "address": "проспект Маршала Блюхера, 9 к3", "municipality": "Финляндский", "administrative_unit": "Калининский район", "city": "Санкт-Петербург", "Широта": 59.977989, "Долгота": 30.372911 }, "geometry": { "type": "Point", "coordinates": [ 30.372911, 59.977989 ] } },
{ "type": "Feature", "properties": { "service_name": "ВТБ", "city_service_type": "Банкоматы", "address": "Чайковского, 32", "municipality": "Литейный", "administrative_unit": "Центральный район", "city": "Санкт-Петербург", "Широта": 59.946633, "Долгота": 30.356151 }, "geometry": { "type": "Point", "coordinates": [ 30.356151, 59.946633 ] } },
{ "type": "Feature", "properties": { "service_name": "Райффайзенбанк", "city_service_type": "Банкоматы", "address": "Ефимова, 2", "municipality": "Сенной", "administrative_unit": "Адмиралтейский район", "city": "Санкт-Петербург", "Широта": 59.925995, "Долгота": 30.320901 }, "geometry": { "type": "Point", "coordinates": [ 30.320901, 59.925995 ] } },
{ "type": "Feature", "properties": { "service_name": "СберБанк", "city_service_type": "Банкоматы", "address": "Брантовская дорога, 3", "municipality": "Большая Охта", "administrative_unit": "Красногвардейский район", "city": "Санкт-Петербург", "Широта": 59.93993, "Долгота": 30.417978 }, "geometry": { "type": "Point", "coordinates": [ 30.417978, 59.93993 ] } },
{ "type": "Feature", "properties": { "service_name": "Хоум Банк", "city_service_type": "Банкоматы", "address": "Маяковского, 6", "municipality": "Литейный", "administrative_unit": "Центральный район", "city": "Санкт-Петербург", "Широта": 59.933144, "Долгота": 30.354137 }, "geometry": { "type": "Point", "coordinates": [ 30.354137, 59.933144 ] } },
{ "type": "Feature", "properties": { "service_name": "Тинькофф банк", "city_service_type": "Банкоматы", "address": "набережная Обводного канала, 118 лит С", "municipality": "Измайловское", "administrative_unit": "Адмиралтейский район", "city": "Санкт-Петербург", "Широта": 59.907861, "Долгота": 30.307108 }, "geometry": { "type": "Point", "coordinates": [ 30.307108, 59.907861 ] } },
{ "type": "Feature", "properties": { "service_name": "СберБанк", "city_service_type": "Банкоматы", "address": "Биржевая линия, 1/1 лит А", "municipality": "Муниципальный округ №7", "administrative_unit": "Василеостровский район", "city": "Санкт-Петербург", "Широта": 59.943813, "Долгота": 30.296822 }, "geometry": { "type": "Point", "coordinates": [ 30.296822, 59.943813 ] } },
{ "type": "Feature", "properties": { "service_name": "СберБанк", "city_service_type": "Банкоматы", "address": "улица Звенигородская, 7", "municipality": "Семёновский", "administrative_unit": "Адмиралтейский район", "city": "Санкт-Петербург", "Широта": 59.918829, "Долгота": 30.338894 }, "geometry": { "type": "Point", "coordinates": [ 30.338894, 59.918829 ] } },
{ "type": "Feature", "properties": { "service_name": "СберБанк", "city_service_type": "Банкоматы", "address": "Смолячкова, 19", "municipality": "Сампсониевское", "administrative_unit": "Выборгский район", "city": "Санкт-Петербург", "Широта": 59.970959, "Долгота": 30.346489 }, "geometry": { "type": "Point", "coordinates": [ 30.346489, 59.970959 ] } },
{ "type": "Feature", "properties": { "service_name": "СберБанк", "city_service_type": "Банкоматы", "address": "Суворовский проспект, 56", "municipality": "Смольнинское", "administrative_unit": "Центральный район", "city": "Санкт-Петербург", "Широта": 59.944806, "Долгота": 30.386709 }, "geometry": { "type": "Point", "coordinates": [ 30.386709, 59.944806 ] } },
{ "type": "Feature", "properties": { "service_name": "СберБанк", "city_service_type": "Банкоматы", "address": "Измайловский проспект, 29", "municipality": "Измайловское", "administrative_unit": "Адмиралтейский район", "city": "Санкт-Петербург", "Широта": 59.910245, "Долгота": 30.305073 }, "geometry": { "type": "Point", "coordinates": [ 30.305073, 59.910245 ] } },
{ "type": "Feature", "properties": { "service_name": "СберБанк", "city_service_type": "Банкоматы", "address": "проспект Испытателей, 5", "municipality": "Комендантский аэродром", "administrative_unit": "Приморский район", "city": "Санкт-Петербург", "Широта": 60.003885, "Долгота": 30.300741 }, "geometry": { "type": "Point", "coordinates": [ 30.300741, 60.003885 ] } },
{ "type": "Feature", "properties": { "service_name": "СберБанк", "city_service_type": "Банкоматы", "address": "улица Савушкина, 2 лит А", "municipality": "Ланское", "administrative_unit": "Приморский район", "city": "Санкт-Петербург", "Широта": 59.985375, "Долгота": 30.301088 }, "geometry": { "type": "Point", "coordinates": [ 30.301088, 59.985375 ] } },
{ "type": "Feature", "properties": { "service_name": "ВТБ", "city_service_type": "Банкоматы", "address": "Каменноостровский проспект, 44", "municipality": "Аптекарский остров", "administrative_unit": "Петроградский район", "city": "Санкт-Петербург", "Широта": 59.96939, "Долгота": 30.307841 }, "geometry": { "type": "Point", "coordinates": [ 30.307841, 59.96939 ] } },
{ "type": "Feature", "properties": { "service_name": "СберБанк", "city_service_type": "Банкоматы", "address": "Александровский парк, 6", "municipality": "Кронверкское", "administrative_unit": "Петроградский район", "city": "Санкт-Петербург", "Широта": 59.956346, "Долгота": 30.318746 }, "geometry": { "type": "Point", "coordinates": [ 30.318746, 59.956346 ] } },
{ "type": "Feature", "properties": { "service_name": "Тинькофф банк", "city_service_type": "Банкоматы", "address": "Красного Текстильщика, 10-12 лит Д", "municipality": "Смольнинское", "administrative_unit": "Центральный район", "city": "Санкт-Петербург", "Широта": 59.941468, "Долгота": 30.395369 }, "geometry": { "type": "Point", "coordinates": [ 30.395369, 59.941468 ] } },
{ "type": "Feature", "properties": { "service_name": "Тинькофф банк", "city_service_type": "Банкоматы", "address": "Кожевенная линия, 40", "municipality": "Гавань", "administrative_unit": "Василеостровский район", "city": "Санкт-Петербург", "Широта": 59.924278, "Долгота": 30.242284 }, "geometry": { "type": "Point", "coordinates": [ 30.242284, 59.924278 ] } },
{ "type": "Feature", "properties": { "service_name": "СберБанк", "city_service_type": "Банкоматы", "address": "Красного Текстильщика, 10-12 лит Д", "municipality": "Смольнинское", "administrative_unit": "Центральный район", "city": "Санкт-Петербург", "Широта": 59.941468, "Долгота": 30.395369 }, "geometry": { "type": "Point", "coordinates": [ 30.395369, 59.941468 ] } },
{ "type": "Feature", "properties": { "service_name": "Тинькофф банк", "city_service_type": "Банкоматы", "address": "улица Савушкина, 7 к3", "municipality": "Ланское", "administrative_unit": "Приморский район", "city": "Санкт-Петербург", "Широта": 59.987186, "Долгота": 30.298058 }, "geometry": { "type": "Point", "coordinates": [ 30.298058, 59.987186 ] } },
{ "type": "Feature", "properties": { "service_name": "СберБанк", "city_service_type": "Банкоматы", "address": "Аптекарский проспект, 18", "municipality": "Аптекарский остров", "administrative_unit": "Петроградский район", "city": "Санкт-Петербург", "Широта": 59.975017, "Долгота": 30.317632 }, "geometry": { "type": "Point", "coordinates": [ 30.317632, 59.975017 ] } },
{ "type": "Feature", "properties": { "service_name": "СберБанк", "city_service_type": "Банкоматы", "address": "набережная Обводного канала, 72 ст1", "municipality": "Московская застава", "administrative_unit": "Московский район", "city": "Санкт-Петербург", "Широта": 59.912382, "Долгота": 30.332503 }, "geometry": { "type": "Point", "coordinates": [ 30.332503, 59.912382 ] } },
{ "type": "Feature", "properties": { "service_name": "Тинькофф банк", "city_service_type": "Банкоматы", "address": "Академика Павлова, 5", "municipality": "Аптекарский остров", "administrative_unit": "Петроградский район", "city": "Санкт-Петербург", "Широта": 59.97764, "Долгота": 30.317627 }, "geometry": { "type": "Point", "coordinates": [ 30.317627, 59.97764 ] } },
{ "type": "Feature", "properties": { "service_name": "ВТБ", "city_service_type": "Банкоматы", "address": "Ропшинская, 1", "municipality": "Петровский", "administrative_unit": "Петроградский район", "city": "Санкт-Петербург", "Широта": 59.957473, "Долгота": 30.298245 }, "geometry": { "type": "Point", "coordinates": [ 30.298245, 59.957473 ] } },
{ "type": "Feature", "properties": { "service_name": "Тинькофф банк", "city_service_type": "Банкоматы", "address": "улица Марата, 69-71 лит А", "municipality": "Владимирский", "administrative_unit": "Центральный район", "city": "Санкт-Петербург", "Широта": 59.921003, "Долгота": 30.343205 }, "geometry": { "type": "Point", "coordinates": [ 30.343205, 59.921003 ] } },
{ "type": "Feature", "properties": { "service_name": "Банк ДОМ.РФ", "city_service_type": "Банкоматы", "address": "улица Садовая, 10", "municipality": "Дворцовый", "administrative_unit": "Центральный район", "city": "Санкт-Петербург", "Широта": 59.936655, "Долгота": 30.336341 }, "geometry": { "type": "Point", "coordinates": [ 30.336341, 59.936655 ] } },
{ "type": "Feature", "properties": { "service_name": "Открытие", "city_service_type": "Банкоматы", "address": "Ефимова, 2", "municipality": "Сенной", "administrative_unit": "Адмиралтейский район", "city": "Санкт-Петербург", "Широта": 59.926301, "Долгота": 30.320585 }, "geometry": { "type": "Point", "coordinates": [ 30.320585, 59.926301 ] } },
{ "type": "Feature", "properties": { "service_name": "Альфа-Банк", "city_service_type": "Банкоматы", "address": "21-я линия В.О., 6 лит Ж", "municipality": "Муниципальный округ №7", "administrative_unit": "Василеостровский район", "city": "Санкт-Петербург", "Широта": 59.93208, "Долгота": 30.267405 }, "geometry": { "type": "Point", "coordinates": [ 30.267405, 59.93208 ] } },
{ "type": "Feature", "properties": { "service_name": "Газпромбанк", "city_service_type": "Банкоматы", "address": "Выборгская набережная, 49", "municipality": "Сампсониевское", "administrative_unit": "Выборгский район", "city": "Санкт-Петербург", "Широта": 59.975796, "Долгота": 30.330876 }, "geometry": { "type": "Point", "coordinates": [ 30.330876, 59.975796 ] } },
{ "type": "Feature", "properties": { "service_name": "ВТБ", "city_service_type": "Банкоматы", "address": "Невский проспект, 153", "municipality": "Лиговка-Ямская", "administrative_unit": "Центральный район", "city": "Санкт-Петербург", "Широта": 59.925018, "Долгота": 30.380806 }, "geometry": { "type": "Point", "coordinates": [ 30.380806, 59.925018 ] } },
{ "type": "Feature", "properties": { "service_name": "Совкомбанк", "city_service_type": "Банкоматы", "address": "Восстания, 11", "municipality": "Смольнинское", "administrative_unit": "Центральный район", "city": "Санкт-Петербург", "Широта": 59.933541, "Долгота": 30.360336 }, "geometry": { "type": "Point", "coordinates": [ 30.360336, 59.933541 ] } },
{ "type": "Feature", "properties": { "service_name": "СберБанк", "city_service_type": "Банкоматы", "address": "Апраксин переулок, 13", "municipality": "Муниципальный округ №78", "administrative_unit": "Центральный район", "city": "Санкт-Петербург", "Широта": 59.927808, "Долгота": 30.327004 }, "geometry": { "type": "Point", "coordinates": [ 30.327004, 59.927808 ] } },
{ "type": "Feature", "properties": { "service_name": "СберБанк", "city_service_type": "Банкоматы", "address": "Невский проспект, 71", "municipality": "Владимирский", "administrative_unit": "Центральный район", "city": "Санкт-Петербург", "Широта": 59.931624, "Долгота": 30.354875 }, "geometry": { "type": "Point", "coordinates": [ 30.354875, 59.931624 ] } },
{ "type": "Feature", "properties": { "service_name": "СберБанк", "city_service_type": "Банкоматы", "address": "Полюстровский проспект, 84а", "municipality": "Сампсониевское", "administrative_unit": "Выборгский район", "city": "Санкт-Петербург", "Широта": 59.987844, "Долгота": 30.353904 }, "geometry": { "type": "Point", "coordinates": [ 30.353904, 59.987844 ] } },
{ "type": "Feature", "properties": { "service_name": "Тинькофф банк", "city_service_type": "Банкоматы", "address": "улица Звенигородская, 7", "municipality": "Семёновский", "administrative_unit": "Адмиралтейский район", "city": "Санкт-Петербург", "Широта": 59.919156, "Долгота": 30.338772 }, "geometry": { "type": "Point", "coordinates": [ 30.338772, 59.919156 ] } },
{ "type": "Feature", "properties": { "service_name": "Тинькофф банк", "city_service_type": "Банкоматы", "address": "Полюстровский проспект, 84а", "municipality": "Сампсониевское", "administrative_unit": "Выборгский район", "city": "Санкт-Петербург", "Широта": 59.987683, "Долгота": 30.353233 }, "geometry": { "type": "Point", "coordinates": [ 30.353233, 59.987683 ] } },
{ "type": "Feature", "properties": { "service_name": "Тинькофф банк", "city_service_type": "Банкоматы", "address": "Московский проспект, 111", "municipality": "Московская застава", "administrative_unit": "Московский район", "city": "Санкт-Петербург", "Широта": 59.889007, "Долгота": 30.318923 }, "geometry": { "type": "Point", "coordinates": [ 30.318923, 59.889007 ] } },
{ "type": "Feature", "properties": { "service_name": "Тинькофф банк", "city_service_type": "Банкоматы", "address": "улица Уральская, 1 лит Л", "municipality": "Остров Декабристов", "administrative_unit": "Василеостровский район", "city": "Санкт-Петербург", "Широта": 59.951346, "Долгота": 30.268068 }, "geometry": { "type": "Point", "coordinates": [ 30.268068, 59.951346 ] } },
{ "type": "Feature", "properties": { "service_name": "Газпромбанк", "city_service_type": "Банкоматы", "address": "улица Большая Конюшенная, 27", "municipality": "Дворцовый", "administrative_unit": "Центральный район", "city": "Санкт-Петербург", "Широта": 59.937065, "Долгота": 30.322421 }, "geometry": { "type": "Point", "coordinates": [ 30.322421, 59.937065 ] } },
{ "type": "Feature", "properties": { "service_name": "Альфа-Банк", "city_service_type": "Банкоматы", "address": "Академика Павлова, 5", "municipality": "Аптекарский остров", "administrative_unit": "Петроградский район", "city": "Санкт-Петербург", "Широта": 59.977581, "Долгота": 30.317849 }, "geometry": { "type": "Point", "coordinates": [ 30.317849, 59.977581 ] } },
{ "type": "Feature", "properties": { "service_name": "СберБанк", "city_service_type": "Банкоматы", "address": "Московский проспект, 94", "municipality": "Московская застава", "administrative_unit": "Московский район", "city": "Санкт-Петербург", "Широта": 59.901813, "Долгота": 30.319386 }, "geometry": { "type": "Point", "coordinates": [ 30.319386, 59.901813 ] } },
{ "type": "Feature", "properties": { "service_name": "Альфа-Банк", "city_service_type": "Банкоматы", "address": "набережная Чёрной речки, 41 к7", "municipality": "Ланское", "administrative_unit": "Приморский район", "city": "Санкт-Петербург", "Широта": 59.985477, "Долгота": 30.307517 }, "geometry": { "type": "Point", "coordinates": [ 30.307517, 59.985477 ] } },
{ "type": "Feature", "properties": { "service_name": "Банк СИАБ", "city_service_type": "Банкоматы", "address": "проспект Стачек, 4/1", "municipality": "Нарвский", "administrative_unit": "Кировский район", "city": null, "Широта": null, "Долгота": null }, "geometry": { "type": "Point", "coordinates": [ 30.275561, 59.899261 ] } },
{ "type": "Feature", "properties": { "service_name": "СберБанк", "city_service_type": "Банкоматы", "address": "площадь Островского, 6", "municipality": "Муниципальный округ №78", "administrative_unit": "Центральный район", "city": "Санкт-Петербург", "Широта": 59.932124, "Долгота": 30.336497 }, "geometry": { "type": "Point", "coordinates": [ 30.336497, 59.932124 ] } },
{ "type": "Feature", "properties": { "service_name": "СберБанк", "city_service_type": "Банкоматы", "address": "Зодчего Росси, 2", "municipality": "Муниципальный округ №78", "administrative_unit": "Центральный район", "city": "Санкт-Петербург", "Широта": 59.931117, "Долгота": 30.336597 }, "geometry": { "type": "Point", "coordinates": [ 30.336597, 59.931117 ] } },
{ "type": "Feature", "properties": { "service_name": "СберБанк", "city_service_type": "Банкоматы", "address": "Чайковского, 46-48", "municipality": "Смольнинское", "administrative_unit": "Центральный район", "city": "Санкт-Петербург", "Широта": 59.946909, "Долгота": 30.362843 }, "geometry": { "type": "Point", "coordinates": [ 30.362843, 59.946909 ] } },
{ "type": "Feature", "properties": { "service_name": "ВТБ", "city_service_type": "Банкоматы", "address": "улица Наличная, 28/16", "municipality": "Гавань", "administrative_unit": "Василеостровский район", "city": "Санкт-Петербург", "Широта": 59.941349, "Долгота": 30.231175 }, "geometry": { "type": "Point", "coordinates": [ 30.231175, 59.941349 ] } },
{ "type": "Feature", "properties": { "service_name": "Тинькофф банк", "city_service_type": "Банкоматы", "address": "Боровая, 47", "municipality": "Волковское", "administrative_unit": "Фрунзенский район", "city": "Санкт-Петербург", "Широта": 59.913664, "Долгота": 30.341544 }, "geometry": { "type": "Point", "coordinates": [ 30.341544, 59.913664 ] } },
{ "type": "Feature", "properties": { "service_name": "СберБанк", "city_service_type": "Банкоматы", "address": "улица Нахимова, 14", "municipality": "Гавань", "administrative_unit": "Василеостровский район", "city": "Санкт-Петербург", "Широта": 59.94195, "Долгота": 30.232242 }, "geometry": { "type": "Point", "coordinates": [ 30.232242, 59.94195 ] } },
{ "type": "Feature", "properties": { "service_name": "Промсвязьбанк", "city_service_type": "Банкоматы", "address": "Петроградская набережная, 18 лит А", "municipality": "Посадский", "administrative_unit": "Петроградский район", "city": "Санкт-Петербург", "Широта": 59.959285, "Долгота": 30.334593 }, "geometry": { "type": "Point", "coordinates": [ 30.334593, 59.959285 ] } },
{ "type": "Feature", "properties": { "service_name": "Райффайзенбанк", "city_service_type": "Банкоматы", "address": "Невский проспект, 35", "municipality": "Муниципальный округ №78", "administrative_unit": "Центральный район", "city": "Санкт-Петербург", "Широта": 59.934239, "Долгота": 30.332078 }, "geometry": { "type": "Point", "coordinates": [ 30.332078, 59.934239 ] } },
{ "type": "Feature", "properties": { "service_name": "Совкомбанк", "city_service_type": "Банкоматы", "address": "набережная Обводного канала, 60", "municipality": "Волковское", "administrative_unit": "Фрунзенский район", "city": "Санкт-Петербург", "Широта": 59.915435, "Долгота": 30.342155 }, "geometry": { "type": "Point", "coordinates": [ 30.342155, 59.915435 ] } },
{ "type": "Feature", "properties": { "service_name": "Росбанк", "city_service_type": "Банкоматы", "address": "улица Марата, 6", "municipality": "Владимирский", "administrative_unit": "Центральный район", "city": "Санкт-Петербург", "Широта": 59.930573, "Долгота": 30.355216 }, "geometry": { "type": "Point", "coordinates": [ 30.355216, 59.930573 ] } },
{ "type": "Feature", "properties": { "service_name": "Промсвязьбанк", "city_service_type": "Банкоматы", "address": "Невский проспект, 85", "municipality": "Лиговка-Ямская", "administrative_unit": "Центральный район", "city": "Санкт-Петербург", "Широта": 59.929823, "Долгота": 30.362322 }, "geometry": { "type": "Point", "coordinates": [ 30.362322, 59.929823 ] } },
{ "type": "Feature", "properties": { "service_name": "Тинькофф банк", "city_service_type": "Банкоматы", "address": "Старо-Петергофский проспект, 13", "municipality": "Екатерингофский", "administrative_unit": "Адмиралтейский район", "city": "Санкт-Петербург", "Широта": 59.913185, "Долгота": 30.277281 }, "geometry": { "type": "Point", "coordinates": [ 30.277281, 59.913185 ] } },
{ "type": "Feature", "properties": { "service_name": "Газпромбанк", "city_service_type": "Банкоматы", "address": "Михайлова, 11", "municipality": "Финляндский", "administrative_unit": "Калининский район", "city": "Санкт-Петербург", "Широта": 59.955191, "Долгота": 30.36197 }, "geometry": { "type": "Point", "coordinates": [ 30.36197, 59.955191 ] } },
{ "type": "Feature", "properties": { "service_name": "СберБанк", "city_service_type": "Банкоматы", "address": "улица Льва Толстого, 17", "municipality": "Аптекарский остров", "administrative_unit": "Петроградский район", "city": "Санкт-Петербург", "Широта": 59.964542, "Долгота": 30.319879 }, "geometry": { "type": "Point", "coordinates": [ 30.319879, 59.964542 ] } },
{ "type": "Feature", "properties": { "service_name": "Альфа-Банк", "city_service_type": "Банкоматы", "address": "Беринга, 38", "municipality": "Морской", "administrative_unit": "Василеостровский район", "city": "Санкт-Петербург", "Широта": 59.946556, "Долгота": 30.233513 }, "geometry": { "type": "Point", "coordinates": [ 30.233513, 59.946556 ] } },
{ "type": "Feature", "properties": { "service_name": "СберБанк", "city_service_type": "Банкоматы", "address": "улица Бухарестская, 30", "municipality": "Волковское", "administrative_unit": "Фрунзенский район", "city": "Санкт-Петербург", "Широта": 59.883035, "Долгота": 30.37048 }, "geometry": { "type": "Point", "coordinates": [ 30.37048, 59.883035 ] } },
{ "type": "Feature", "properties": { "service_name": "Альфа-Банк", "city_service_type": "Банкоматы", "address": "набережная Адмиралтейского канала, 2 лит Т", "municipality": "Адмиралтейский", "administrative_unit": "Адмиралтейский район", "city": "Санкт-Петербург", "Широта": 59.929639, "Долгота": 30.287621 }, "geometry": { "type": "Point", "coordinates": [ 30.287621, 59.929639 ] } },
{ "type": "Feature", "properties": { "service_name": "СберБанк", "city_service_type": "Банкоматы", "address": "Новочеркасский проспект, 36 к1", "municipality": "Малая Охта", "administrative_unit": "Красногвардейский район", "city": "Санкт-Петербург", "Широта": 59.926495, "Долгота": 30.415324 }, "geometry": { "type": "Point", "coordinates": [ 30.415324, 59.926495 ] } },
{ "type": "Feature", "properties": { "service_name": "Приморье", "city_service_type": "Банкоматы", "address": "проспект Добролюбова, 8", "municipality": "Введенский", "administrative_unit": "Петроградский район", "city": "Санкт-Петербург", "Широта": 59.949249, "Долгота": 30.303347 }, "geometry": { "type": "Point", "coordinates": [ 30.303347, 59.949249 ] } },
{ "type": "Feature", "properties": { "service_name": "Райффайзенбанк", "city_service_type": "Банкоматы", "address": "Средний проспект В.О., 36", "municipality": "Муниципальный округ №7", "administrative_unit": "Василеостровский район", "city": "Санкт-Петербург", "Широта": 59.942191, "Долгота": 30.275701 }, "geometry": { "type": "Point", "coordinates": [ 30.275701, 59.942191 ] } },
{ "type": "Feature", "properties": { "service_name": "Райффайзенбанк", "city_service_type": "Банкоматы", "address": "Невский проспект, 55", "municipality": "Владимирский", "administrative_unit": "Центральный район", "city": "Санкт-Петербург", "Широта": 59.932201, "Долгота": 30.350266 }, "geometry": { "type": "Point", "coordinates": [ 30.350266, 59.932201 ] } },
{ "type": "Feature", "properties": { "service_name": "Тинькофф банк", "city_service_type": "Банкоматы", "address": "площадь Стачек, 9", "municipality": "Нарвский", "administrative_unit": "Кировский район", "city": "Санкт-Петербург", "Широта": 59.899817, "Долгота": 30.272568 }, "geometry": { "type": "Point", "coordinates": [ 30.272568, 59.899817 ] } },
{ "type": "Feature", "properties": { "service_name": "Банк Санкт-Петербург", "city_service_type": "Банкоматы", "address": "Владимирский проспект, 12", "municipality": "Владимирский", "administrative_unit": "Центральный район", "city": "Санкт-Петербург", "Широта": 59.930167, "Долгота": 30.348017 }, "geometry": { "type": "Point", "coordinates": [ 30.348017, 59.930167 ] } },
{ "type": "Feature", "properties": { "service_name": "ВТБ", "city_service_type": "Банкоматы", "address": "Дегтярный переулок, 11 лит А", "municipality": "Смольнинское", "administrative_unit": "Центральный район", "city": "Санкт-Петербург", "Широта": 59.939021, "Долгота": 30.38447 }, "geometry": { "type": "Point", "coordinates": [ 30.38447, 59.939021 ] } },
{ "type": "Feature", "properties": { "service_name": "Росбанк", "city_service_type": "Банкоматы", "address": "2-я Советская улица, 17", "municipality": "Смольнинское", "administrative_unit": "Центральный район", "city": "Санкт-Петербург", "Широта": 59.931435, "Долгота": 30.368109 }, "geometry": { "type": "Point", "coordinates": [ 30.368109, 59.931435 ] } },
{ "type": "Feature", "properties": { "service_name": "Альфа-Банк", "city_service_type": "Банкоматы", "address": "улица Новгородская, 23", "municipality": "Смольнинское", "administrative_unit": "Центральный район", "city": "Санкт-Петербург", "Широта": 59.940573, "Долгота": 30.392781 }, "geometry": { "type": "Point", "coordinates": [ 30.392781, 59.940573 ] } },
{ "type": "Feature", "properties": { "service_name": "СберБанк", "city_service_type": "Банкоматы", "address": "Карбышева, 9", "municipality": "Светлановское", "administrative_unit": "Выборгский район", "city": "Санкт-Петербург", "Широта": 59.993182, "Долгота": 30.353722 }, "geometry": { "type": "Point", "coordinates": [ 30.353722, 59.993182 ] } },
{ "type": "Feature", "properties": { "service_name": "ОТП банк", "city_service_type": "Банкоматы", "address": "Красноармейская 5-я, 2/39", "municipality": "Измайловское", "administrative_unit": "Адмиралтейский район", "city": "Санкт-Петербург", "Широта": 59.913076, "Долгота": 30.317968 }, "geometry": { "type": "Point", "coordinates": [ 30.317968, 59.913076 ] } },
{ "type": "Feature", "properties": { "service_name": "СберБанк", "city_service_type": "Банкоматы", "address": "набережная Обводного канала, 118 к7", "municipality": "Измайловское", "administrative_unit": "Адмиралтейский район", "city": "Санкт-Петербург", "Широта": 59.907283, "Долгота": 30.302066 }, "geometry": { "type": "Point", "coordinates": [ 30.302066, 59.907283 ] } },
{ "type": "Feature", "properties": { "service_name": "Тинькофф банк", "city_service_type": "Банкоматы", "address": "Ланское шоссе, 55", "municipality": "Ланское", "administrative_unit": "Приморский район", "city": "Санкт-Петербург", "Широта": 59.993935, "Долгота": 30.315898 }, "geometry": { "type": "Point", "coordinates": [ 30.315898, 59.993935 ] } },