{
"type": "FeatureCollection",
"name": "dog_park",
"crs": { "type": "name", "properties": { "name": "urn:ogc:def:crs:OGC:1.3:CRS84" } },
"features": [
{ "type": "Feature", "properties": { "city_service_type": null, "service_name": "Собачья площадка", "administrative_unit": "Пушкинский район", "municipality": "Пушкин", "address": null }, "geometry": { "type": "Point", "coordinates": [ 30.422757, 59.734386217130208 ] } },
{ "type": "Feature", "properties": { "city_service_type": null, "service_name": "Собачья площадка", "administrative_unit": "Красносельский район", "municipality": "Сосновая поляна", "address": null }, "geometry": { "type": "Point", "coordinates": [ 30.0929106463973, 59.848427891609447 ] } },
{ "type": "Feature", "properties": { "city_service_type": null, "service_name": "Собачья площадка", "administrative_unit": "Невский район", "municipality": "Невский", "address": "улица Дыбенко, 6к1" }, "geometry": { "type": "Point", "coordinates": [ 30.450772403314094, 59.900176866891655 ] } },
{ "type": "Feature", "properties": { "city_service_type": null, "service_name": "Dogsenergym", "administrative_unit": "Выборгский район", "municipality": "Муниципальный округ №15", "address": "1-й Верхний переулок, 2" }, "geometry": { "type": "Point", "coordinates": [ 30.380673, 60.05512 ] } },
{ "type": "Feature", "properties": { "city_service_type": null, "service_name": "Собачья площадка", "administrative_unit": "Красногвардейский район", "municipality": "Малая Охта", "address": "улица Малая Яблоновка" }, "geometry": { "type": "Point", "coordinates": [ 30.426737716038016, 59.93321853669115 ] } },
{ "type": "Feature", "properties": { "city_service_type": null, "service_name": "Собачья площадка", "administrative_unit": "Всеволожский район", "municipality": "Мурино", "address": null }, "geometry": { "type": "Point", "coordinates": [ 30.42232390050259, 60.060676144659773 ] } },
{ "type": "Feature", "properties": { "city_service_type": null, "service_name": "Собачья площадка", "administrative_unit": "Петроградский район", "municipality": "Аптекарский остров", "address": null }, "geometry": { "type": "Point", "coordinates": [ 30.319099850828515, 59.974461763051984 ] } },
{ "type": "Feature", "properties": { "city_service_type": null, "service_name": "Собачья площадка", "administrative_unit": "Колпинский район", "municipality": null, "address": null }, "geometry": { "type": "Point", "coordinates": [ 30.557715, 59.813013 ] } },
{ "type": "Feature", "properties": { "city_service_type": null, "service_name": "Собачья площадка", "administrative_unit": "Всеволожский район", "municipality": "Мурино", "address": null }, "geometry": { "type": "Point", "coordinates": [ 30.454273984524281, 60.048432233891674 ] } },
{ "type": "Feature", "properties": { "city_service_type": null, "service_name": "RockDog: дрессировка собак, центр современной кинологии", "administrative_unit": "Выборгский район ", "municipality": "​Муниципальный округ №15", "address": "проспект Луначарского, 68к1" }, "geometry": { "type": "Point", "coordinates": [ 30.353957, 60.038964 ] } },
{ "type": "Feature", "properties": { "city_service_type": null, "service_name": "Собачья площадка", "administrative_unit": "Приморский район", "municipality": "​Комендантский аэродром", "address": "Байконурская улица" }, "geometry": { "type": "Point", "coordinates": [ 30.27786, 59.994531 ] } },
{ "type": "Feature", "properties": { "city_service_type": null, "service_name": "Собачья площадка", "administrative_unit": "Невский район", "municipality": "Оккервиль", "address": null }, "geometry": { "type": "Point", "coordinates": [ 30.485248, 59.913645 ] } },
{ "type": "Feature", "properties": { "city_service_type": null, "service_name": "Собачья площадка", "administrative_unit": "Выборгский район", "municipality": "Муниципальный округ №15", "address": null }, "geometry": { "type": "Point", "coordinates": [ 30.363594, 60.054487 ] } },
{ "type": "Feature", "properties": { "city_service_type": null, "service_name": "Собачья площадка", "administrative_unit": "Фрунзенский район", "municipality": "Александровский", "address": null }, "geometry": { "type": "Point", "coordinates": [ 30.430986, 59.835015 ] } },
{ "type": "Feature", "properties": { "city_service_type": null, "service_name": "Собачья площадка", "administrative_unit": "Красногвардейский район", "municipality": "Большая Охта", "address": null }, "geometry": { "type": "Point", "coordinates": [ 30.439252, 59.940638 ] } },
{ "type": "Feature", "properties": { "city_service_type": null, "service_name": "Собачья площадка", "administrative_unit": "Центральный район", "municipality": "Литейный", "address": null }, "geometry": { "type": "Point", "coordinates": [ 30.341287, 59.941135 ] } },
{ "type": "Feature", "properties": { "city_service_type": null, "service_name": "Собачья площадка", "administrative_unit": "Красносельский район", "municipality": "Парголово", "address": null }, "geometry": { "type": "Point", "coordinates": [ 30.237829, 60.076711 ] } },
{ "type": "Feature", "properties": { "city_service_type": null, "service_name": "Инсайт", "administrative_unit": "Красносельский район", "municipality": "Южно-Приморский", "address": "\nул. Десантников, 30" }, "geometry": { "type": "Point", "coordinates": [ 30.205022, 59.859585 ] } },
{ "type": "Feature", "properties": { "city_service_type": null, "service_name": "PuppyStar", "administrative_unit": "Приморский район", "municipality": "​Юнтолово", "address": "Плесецкая улица, 10с1" }, "geometry": { "type": "Point", "coordinates": [ 30.214941, 60.033701 ] } },
{ "type": "Feature", "properties": { "city_service_type": null, "service_name": "Собачья площадка", "administrative_unit": "Невский район", "municipality": "Рыбацкое", "address": null }, "geometry": { "type": "Point", "coordinates": [ 30.544171, 59.831646 ] } },
{ "type": "Feature", "properties": { "city_service_type": null, "service_name": "Собачья площадка", "administrative_unit": "Приморский район", "municipality": "Коломяги", "address": null }, "geometry": { "type": "Point", "coordinates": [ 30.222066, 60.034924 ] } },
{ "type": "Feature", "properties": { "city_service_type": null, "service_name": "Собачья площадка", "administrative_unit": "Московский район", "municipality": "Звездное", "address": null }, "geometry": { "type": "Point", "coordinates": [ 30.329572, 59.833733 ] } },
{ "type": "Feature", "properties": { "city_service_type": null, "service_name": "Собачья площадка", "administrative_unit": "Невский район", "municipality": "Обуховский ", "address": "" }, "geometry": { "type": "Point", "coordinates": [ 30.457498, 59.861189 ] } },
{ "type": "Feature", "properties": { "city_service_type": null, "service_name": "Собачья площадка", "administrative_unit": "Фрунзенский", "municipality": "Муниципальный округ №72", "address": "" }, "geometry": { "type": "Point", "coordinates": [ 30.41398, 59.870562 ] } },
{ "type": "Feature", "properties": { "city_service_type": null, "service_name": "Собачья площадка", "administrative_unit": "Московский район", "municipality": "Новоизмаловское", "address": null }, "geometry": { "type": "Point", "coordinates": [ 30.298937, 59.862494 ] } },
{ "type": "Feature", "properties": { "city_service_type": null, "service_name": "Школа собачьих манер", "administrative_unit": "Курортный район", "municipality": "Солнечное", "address": "3-й проезд, 14к1" }, "geometry": { "type": "Point", "coordinates": [ 29.954341, 60.14814 ] } },
{ "type": "Feature", "properties": { "city_service_type": null, "service_name": "Собачья площадка", "administrative_unit": "Кировский район", "municipality": "Ульянка", "address": null }, "geometry": { "type": "Point", "coordinates": [ 30.212872, 59.834591 ] } },
{ "type": "Feature", "properties": { "city_service_type": null, "service_name": "Собачья площадка", "administrative_unit": "Всеволожский район", "municipality": "Новое Девяткино", "address": null }, "geometry": { "type": "Point", "coordinates": [ 30.466428, 60.057475 ] } },
{ "type": "Feature", "properties": { "city_service_type": null, "service_name": "Ксоо Харон", "administrative_unit": "Приморский район", "municipality": "Юнтолово", "address": "проспект Королёва, 54к1" }, "geometry": { "type": "Point", "coordinates": [ 30.246815, 60.025938 ] } },
{ "type": "Feature", "properties": { "city_service_type": null, "service_name": "Собачья площадка", "administrative_unit": "Приморский район", "municipality": "​Коломяги", "address": null }, "geometry": { "type": "Point", "coordinates": [ 30.300973, 60.027399 ] } },
{ "type": "Feature", "properties": { "city_service_type": null, "service_name": "Ксоо Харон", "administrative_unit": "Кировский район", "municipality": "Княжево", "address": "Дачный проспект, 24к2" }, "geometry": { "type": "Point", "coordinates": [ 30.258045, 59.840904 ] } },
{ "type": "Feature", "properties": { "city_service_type": null, "service_name": "Кинологический центр Арес", "administrative_unit": "Невский район", "municipality": "Оккервиль", "address": "Товарищеский проспект, 32к1" }, "geometry": { "type": "Point", "coordinates": [ 30.491237, 59.90976 ] } },
{ "type": "Feature", "properties": { "city_service_type": null, "service_name": "Собачья площадка", "administrative_unit": "Василеостровский район", "municipality": "Морской", "address": null }, "geometry": { "type": "Point", "coordinates": [ 30.208488, 59.945508 ] } },
{ "type": "Feature", "properties": { "city_service_type": null, "service_name": "Собачья площадка", "administrative_unit": "Приморский район", "municipality": "Юнтолово", "address": null }, "geometry": { "type": "Point", "coordinates": [ 30.247189, 60.029524 ] } },
{ "type": "Feature", "properties": { "city_service_type": null, "service_name": "Собачья площадка", "administrative_unit": "Красногвардейский район", "municipality": "​Малая Охта", "address": null }, "geometry": { "type": "Point", "coordinates": [ 30.412164, 59.92581 ] } },
{ "type": "Feature", "properties": { "city_service_type": null, "service_name": "Sport dog", "administrative_unit": "Петродворцовый район", "municipality": "Петергоф", "address": "Фабричная улица, 1" }, "geometry": { "type": "Point", "coordinates": [ 29.890803, 59.887377 ] } },
{ "type": "Feature", "properties": { "city_service_type": null, "service_name": "Собачья площадка", "administrative_unit": "Кронштадтский район", "municipality": "​Кронштадт", "address": "улица Восстания, 3Б" }, "geometry": { "type": "Point", "coordinates": [ 29.785877, 59.994794 ] } },
{ "type": "Feature", "properties": { "city_service_type": null, "service_name": "Школа дрессировки собак CleverDog", "administrative_unit": "Московский район", "municipality": "​Гагаринское", "address": "улица Типанова, 34к1" }, "geometry": { "type": "Point", "coordinates": [ 30.357431, 59.852443 ] } },
{ "type": "Feature", "properties": { "city_service_type": null, "service_name": "Собачья площадка", "administrative_unit": "Московский район", "municipality": "Московская застава", "address": null }, "geometry": { "type": "Point", "coordinates": [ 30.32368, 59.874888 ] } },
{ "type": "Feature", "properties": { "city_service_type": null, "service_name": "Собачья площадка", "administrative_unit": "Кронштадтский район", "municipality": "​Кронштадт", "address": null }, "geometry": { "type": "Point", "coordinates": [ 29.788666, 59.985553 ] } },
{ "type": "Feature", "properties": { "city_service_type": null, "service_name": "Собачья площадка", "administrative_unit": "Кировский район", "municipality": "​Морские ворота", "address": null }, "geometry": { "type": "Point", "coordinates": [ 30.214021, 59.899351 ] } },
{ "type": "Feature", "properties": { "city_service_type": null, "service_name": "Собачья площадка", "administrative_unit": "Василеостровский район", "municipality": "​Остров Декабристов", "address": null }, "geometry": { "type": "Point", "coordinates": [ 30.226359, 59.959427 ] } },
{ "type": "Feature", "properties": { "city_service_type": "", "service_name": "Площадка для дрессировки и выгула собак", "administrative_unit": "Приморский район", "municipality": "Муниципальный округ №65", "address": "" }, "geometry": { "type": "Point", "coordinates": [ 30.217716, 59.993415 ] } },
{ "type": "Feature", "properties": { "city_service_type": "", "service_name": "КлеверДог", "administrative_unit": "Приморский район", "municipality": "Коломяги", "address": "Шуваловский проспект, 37 к1" }, "geometry": { "type": "Point", "coordinates": [ 30.247193, 60.033411 ] } },
{ "type": "Feature", "properties": { "city_service_type": null, "service_name": "Собачья площадка", "administrative_unit": "Приморский район", "municipality": "Муниципальный округ №65", "address": "Яхтенная улица" }, "geometry": { "type": "Point", "coordinates": [ 30.2225, 60.000071 ] } },
{ "type": "Feature", "properties": { "city_service_type": "", "service_name": "Собачья площадка", "administrative_unit": "Выборгский район", "municipality": "Муниципальный округ №15", "address": null }, "geometry": { "type": "Point", "coordinates": [ 30.352772, 60.039342 ] } },
{ "type": "Feature", "properties": { "city_service_type": null, "service_name": "Собачья площадка", "administrative_unit": "Приморский район", "municipality": "Озеро Долгое", "address": "Туполевская улица" }, "geometry": { "type": "Point", "coordinates": [ 30.269469, 60.003983 ] } },
{ "type": "Feature", "properties": { "city_service_type": null, "service_name": "Собачья площадка", "administrative_unit": "Кронштадтский район", "municipality": "​Кронштадт", "address": null }, "geometry": { "type": "Point", "coordinates": [ 29.717276, 60.01156 ] } },
{ "type": "Feature", "properties": { "city_service_type": null, "service_name": "Школа позитивной дрессировки Чили", "administrative_unit": "Василеостровский район", "municipality": "Остров Декабристов", "address": "Уральская улица, 17к5" }, "geometry": { "type": "Point", "coordinates": [ 30.259328, 59.954345 ] } },
{ "type": "Feature", "properties": { "city_service_type": null, "service_name": "Собачья площадка", "administrative_unit": "Приморский район", "municipality": "Муниципальный округ №65", "address": null }, "geometry": { "type": "Point", "coordinates": [ 30.252656, 59.996811 ] } },
{ "type": "Feature", "properties": { "city_service_type": null, "service_name": "Школа позитивной дрессировки Чили", "administrative_unit": "Выборгский район", "municipality": "Светлановское", "address": "2-й Муринский проспект, 15" }, "geometry": { "type": "Point", "coordinates": [ 30.336784, 60.001446 ] } },
{ "type": "Feature", "properties": { "city_service_type": null, "service_name": "Собачья площадка", "administrative_unit": "Приморский район", "municipality": "​Юнтолово", "address": "Планерная улица" }, "geometry": { "type": "Point", "coordinates": [ 30.236439, 60.008107 ] } },
{ "type": "Feature", "properties": { "city_service_type": "", "service_name": "Собачья площадка", "administrative_unit": "Василеостровский район", "municipality": "Морской", "address": "" }, "geometry": { "type": "Point", "coordinates": [ 30.200842, 59.9374 ] } },
{ "type": "Feature", "properties": { "city_service_type": null, "service_name": "Собачья площадка", "administrative_unit": "Пушкинский район", "municipality": "Пушкин", "address": null }, "geometry": { "type": "Point", "coordinates": [ 30.383484, 59.705663 ] } },
{ "type": "Feature", "properties": { "city_service_type": "", "service_name": "Прайм", "administrative_unit": "Кировский район", "municipality": "Дачное", "address": "проспект Стачек, 156" }, "geometry": { "type": "Point", "coordinates": [ 30.246943, 59.854056 ] } },
{ "type": "Feature", "properties": { "city_service_type": null, "service_name": "Собачья площадка", "administrative_unit": "Приморский район", "municipality": "Комендантский аэродром", "address": null }, "geometry": { "type": "Point", "coordinates": [ 30.313868, 60.001011 ] } },
{ "type": "Feature", "properties": { "city_service_type": null, "service_name": "Собачья площадка", "administrative_unit": "Кировский район", "municipality": "Нарвский", "address": "Турбинная улица" }, "geometry": { "type": "Point", "coordinates": [ 30.269727, 59.894528 ] } },
{ "type": "Feature", "properties": { "city_service_type": null, "service_name": "Собачья площадка", "administrative_unit": "Адмиралтейский район", "municipality": "Измайловское", "address": null }, "geometry": { "type": "Point", "coordinates": [ 30.316364, 59.900995 ] } },
{ "type": "Feature", "properties": { "city_service_type": null, "service_name": "Собачья площадка", "administrative_unit": "Василеостровский район", "municipality": "Морской", "address": "" }, "geometry": { "type": "Point", "coordinates": [ 30.209136, 59.943252 ] } },
{ "type": "Feature", "properties": { "city_service_type": null, "service_name": "Площадка для дрессировки собак", "administrative_unit": "Кировский район", "municipality": "Княжево", "address": null }, "geometry": { "type": "Point", "coordinates": [ 30.259463, 59.85508 ] } },
{ "type": "Feature", "properties": { "city_service_type": null, "service_name": "Собачья площадка", "administrative_unit": "Приморский", "municipality": "Лахта-Ольгино", "address": null }, "geometry": { "type": "Point", "coordinates": [ 30.137959, 60.033109 ] } },
{ "type": "Feature", "properties": { "city_service_type": null, "service_name": "Собачья площадка", "administrative_unit": "Выборгский район", "municipality": "Парголово", "address": null }, "geometry": { "type": "Point", "coordinates": [ 30.315577, 60.067827 ] } },
{ "type": "Feature", "properties": { "city_service_type": null, "service_name": "Кинологический центр ДогТренинг", "administrative_unit": "Приморский ", "municipality": "Юнтолово", "address": "просп. Авиаконструкторов, 49" }, "geometry": { "type": "Point", "coordinates": [ 30.223082, 60.028282 ] } },
{ "type": "Feature", "properties": { "city_service_type": null, "service_name": "Собачья площадка", "administrative_unit": "Кировский район", "municipality": "​Ульянка", "address": null }, "geometry": { "type": "Point", "coordinates": [ 30.22143, 59.838195 ] } },
{ "type": "Feature", "properties": { "city_service_type": null, "service_name": "Петербургский беговой клуб", "administrative_unit": "Кировский район", "municipality": "Коломяги", "address": "Заповедная улица, 51Б" }, "geometry": { "type": "Point", "coordinates": [ 30.268006, 60.046643 ] } },
{ "type": "Feature", "properties": { "city_service_type": null, "service_name": "Спортивно-дрессировочная площадка Пискаревская", "administrative_unit": "Калининский район", "municipality": "​Пискарёвка", "address": null }, "geometry": { "type": "Point", "coordinates": [ 30.411439, 59.996951 ] } },
{ "type": "Feature", "properties": { "city_service_type": null, "service_name": "ShowClass", "administrative_unit": "Красногвардейский район", "municipality": "Большая Охта", "address": "Большеохтинский проспект, 12" }, "geometry": { "type": "Point", "coordinates": [ 30.409269, 59.953441 ] } },
{ "type": "Feature", "properties": { "city_service_type": null, "service_name": "Пёсбург", "administrative_unit": "Пушкинский район", "municipality": "Шушары", "address": null }, "geometry": { "type": "Point", "coordinates": [ 30.474471, 59.76396 ] } },
{ "type": "Feature", "properties": { "city_service_type": null, "service_name": "Собачья площадка", "administrative_unit": "Выборгский район", "municipality": "Парголово", "address": null }, "geometry": { "type": "Point", "coordinates": [ 30.342652, 60.082531 ] } },
{ "type": "Feature", "properties": { "city_service_type": null, "service_name": "Собачья площадка", "administrative_unit": "Невский район", "municipality": "​Ивановский", "address": null }, "geometry": { "type": "Point", "coordinates": [ 30.438113, 59.863976 ] } },
{ "type": "Feature", "properties": { "city_service_type": null, "service_name": "Собачья площадка", "administrative_unit": "Красносельский район", "municipality": "Южно-Приморский", "address": null }, "geometry": { "type": "Point", "coordinates": [ 30.133748, 59.85142 ] } },
{ "type": "Feature", "properties": { "city_service_type": null, "service_name": "Собачья площадка", "administrative_unit": "Московский район", "municipality": "Звездное", "address": null }, "geometry": { "type": "Point", "coordinates": [ 30.335965, 59.827298 ] } },
{ "type": "Feature", "properties": { "city_service_type": null, "service_name": "Кинологическая площадка", "administrative_unit": "Красногвардейский район", "municipality": "Пороховые", "address": null }, "geometry": { "type": "Point", "coordinates": [ 30.472704, 59.960912 ] } },
{ "type": "Feature", "properties": { "city_service_type": null, "service_name": "Собачья площадка", "administrative_unit": "Красносельский район", "municipality": "Южно-Приморский", "address": null }, "geometry": { "type": "Point", "coordinates": [ 30.162862, 59.868904 ] } },
{ "type": "Feature", "properties": { "city_service_type": null, "service_name": "Собачья площадка", "administrative_unit": "Кировский район", "municipality": "​Княжево", "address": "проспект Народного Ополчения" }, "geometry": { "type": "Point", "coordinates": [ 30.269258, 59.836129 ] } },
{ "type": "Feature", "properties": { "city_service_type": null, "service_name": "Собачья площадка", "administrative_unit": "Пушкинский район", "municipality": "Пушкин", "address": null }, "geometry": { "type": "Point", "coordinates": [ 30.454568, 59.73282 ] } },
{ "type": "Feature", "properties": { "city_service_type": null, "service_name": "Собачья площадка", "administrative_unit": "Петроградский район", "municipality": "Чкаловское", "address": "Песочная набережная" }, "geometry": { "type": "Point", "coordinates": [ 30.283884, 59.970027 ] } },
{ "type": "Feature", "properties": { "city_service_type": null, "service_name": "Площадка для дрессировки собак", "administrative_unit": "Фрунзенский район", "municipality": "Георгиевский", "address": null }, "geometry": { "type": "Point", "coordinates": [ 30.391637, 59.8557 ] } },
{ "type": "Feature", "properties": { "city_service_type": null, "service_name": "Собачья площадка", "administrative_unit": "Выборгский район", "municipality": "​Сергиевское", "address": null }, "geometry": { "type": "Point", "coordinates": [ 30.34554, 60.053629 ] } },
{ "type": "Feature", "properties": { "city_service_type": null, "service_name": "Собачья площадка", "administrative_unit": "Красносельский район", "municipality": "Южно-Приморский", "address": null }, "geometry": { "type": "Point", "coordinates": [ 30.205055, 59.859612 ] } },
{ "type": "Feature", "properties": { "city_service_type": null, "service_name": "Собачья площадка", "administrative_unit": "Петроградский район", "municipality": "Кронверкское", "address": "улица Подковырова" }, "geometry": { "type": "Point", "coordinates": [ 30.308494, 59.962139 ] } },
{ "type": "Feature", "properties": { "city_service_type": null, "service_name": "Собачья площадка", "administrative_unit": "Красногвардейский район", "municipality": "Большая Охта", "address": null }, "geometry": { "type": "Point", "coordinates": [ 30.418951, 59.936443 ] } },
{ "type": "Feature", "properties": { "city_service_type": null, "service_name": "Собачья площадка", "administrative_unit": "Петродворцовый район", "municipality": "Петергоф", "address": null }, "geometry": { "type": "Point", "coordinates": [ 29.904114, 59.863476 ] } },
{ "type": "Feature", "properties": { "city_service_type": null, "service_name": "Собачья площадка", "administrative_unit": "Калининский район", "municipality": "Пискарёвка", "address": "улица Верности" }, "geometry": { "type": "Point", "coordinates": [ 30.430643, 59.998314 ] } },
{ "type": "Feature", "properties": { "city_service_type": null, "service_name": "Собачья площадка", "administrative_unit": "Петроградский район", "municipality": "​Аптекарский остров", "address": "площадь Шевченко" }, "geometry": { "type": "Point", "coordinates": [ 30.306613, 59.966671 ] } },
{ "type": "Feature", "properties": { "city_service_type": null, "service_name": "Собачья площадка", "administrative_unit": "Пушкинский район", "municipality": "Парголово", "address": null }, "geometry": { "type": "Point", "coordinates": [ 30.342652, 60.082531 ] } },
{ "type": "Feature", "properties": { "city_service_type": null, "service_name": "Собачья площадка", "administrative_unit": "Адмиралтейский район", "municipality": "Екатерингофский", "address": null }, "geometry": { "type": "Point", "coordinates": [ 30.265693, 59.907323 ] } },
{ "type": "Feature", "properties": { "city_service_type": null, "service_name": "Собачья площадка", "administrative_unit": "Пушкинский район", "municipality": "Пушкин", "address": null }, "geometry": { "type": "Point", "coordinates": [ 30.379215, 59.700414 ] } },
{ "type": "Feature", "properties": { "city_service_type": null, "service_name": "Собачья площадка", "administrative_unit": "Красногвардейский район", "municipality": "​Полюстрово", "address": null }, "geometry": { "type": "Point", "coordinates": [ 30.446314, 60.039849 ] } },
{ "type": "Feature", "properties": { "city_service_type": null, "service_name": "Собачья площадка", "administrative_unit": "Петродворцовый район", "municipality": "Петергоф", "address": null }, "geometry": { "type": "Point", "coordinates": [ 29.855728, 59.882026 ] } },
{ "type": "Feature", "properties": { "city_service_type": null, "service_name": "Woof University", "administrative_unit": "Приморский район", "municipality": "Муниципальный округ №65", "address": "Приморский проспект, 50Б" }, "geometry": { "type": "Point", "coordinates": [ 30.24014, 59.982533 ] } },
{ "type": "Feature", "properties": { "city_service_type": null, "service_name": "Мондьоринг клуб", "administrative_unit": "Пушкинский район", "municipality": "Пушкин", "address": null }, "geometry": { "type": "Point", "coordinates": [ 30.383826, 59.73057 ] } },
{ "type": "Feature", "properties": { "city_service_type": null, "service_name": "Собачья площадка", "administrative_unit": "Красносельский район", "municipality": "Юго-Запад", "address": null }, "geometry": { "type": "Point", "coordinates": [ 30.215994, 59.849336 ] } },
{ "type": "Feature", "properties": { "city_service_type": null, "service_name": "Собачья площадка", "administrative_unit": "Красносельский район", "municipality": "Юго-Запад", "address": null }, "geometry": { "type": "Point", "coordinates": [ 30.215994, 59.849336 ] } },
{ "type": "Feature", "properties": { "city_service_type": null, "service_name": "Собачья площадка", "administrative_unit": "Невский район", "municipality": "Народный", "address": "улица Новосёлов" }, "geometry": { "type": "Point", "coordinates": [ 30.48464, 59.887733 ] } },
{ "type": "Feature", "properties": { "city_service_type": null, "service_name": "Собачья площадка", "administrative_unit": "Василеостровский район", "municipality": "Остров Декабристов", "address": "" }, "geometry": { "type": "Point", "coordinates": [ 30.215589, 59.959422 ] } },
{ "type": "Feature", "properties": { "city_service_type": null, "service_name": "Собачья площадка", "administrative_unit": "Фрунзенский район", "municipality": "Александровский", "address": null }, "geometry": { "type": "Point", "coordinates": [ 30.432601, 59.861511 ] } },
{ "type": "Feature", "properties": { "city_service_type": null, "service_name": "RockDog Дрессировка собак", "administrative_unit": "Всеволожский район", "municipality": "Кудрово", "address": null }, "geometry": { "type": "Point", "coordinates": [ 30.510742, 59.895538 ] } },
{ "type": "Feature", "properties": { "city_service_type": null, "service_name": "Гульдог", "administrative_unit": "Петроградский район", "municipality": "Посадский ", "address": "улица Чапаева, 15" }, "geometry": { "type": "Point", "coordinates": [ 30.331392, 59.96126 ] } },
{ "type": "Feature", "properties": { "city_service_type": null, "service_name": "Собачья площадка", "administrative_unit": "Красногвардейский район", "municipality": "Пороховые", "address": null }, "geometry": { "type": "Point", "coordinates": [ 30.452709669788383, 59.941789866750057 ] } },
{ "type": "Feature", "properties": { "city_service_type": null, "service_name": "Аккорд", "administrative_unit": "Адмиралтейский район", "municipality": "Екатерингофский", "address": "набережная реки Фонтанки, 164" }, "geometry": { "type": "Point", "coordinates": [ 30.275691, 59.914971 ] } },
{ "type": "Feature", "properties": { "city_service_type": null, "service_name": "Dog Energy Студия Эффективных Тренировок", "administrative_unit": "Кировский район", "municipality": "Автово", "address": "\nАвтовская ул., 17" }, "geometry": { "type": "Point", "coordinates": [ 30.269887, 59.868462 ] } },
{ "type": "Feature", "properties": { "city_service_type": null, "service_name": "Собачья площадка", "administrative_unit": "Невский район", "municipality": "Рыбацкое", "address": null }, "geometry": { "type": "Point", "coordinates": [ 30.55148, 59.823276 ] } },
{ "type": "Feature", "properties": { "city_service_type": "", "service_name": "RockDog", "administrative_unit": "Московский район", "municipality": "​Звездное", "address": "Московское шоссе, 3к3" }, "geometry": { "type": "Point", "coordinates": [ 30.334616, 59.833764 ] } },
{ "type": "Feature", "properties": { "city_service_type": null, "service_name": "Собачья площадка", "administrative_unit": "Кировский район", "municipality": "​Морские ворота", "address": null }, "geometry": { "type": "Point", "coordinates": [ 30.244624, 59.9076 ] } },
{ "type": "Feature", "properties": { "city_service_type": null, "service_name": "Собачья площадка", "administrative_unit": "Фрунзенский район", "municipality": "Балканский район", "address": null }, "geometry": { "type": "Point", "coordinates": [ 30.414794, 59.834312 ] } },
{ "type": "Feature", "properties": { "city_service_type": null, "service_name": "Клуб Каштанка Добрый Пес", "administrative_unit": "Московский район", "municipality": "Гагаринское", "address": "проспект Космонавтов, 25" }, "geometry": { "type": "Point", "coordinates": [ 30.34827, 59.85934 ] } },
{ "type": "Feature", "properties": { "city_service_type": null, "service_name": "Школа дрессировки собак United Dogs", "administrative_unit": "Красногвардейский район", "municipality": "​Ржевка", "address": "проспект Ударников, 41к1" }, "geometry": { "type": "Point", "coordinates": [ 30.48644, 59.95398 ] } },
{ "type": "Feature", "properties": { "city_service_type": null, "service_name": "Хрум Стик", "administrative_unit": "Фрунзенский район", "municipality": "Балканский", "address": "улица Ярослава Гашека, 9к1" }, "geometry": { "type": "Point", "coordinates": [ 30.388602, 59.831369 ] } }
]
}
