{
"type": "FeatureCollection",
"name": "fuel",
"crs": { "type": "name", "properties": { "name": "urn:ogc:def:crs:OGC:1.3:CRS84" } },
"features": [
{ "type": "Feature", "properties": { "service_name": "Лукойл", "address": null, "administrative_unit": "Невский", "municipality": "Рыбацкое", "Широта": null, "Долгота": null }, "geometry": { "type": "Point", "coordinates": [ 30.4841001, 59.83902765 ] } },
{ "type": "Feature", "properties": { "service_name": "Пропан24", "address": null, "administrative_unit": "Колпинский", "municipality": "Колпино", "Широта": null, "Долгота": null }, "geometry": { "type": "Point", "coordinates": [ 30.60087369, 59.7578884 ] } },
{ "type": "Feature", "properties": { "service_name": "Роснефть", "address": null, "administrative_unit": "Выборгский", "municipality": "№ 15", "Широта": null, "Долгота": null }, "geometry": { "type": "Point", "coordinates": [ 30.37127377, 60.05378891 ] } },
{ "type": "Feature", "properties": { "service_name": "Роснефть", "address": null, "administrative_unit": "Московский", "municipality": "Гагаринское", "Широта": null, "Долгота": null }, "geometry": { "type": "Point", "coordinates": [ 30.3712046, 59.83525384 ] } },
{ "type": "Feature", "properties": { "service_name": "Росгаз", "address": null, "administrative_unit": null, "municipality": null, "Широта": null, "Долгота": null }, "geometry": { "type": "Point", "coordinates": [ 30.324063621568683, 59.780633538004238 ] } },
{ "type": "Feature", "properties": { "service_name": "Лукойл", "address": null, "administrative_unit": "Московский", "municipality": "Пулковский меридиан", "Широта": null, "Долгота": null }, "geometry": { "type": "Point", "coordinates": [ 30.32357822, 59.79167865 ] } },
{ "type": "Feature", "properties": { "service_name": "Митекс", "address": null, "administrative_unit": null, "municipality": null, "Широта": null, "Долгота": null }, "geometry": { "type": "Point", "coordinates": [ 30.320384038678256, 59.754142143999395 ] } },
{ "type": "Feature", "properties": { "service_name": "Газпромнефть", "address": null, "administrative_unit": "Пушкинский", "municipality": "Пушкин", "Широта": null, "Долгота": null }, "geometry": { "type": "Point", "coordinates": [ 30.35859, 59.70314275 ] } },
{ "type": "Feature", "properties": { "service_name": "Киришиавтосервис", "address": null, "administrative_unit": "Московский", "municipality": "Пулковский меридиан", "Широта": null, "Долгота": null }, "geometry": { "type": "Point", "coordinates": [ 30.32547084, 59.76095754 ] } },
{ "type": "Feature", "properties": { "service_name": "Benzo Style", "address": null, "administrative_unit": null, "municipality": null, "Широта": null, "Долгота": null }, "geometry": { "type": "Point", "coordinates": [ 30.484875729916844, 59.754690952757755 ] } },
{ "type": "Feature", "properties": { "service_name": "Лукойл", "address": null, "administrative_unit": "Приморский", "municipality": "Лахта-Ольгино", "Широта": null, "Долгота": null }, "geometry": { "type": "Point", "coordinates": [ 30.09876436, 59.99847537 ] } },
{ "type": "Feature", "properties": { "service_name": "Ленгаз-эксплуатация", "address": null, "administrative_unit": null, "municipality": null, "Широта": null, "Долгота": null }, "geometry": { "type": "Point", "coordinates": [ 29.692828787378915, 60.202825340051113 ] } },
{ "type": "Feature", "properties": { "service_name": "ПТК", "address": null, "administrative_unit": "Невский", "municipality": "Невская застава", "Широта": null, "Долгота": null }, "geometry": { "type": "Point", "coordinates": [ 30.404859, 59.90741392 ] } },
{ "type": "Feature", "properties": { "service_name": "Роснефть", "address": null, "administrative_unit": "Выборгский", "municipality": "Парголово", "Широта": null, "Долгота": null }, "geometry": { "type": "Point", "coordinates": [ 30.26991943, 60.07716306 ] } },
{ "type": "Feature", "properties": { "service_name": "ПТК", "address": null, "administrative_unit": "Колпинский", "municipality": "Колпино", "Широта": null, "Долгота": null }, "geometry": { "type": "Point", "coordinates": [ 30.58335948, 59.72968267 ] } },
{ "type": "Feature", "properties": { "service_name": "Газпромнефть", "address": null, "administrative_unit": "Курортный", "municipality": "Песочный", "Широта": null, "Долгота": null }, "geometry": { "type": "Point", "coordinates": [ 30.12167344, 60.12945469 ] } },
{ "type": "Feature", "properties": { "service_name": "Киришиавтосервис ", "address": null, "administrative_unit": "Красносельский", "municipality": "Красное Село", "Широта": null, "Долгота": null }, "geometry": { "type": "Point", "coordinates": [ 30.09896034, 59.73480697 ] } },
{ "type": "Feature", "properties": { "service_name": "Nord Point", "address": null, "administrative_unit": "Калининский", "municipality": "№ 21", "Широта": null, "Долгота": null }, "geometry": { "type": "Point", "coordinates": [ 30.4317729, 60.0318975 ] } },
{ "type": "Feature", "properties": { "service_name": "Газпромнефть", "address": null, "administrative_unit": "Колпинский", "municipality": "Колпино", "Широта": null, "Долгота": null }, "geometry": { "type": "Point", "coordinates": [ 30.57948308, 59.7299457 ] } },
{ "type": "Feature", "properties": { "service_name": "Киришиавтосервис", "address": null, "administrative_unit": "Выборгский", "municipality": "№ 15", "Широта": null, "Долгота": null }, "geometry": { "type": "Point", "coordinates": [ 30.38441715, 60.05707269 ] } },
{ "type": "Feature", "properties": { "service_name": "Neste", "address": null, "administrative_unit": "Московский", "municipality": "Звездное", "Широта": null, "Долгота": null }, "geometry": { "type": "Point", "coordinates": [ 30.32514341, 59.81990867 ] } },
{ "type": "Feature", "properties": { "service_name": "Роснефть", "address": null, "administrative_unit": "Пушкинский", "municipality": "Пушкин", "Широта": null, "Долгота": null }, "geometry": { "type": "Point", "coordinates": [ 30.39934859, 59.72562477 ] } },
{ "type": "Feature", "properties": { "service_name": "Лукойл", "address": null, "administrative_unit": "Пушкинский", "municipality": "Шушары", "Широта": null, "Долгота": null }, "geometry": { "type": "Point", "coordinates": [ 30.49392026, 59.74793548 ] } },
{ "type": "Feature", "properties": { "service_name": "ПТК", "address": null, "administrative_unit": "Приморский", "municipality": "Комендантский аэродром", "Широта": null, "Долгота": null }, "geometry": { "type": "Point", "coordinates": [ 30.28309078, 59.99418882 ] } },
{ "type": "Feature", "properties": { "service_name": "Роснефть", "address": null, "administrative_unit": "Кронштадтский", "municipality": "Кронштадт", "Широта": null, "Долгота": null }, "geometry": { "type": "Point", "coordinates": [ 29.75958167, 60.00343489 ] } },
{ "type": "Feature", "properties": { "service_name": "Газпромнефть", "address": null, "administrative_unit": "Невский", "municipality": "Ивановский", "Широта": null, "Долгота": null }, "geometry": { "type": "Point", "coordinates": [ 30.42172563, 59.88609233 ] } },
{ "type": "Feature", "properties": { "service_name": "Роснефть", "address": null, "administrative_unit": "Петродворцовый", "municipality": "Петергоф", "Широта": null, "Долгота": null }, "geometry": { "type": "Point", "coordinates": [ 29.9723815, 59.8705175 ] } },
{ "type": "Feature", "properties": { "service_name": "Лукойл", "address": null, "administrative_unit": "Курортный", "municipality": "Сестрорецк", "Широта": null, "Долгота": null }, "geometry": { "type": "Point", "coordinates": [ 29.98681006, 60.1320958 ] } },
{ "type": "Feature", "properties": { "service_name": "Газпромнефть", "address": null, "administrative_unit": "Невский", "municipality": "Рыбацкое", "Широта": null, "Долгота": null }, "geometry": { "type": "Point", "coordinates": [ 30.48360781, 59.8421962 ] } },
{ "type": "Feature", "properties": { "service_name": "Лукойл", "address": null, "administrative_unit": "Пушкинский", "municipality": "Пушкин", "Широта": null, "Долгота": null }, "geometry": { "type": "Point", "coordinates": [ 30.39393581, 59.69939455 ] } },
{ "type": "Feature", "properties": { "service_name": "Газпромнефть", "address": null, "administrative_unit": "Пушкинский", "municipality": "Шушары", "Широта": null, "Долгота": null }, "geometry": { "type": "Point", "coordinates": [ 30.39011275, 59.7967625 ] } },
{ "type": "Feature", "properties": { "service_name": "Инна", "address": null, "administrative_unit": "Пушкинский", "municipality": "Шушары", "Широта": null, "Долгота": null }, "geometry": { "type": "Point", "coordinates": [ 30.50718891, 59.74245957 ] } },
{ "type": "Feature", "properties": { "service_name": "Киришиавтосервис ", "address": null, "administrative_unit": "Красносельский", "municipality": "Юго-Запад", "Широта": null, "Долгота": null }, "geometry": { "type": "Point", "coordinates": [ 30.23320405, 59.86192732 ] } },
{ "type": "Feature", "properties": { "service_name": "Газпромнефть", "address": null, "administrative_unit": "Курортный", "municipality": "Сестрорецк", "Широта": null, "Долгота": null }, "geometry": { "type": "Point", "coordinates": [ 29.95828197, 60.08128779 ] } },
{ "type": "Feature", "properties": { "service_name": "Лукойл", "address": null, "administrative_unit": "Кронштадтский", "municipality": "Кронштадт", "Широта": null, "Долгота": null }, "geometry": { "type": "Point", "coordinates": [ 29.71679935, 60.01057515 ] } },
{ "type": "Feature", "properties": { "service_name": "Neste", "address": null, "administrative_unit": "Выборгский", "municipality": "Шувалово-Озерки", "Широта": null, "Долгота": null }, "geometry": { "type": "Point", "coordinates": [ 30.30805965, 60.05788824 ] } },
{ "type": "Feature", "properties": { "service_name": "ПТК", "address": null, "administrative_unit": "Фрунзенский", "municipality": "Волковское", "Широта": null, "Долгота": null }, "geometry": { "type": "Point", "coordinates": [ 30.3768541, 59.8883608 ] } },
{ "type": "Feature", "properties": { "service_name": "Роснефть", "address": null, "administrative_unit": "Московский", "municipality": "Московская застава", "Широта": null, "Долгота": null }, "geometry": { "type": "Point", "coordinates": [ 30.33685698, 59.87662763 ] } },
{ "type": "Feature", "properties": { "service_name": "Роснефть", "address": null, "administrative_unit": "Пушкинский", "municipality": "Пушкин", "Широта": null, "Долгота": null }, "geometry": { "type": "Point", "coordinates": [ 30.44372811, 59.72489168 ] } },
{ "type": "Feature", "properties": { "service_name": "Лукойл", "address": null, "administrative_unit": "Петродворцовый", "municipality": "Петергоф", "Широта": null, "Долгота": null }, "geometry": { "type": "Point", "coordinates": [ 29.95381076, 59.8612505 ] } },
{ "type": "Feature", "properties": { "service_name": "Петергофская нефтебаза", "address": null, "administrative_unit": "Петродворцовый", "municipality": "Петергоф", "Широта": null, "Долгота": null }, "geometry": { "type": "Point", "coordinates": [ 29.8318703, 59.88374153 ] } },
{ "type": "Feature", "properties": { "service_name": "Газпромнефть", "address": null, "administrative_unit": "Петродворцовый", "municipality": "Ломоносов", "Широта": null, "Долгота": null }, "geometry": { "type": "Point", "coordinates": [ 29.7093037, 59.9239896 ] } },
{ "type": "Feature", "properties": { "service_name": "Лукойл", "address": null, "administrative_unit": "Фрунзенский", "municipality": "Волковское", "Широта": null, "Долгота": null }, "geometry": { "type": "Point", "coordinates": [ 30.38087823, 59.88818516 ] } },
{ "type": "Feature", "properties": { "service_name": "ПТК", "address": null, "administrative_unit": "Курортный", "municipality": "Зеленогорск", "Широта": null, "Долгота": null }, "geometry": { "type": "Point", "coordinates": [ 29.6904597, 60.2033991 ] } },
{ "type": "Feature", "properties": { "service_name": "Роснефть", "address": null, "administrative_unit": "Фрунзенский", "municipality": "Балканский", "Широта": null, "Долгота": null }, "geometry": { "type": "Point", "coordinates": [ 30.41154233, 59.82604331 ] } },
{ "type": "Feature", "properties": { "service_name": "Топливная Компания Самсон", "address": null, "administrative_unit": "Кронштадтский", "municipality": "Кронштадт", "Широта": null, "Долгота": null }, "geometry": { "type": "Point", "coordinates": [ 29.6979541, 60.01297515 ] } },
{ "type": "Feature", "properties": { "service_name": "Neste", "address": null, "administrative_unit": "Московский", "municipality": "Московская застава", "Широта": null, "Долгота": null }, "geometry": { "type": "Point", "coordinates": [ 30.31962675, 59.89716136 ] } },
{ "type": "Feature", "properties": { "service_name": "Nord Point", "address": null, "administrative_unit": "Невский", "municipality": "Невская застава", "Широта": null, "Долгота": null }, "geometry": { "type": "Point", "coordinates": [ 30.38272113, 59.90500263 ] } },
{ "type": "Feature", "properties": { "service_name": "Газпромнефть", "address": null, "administrative_unit": "Фрунзенский", "municipality": "№ 75", "Широта": null, "Долгота": null }, "geometry": { "type": "Point", "coordinates": [ 30.42224751, 59.85536477 ] } },
{ "type": "Feature", "properties": { "service_name": "Газпромнефть", "address": null, "administrative_unit": "Кронштадтский", "municipality": "Кронштадт", "Широта": null, "Долгота": null }, "geometry": { "type": "Point", "coordinates": [ 29.73716059, 60.00859928 ] } },
{ "type": "Feature", "properties": { "service_name": "Роснефть", "address": null, "administrative_unit": "Выборгский", "municipality": "Парголово", "Широта": null, "Долгота": null }, "geometry": { "type": "Point", "coordinates": [ 30.25458755, 60.09466766 ] } },
{ "type": "Feature", "properties": { "service_name": "Роснефть", "address": null, "administrative_unit": "Красносельский", "municipality": "Юго-Запад", "Широта": null, "Долгота": null }, "geometry": { "type": "Point", "coordinates": [ 30.21741492, 59.86033674 ] } },
{ "type": "Feature", "properties": { "service_name": "Газпромнефть", "address": null, "administrative_unit": "Московский", "municipality": "Звездное", "Широта": null, "Долгота": null }, "geometry": { "type": "Point", "coordinates": [ 30.32457748, 59.81662526 ] } },
{ "type": "Feature", "properties": { "service_name": "Киришиавтосервис ", "address": null, "administrative_unit": "Колпинский", "municipality": "Колпино", "Широта": null, "Долгота": null }, "geometry": { "type": "Point", "coordinates": [ 30.55119155, 59.75288175 ] } },
{ "type": "Feature", "properties": { "service_name": "ПТК", "address": null, "administrative_unit": "Петроградский", "municipality": "Чкаловское", "Широта": null, "Долгота": null }, "geometry": { "type": "Point", "coordinates": [ 30.28367861, 59.96705932 ] } },
{ "type": "Feature", "properties": { "service_name": "Лукойл", "address": null, "administrative_unit": "Невский", "municipality": "Невская застава", "Широта": null, "Долгота": null }, "geometry": { "type": "Point", "coordinates": [ 30.3766812, 59.90974319 ] } },
{ "type": "Feature", "properties": { "service_name": "ПТК", "address": null, "administrative_unit": "Курортный", "municipality": "Сестрорецк", "Широта": null, "Долгота": null }, "geometry": { "type": "Point", "coordinates": [ 29.96863461, 60.07595608 ] } },
{ "type": "Feature", "properties": { "service_name": "Фаэтон", "address": null, "administrative_unit": "Красносельский", "municipality": "Константиновское", "Широта": null, "Долгота": null }, "geometry": { "type": "Point", "coordinates": [ 30.13829001, 59.80619472 ] } },
{ "type": "Feature", "properties": { "service_name": "Neste Express", "address": null, "administrative_unit": "Невский", "municipality": "Рыбацкое", "Широта": null, "Долгота": null }, "geometry": { "type": "Point", "coordinates": [ 30.4960886, 59.83544544 ] } },
{ "type": "Feature", "properties": { "service_name": "Северное", "address": null, "administrative_unit": "Выборгский", "municipality": "Парголово", "Широта": null, "Долгота": null }, "geometry": { "type": "Point", "coordinates": [ 30.2560792, 60.0929758 ] } },
{ "type": "Feature", "properties": { "service_name": "АТГ", "address": null, "administrative_unit": "Василеостровский", "municipality": "Остров Декабристов", "Широта": null, "Долгота": null }, "geometry": { "type": "Point", "coordinates": [ 30.2542072, 59.955052 ] } },
{ "type": "Feature", "properties": { "service_name": "Лукойл", "address": null, "administrative_unit": "Московский", "municipality": "Гагаринское", "Широта": null, "Долгота": null }, "geometry": { "type": "Point", "coordinates": [ 30.35236449, 59.87166936 ] } },
{ "type": "Feature", "properties": { "service_name": "Лукойл", "address": null, "administrative_unit": "Московский", "municipality": "Московская застава", "Широта": null, "Долгота": null }, "geometry": { "type": "Point", "coordinates": [ 30.30668394, 59.87619649 ] } },
{ "type": "Feature", "properties": { "service_name": "ПТК", "address": null, "administrative_unit": "Невский", "municipality": "Ивановский", "Широта": null, "Долгота": null }, "geometry": { "type": "Point", "coordinates": [ 30.43332509, 59.86986008 ] } },
{ "type": "Feature", "properties": { "service_name": "Фаэтон", "address": null, "administrative_unit": "Калининский", "municipality": "Северный", "Широта": null, "Долгота": null }, "geometry": { "type": "Point", "coordinates": [ 30.38254627, 60.05166382 ] } },
{ "type": "Feature", "properties": { "service_name": "Neste", "address": null, "administrative_unit": "Пушкинский", "municipality": "Шушары", "Широта": null, "Долгота": null }, "geometry": { "type": "Point", "coordinates": [ 30.47381666, 59.73439311 ] } },
{ "type": "Feature", "properties": { "service_name": "Лукойл", "address": null, "administrative_unit": "Петродворцовый", "municipality": "Стрельна", "Широта": null, "Долгота": null }, "geometry": { "type": "Point", "coordinates": [ 30.04002442, 59.839617 ] } },
{ "type": "Feature", "properties": { "service_name": "Фаэтон", "address": null, "administrative_unit": "Петродворцовый", "municipality": "Стрельна", "Широта": null, "Долгота": null }, "geometry": { "type": "Point", "coordinates": [ 30.03538224, 59.84732791 ] } },
{ "type": "Feature", "properties": { "service_name": "Neste", "address": null, "administrative_unit": "Красносельский", "municipality": "Сосновая поляна", "Широта": null, "Долгота": null }, "geometry": { "type": "Point", "coordinates": [ 30.09166647, 59.85137893 ] } },
{ "type": "Feature", "properties": { "service_name": "Лукойл", "address": null, "administrative_unit": "Петродворцовый", "municipality": "Ломоносов", "Широта": null, "Долгота": null }, "geometry": { "type": "Point", "coordinates": [ 29.73607822, 59.91911931 ] } },
{ "type": "Feature", "properties": { "service_name": "Северное", "address": null, "administrative_unit": "Московский", "municipality": "Гагаринское", "Широта": null, "Долгота": null }, "geometry": { "type": "Point", "coordinates": [ 30.3529611, 59.87060492 ] } },
{ "type": "Feature", "properties": { "service_name": "ПТК", "address": null, "administrative_unit": "Кировский", "municipality": "Автово", "Широта": null, "Долгота": null }, "geometry": { "type": "Point", "coordinates": [ 30.2440353, 59.8660948 ] } },
{ "type": "Feature", "properties": { "service_name": "Neste Express", "address": null, "administrative_unit": "Курортный", "municipality": "Сестрорецк", "Широта": null, "Долгота": null }, "geometry": { "type": "Point", "coordinates": [ 29.95692107, 60.08310094 ] } },
{ "type": "Feature", "properties": { "service_name": "Газпромнефть", "address": null, "administrative_unit": "Приморский", "municipality": "Юнтолово", "Широта": null, "Долгота": null }, "geometry": { "type": "Point", "coordinates": [ 30.26650179, 60.02262724 ] } },
{ "type": "Feature", "properties": { "service_name": "Лентрансгаз", "address": null, "administrative_unit": "Пушкинский", "municipality": "Пушкин", "Широта": null, "Долгота": null }, "geometry": { "type": "Point", "coordinates": [ 30.45181782, 59.73145733 ] } },
{ "type": "Feature", "properties": { "service_name": "Лукойл", "address": null, "administrative_unit": "Приморский", "municipality": "Лахта-Ольгино", "Широта": null, "Долгота": null }, "geometry": { "type": "Point", "coordinates": [ 30.17569306, 59.98875526 ] } },
{ "type": "Feature", "properties": { "service_name": "Газпромнефть", "address": null, "administrative_unit": "Фрунзенский", "municipality": "Волковское", "Широта": null, "Долгота": null }, "geometry": { "type": "Point", "coordinates": [ 30.37602839, 59.88097924 ] } },
{ "type": "Feature", "properties": { "service_name": "Роснефть", "address": null, "administrative_unit": "Невский", "municipality": "Народный", "Широта": null, "Долгота": null }, "geometry": { "type": "Point", "coordinates": [ 30.4919618, 59.8647619 ] } },
{ "type": "Feature", "properties": { "service_name": "Роснефть", "address": null, "administrative_unit": "Пушкинский", "municipality": "Шушары", "Широта": null, "Долгота": null }, "geometry": { "type": "Point", "coordinates": [ 30.47244353, 59.7625057 ] } },
{ "type": "Feature", "properties": { "service_name": "Газпромнефть", "address": null, "administrative_unit": "Невский", "municipality": "Рыбацкое", "Широта": null, "Долгота": null }, "geometry": { "type": "Point", "coordinates": [ 30.55317098, 59.82444249 ] } },
{ "type": "Feature", "properties": { "service_name": "Лукойл", "address": null, "administrative_unit": "Пушкинский", "municipality": "Шушары", "Широта": null, "Долгота": null }, "geometry": { "type": "Point", "coordinates": [ 30.39881566, 59.80225285 ] } },
{ "type": "Feature", "properties": { "service_name": "Лукойл", "address": null, "administrative_unit": "Выборгский", "municipality": "№ 15", "Широта": null, "Долгота": null }, "geometry": { "type": "Point", "coordinates": [ 30.36087502, 60.05584157 ] } },
{ "type": "Feature", "properties": { "service_name": "ПТК", "address": null, "administrative_unit": "Московский", "municipality": "Пулковский меридиан", "Широта": null, "Долгота": null }, "geometry": { "type": "Point", "coordinates": [ 30.3220263, 59.815021 ] } },
{ "type": "Feature", "properties": { "service_name": "Роснефть", "address": null, "administrative_unit": "Московский", "municipality": "Гагаринское", "Широта": null, "Долгота": null }, "geometry": { "type": "Point", "coordinates": [ 30.33900441, 59.85166268 ] } },
{ "type": "Feature", "properties": { "service_name": "Газпромнефть", "address": null, "administrative_unit": "Невский", "municipality": "Невский округ", "Широта": null, "Долгота": null }, "geometry": { "type": "Point", "coordinates": [ 30.4446194, 59.90948511 ] } },
{ "type": "Feature", "properties": { "service_name": "Киришиавтосервис", "address": null, "administrative_unit": "Приморский", "municipality": "Лисий Нос", "Широта": null, "Долгота": null }, "geometry": { "type": "Point", "coordinates": [ 29.982320938669091, 60.033594543477811 ] } },
{ "type": "Feature", "properties": { "service_name": "Газпромнефть", "address": null, "administrative_unit": "Петродворцовый", "municipality": "Петергоф", "Широта": null, "Долгота": null }, "geometry": { "type": "Point", "coordinates": [ 29.80646617, 59.87495014 ] } },
{ "type": "Feature", "properties": { "service_name": "Роснефть", "address": null, "administrative_unit": "Фрунзенский", "municipality": "Волковское", "Широта": null, "Долгота": null }, "geometry": { "type": "Point", "coordinates": [ 30.38554011, 59.88343443 ] } },
{ "type": "Feature", "properties": { "service_name": "Лукойл", "address": null, "administrative_unit": "Невский", "municipality": "Народный", "Широта": null, "Долгота": null }, "geometry": { "type": "Point", "coordinates": [ 30.46075812, 59.89357766 ] } },
{ "type": "Feature", "properties": { "service_name": "Роснефть", "address": null, "administrative_unit": "Московский", "municipality": "Московская застава", "Широта": null, "Долгота": null }, "geometry": { "type": "Point", "coordinates": [ 30.34344113, 59.88104277 ] } },
{ "type": "Feature", "properties": { "service_name": "Фаэтон", "address": null, "administrative_unit": "Кировский", "municipality": "Автово", "Широта": null, "Долгота": null }, "geometry": { "type": "Point", "coordinates": [ 30.2486172, 59.8684278 ] } },
{ "type": "Feature", "properties": { "service_name": "Neste Express", "address": null, "administrative_unit": "Приморский", "municipality": "Комендантский аэродром", "Широта": null, "Долгота": null }, "geometry": { "type": "Point", "coordinates": [ 30.31401547, 60.00161077 ] } },
{ "type": "Feature", "properties": { "service_name": "ПТК", "address": null, "administrative_unit": "Василеостровский", "municipality": "Остров Декабристов", "Широта": null, "Долгота": null }, "geometry": { "type": "Point", "coordinates": [ 30.2415169, 59.955537 ] } },
{ "type": "Feature", "properties": { "service_name": "Роснефть", "address": null, "administrative_unit": "Пушкинский", "municipality": "Шушары", "Широта": null, "Долгота": null }, "geometry": { "type": "Point", "coordinates": [ 30.44018765, 59.7782079 ] } },
{ "type": "Feature", "properties": { "service_name": "Nord Point", "address": null, "administrative_unit": "Красносельский", "municipality": "Южно-Приморский", "Широта": null, "Долгота": null }, "geometry": { "type": "Point", "coordinates": [ 30.2026659, 59.85713112 ] } },
{ "type": "Feature", "properties": { "service_name": "Neste", "address": null, "administrative_unit": "Колпинский", "municipality": "Петро-Славянка", "Широта": null, "Долгота": null }, "geometry": { "type": "Point", "coordinates": [ 30.46498609, 59.80846135 ] } },
{ "type": "Feature", "properties": { "service_name": "Газпромнефть", "address": null, "administrative_unit": "Приморский", "municipality": "Юнтолово", "Широта": null, "Долгота": null }, "geometry": { "type": "Point", "coordinates": [ 30.23529311, 60.00832455 ] } },
{ "type": "Feature", "properties": { "service_name": "Лукойл", "address": null, "administrative_unit": "Курортный", "municipality": "Зеленогорск", "Широта": null, "Долгота": null }, "geometry": { "type": "Point", "coordinates": [ 29.70483199, 60.20339088 ] } },
{ "type": "Feature", "properties": { "service_name": "Газпромнефть", "address": null, "administrative_unit": "Пушкинский", "municipality": "Тярлево", "Широта": null, "Долгота": null }, "geometry": { "type": "Point", "coordinates": [ 30.43679213, 59.71122207 ] } },
{ "type": "Feature", "properties": { "service_name": "Лукойл", "address": null, "administrative_unit": "Московский", "municipality": "Гагаринское", "Широта": null, "Долгота": null }, "geometry": { "type": "Point", "coordinates": [ 30.35450146, 59.84334417 ] } },
{ "type": "Feature", "properties": { "service_name": "Лукойл", "address": null, "administrative_unit": "Выборгский", "municipality": "Шувалово-Озерки", "Широта": null, "Долгота": null }, "geometry": { "type": "Point", "coordinates": [ 30.30720348, 60.05912497 ] } },
{ "type": "Feature", "properties": { "service_name": "ПТК", "address": null, "administrative_unit": "Красногвардейский", "municipality": "Ржевка", "Широта": null, "Долгота": null }, "geometry": { "type": "Point", "coordinates": [ 30.44871562, 59.96624524 ] } },
{ "type": "Feature", "properties": { "service_name": "Евро", "address": null, "administrative_unit": "Пушкинский", "municipality": "Шушары", "Широта": null, "Долгота": null }, "geometry": { "type": "Point", "coordinates": [ 30.39592164, 59.80456086 ] } },
{ "type": "Feature", "properties": { "service_name": "ПТК", "address": null, "administrative_unit": "Фрунзенский", "municipality": "Георгиевский", "Широта": null, "Долгота": null }, "geometry": { "type": "Point", "coordinates": [ 30.37647944, 59.83840307 ] } },
{ "type": "Feature", "properties": { "service_name": "Лукойл", "address": null, "administrative_unit": "Василеостровский", "municipality": "Гавань", "Широта": null, "Долгота": null }, "geometry": { "type": "Point", "coordinates": [ 30.24088586, 59.92648953 ] } },
{ "type": "Feature", "properties": { "service_name": "Татнефть", "address": null, "administrative_unit": "Красносельский", "municipality": "Красное Село", "Широта": null, "Долгота": null }, "geometry": { "type": "Point", "coordinates": [ 30.04833895, 59.71695883 ] } },
{ "type": "Feature", "properties": { "service_name": "Neste", "address": null, "administrative_unit": "Красносельский", "municipality": "Урицк", "Широта": null, "Долгота": null }, "geometry": { "type": "Point", "coordinates": [ 30.17644366, 59.84285822 ] } },
{ "type": "Feature", "properties": { "service_name": "ПТК", "address": null, "administrative_unit": "Невский", "municipality": "Обуховский", "Широта": null, "Долгота": null }, "geometry": { "type": "Point", "coordinates": [ 30.4630382, 59.8494562 ] } },
{ "type": "Feature", "properties": { "service_name": "Лукойл", "address": null, "administrative_unit": "Колпинский", "municipality": "Понтонный", "Широта": null, "Долгота": null }, "geometry": { "type": "Point", "coordinates": [ 30.63405279, 59.76462513 ] } },
{ "type": "Feature", "properties": { "service_name": "Лукойл", "address": null, "administrative_unit": "Калининский", "municipality": "№ 21", "Широта": null, "Долгота": null }, "geometry": { "type": "Point", "coordinates": [ 30.42542651, 60.03920271 ] } },
{ "type": "Feature", "properties": { "service_name": "Фаэтон", "address": null, "administrative_unit": "Колпинский", "municipality": "Колпино", "Широта": null, "Долгота": null }, "geometry": { "type": "Point", "coordinates": [ 30.6082289, 59.7525055 ] } },
{ "type": "Feature", "properties": { "service_name": "Neste", "address": null, "administrative_unit": "Московский", "municipality": "Новоизмайловское", "Широта": null, "Долгота": null }, "geometry": { "type": "Point", "coordinates": [ 30.30466889, 59.85140147 ] } },
{ "type": "Feature", "properties": { "service_name": "Nord Point", "address": null, "administrative_unit": "Фрунзенский", "municipality": "Волковское", "Широта": null, "Долгота": null }, "geometry": { "type": "Point", "coordinates": [ 30.35866775, 59.87966773 ] } },
{ "type": "Feature", "properties": { "service_name": "ПТК", "address": null, "administrative_unit": "Петродворцовый", "municipality": "Петергоф", "Широта": null, "Долгота": null }, "geometry": { "type": "Point", "coordinates": [ 29.89116758, 59.88291165 ] } },
{ "type": "Feature", "properties": { "service_name": "ПТК", "address": null, "administrative_unit": "Невский", "municipality": "Рыбацкое", "Широта": null, "Долгота": null }, "geometry": { "type": "Point", "coordinates": [ 30.5317272, 59.8300898 ] } },
{ "type": "Feature", "properties": { "service_name": "Nord Point", "address": null, "administrative_unit": "Василеостровский", "municipality": "Гавань", "Широта": null, "Долгота": null }, "geometry": { "type": "Point", "coordinates": [ 30.23143376, 59.93860426 ] } },
{ "type": "Feature", "properties": { "service_name": "Газпромнефть", "address": null, "administrative_unit": "Фрунзенский", "municipality": "Волковское", "Широта": null, "Долгота": null }, "geometry": { "type": "Point", "coordinates": [ 30.35242222, 59.87805973 ] } },
{ "type": "Feature", "properties": { "service_name": "Газонаполнительный пункт", "address": null, "administrative_unit": "Приморский", "municipality": "Лисий Нос", "Широта": null, "Долгота": null }, "geometry": { "type": "Point", "coordinates": [ 29.99255555, 60.01653365 ] } },
{ "type": "Feature", "properties": { "service_name": "Лукойл", "address": null, "administrative_unit": "Петродворцовый", "municipality": "Ломоносов", "Широта": null, "Долгота": null }, "geometry": { "type": "Point", "coordinates": [ 29.78664635, 59.90811361 ] } },
{ "type": "Feature", "properties": { "service_name": "ПТК", "address": null, "administrative_unit": "Красногвардейский", "municipality": "Ржевка", "Широта": null, "Долгота": null }, "geometry": { "type": "Point", "coordinates": [ 30.47827855, 59.9648075 ] } },
{ "type": "Feature", "properties": { "service_name": "Роснефть", "address": null, "administrative_unit": "Калининский", "municipality": "Пискаревка", "Широта": null, "Долгота": null }, "geometry": { "type": "Point", "coordinates": [ 30.43642108, 60.00563591 ] } },
{ "type": "Feature", "properties": { "service_name": "Роснефть", "address": null, "administrative_unit": "Красносельский", "municipality": "Красное Село", "Широта": null, "Долгота": null }, "geometry": { "type": "Point", "coordinates": [ 30.1139432, 59.76157045 ] } },
{ "type": "Feature", "properties": { "service_name": "АЗС", "address": null, "administrative_unit": "Петродворцовый", "municipality": "Петергоф", "Широта": null, "Долгота": null }, "geometry": { "type": "Point", "coordinates": [ 29.808009098935994, 59.872882640741317 ] } },
{ "type": "Feature", "properties": { "service_name": "Роснефть", "address": null, "administrative_unit": "Невский", "municipality": "Обуховский", "Широта": null, "Долгота": null }, "geometry": { "type": "Point", "coordinates": [ 30.44988675, 59.86035029 ] } },
{ "type": "Feature", "properties": { "service_name": "Nord Point", "address": null, "administrative_unit": "Приморский", "municipality": "Озеро Долгое", "Широта": null, "Долгота": null }, "geometry": { "type": "Point", "coordinates": [ 30.25768104, 60.001468 ] } },
{ "type": "Feature", "properties": { "service_name": "Киришиавтосервис", "address": null, "administrative_unit": "Петроградский", "municipality": "Чкаловское", "Широта": null, "Долгота": null }, "geometry": { "type": "Point", "coordinates": [ 30.28530089, 59.97043268 ] } },
{ "type": "Feature", "properties": { "service_name": "Митекс", "address": null, "administrative_unit": "Невский", "municipality": "Ивановский", "Широта": null, "Долгота": null }, "geometry": { "type": "Point", "coordinates": [ 30.44684341, 59.85631215 ] } },
{ "type": "Feature", "properties": { "service_name": "Роснефть", "address": null, "administrative_unit": "Пушкинский", "municipality": "Пушкин", "Широта": null, "Долгота": null }, "geometry": { "type": "Point", "coordinates": [ 30.39504698, 59.74365866 ] } },
{ "type": "Feature", "properties": { "service_name": "Газпромнефть", "address": null, "administrative_unit": "Красногвардейский", "municipality": "Ржевка", "Широта": null, "Долгота": null }, "geometry": { "type": "Point", "coordinates": [ 30.46954274, 59.96611325 ] } },
{ "type": "Feature", "properties": { "service_name": "Роснефть", "address": null, "administrative_unit": "Курортный", "municipality": "Сестрорецк", "Широта": null, "Долгота": null }, "geometry": { "type": "Point", "coordinates": [ 29.95921346, 60.08039792 ] } },
{ "type": "Feature", "properties": { "service_name": "Роснефть", "address": null, "administrative_unit": "Невский", "municipality": "Народный", "Широта": null, "Долгота": null }, "geometry": { "type": "Point", "coordinates": [ 30.49088668, 59.88776721 ] } },
{ "type": "Feature", "properties": { "service_name": "Киришиавтосервис", "address": null, "administrative_unit": "Кировский", "municipality": "Автово", "Широта": null, "Долгота": null }, "geometry": { "type": "Point", "coordinates": [ 30.23311619, 59.86949649 ] } },
{ "type": "Feature", "properties": { "service_name": "Лукоил", "address": null, "administrative_unit": "Московский", "municipality": "Московская застава", "Широта": null, "Долгота": null }, "geometry": { "type": "Point", "coordinates": [ 30.33708423, 59.9033711 ] } },
{ "type": "Feature", "properties": { "service_name": "Лукойл", "address": null, "administrative_unit": "Кировский", "municipality": "Морские ворота", "Широта": null, "Долгота": null }, "geometry": { "type": "Point", "coordinates": [ 30.23952362, 59.90898896 ] } },
{ "type": "Feature", "properties": { "service_name": "Роснефть", "address": null, "administrative_unit": "Красносельский", "municipality": "Горелово", "Широта": null, "Долгота": null }, "geometry": { "type": "Point", "coordinates": [ 30.11801642, 59.76826915 ] } },
{ "type": "Feature", "properties": { "service_name": "ТНК", "address": null, "administrative_unit": "Красногвардейский", "municipality": "Ржевка", "Широта": null, "Долгота": null }, "geometry": { "type": "Point", "coordinates": [ 30.4587137, 59.96216633 ] } },
{ "type": "Feature", "properties": { "service_name": "Роснефть", "address": null, "administrative_unit": "Петродворцовый", "municipality": "Ломоносов", "Широта": null, "Долгота": null }, "geometry": { "type": "Point", "coordinates": [ 29.79469889, 59.89312284 ] } },
{ "type": "Feature", "properties": { "service_name": "Лукойл", "address": null, "administrative_unit": "Фрунзенский", "municipality": "Волковское", "Широта": null, "Долгота": null }, "geometry": { "type": "Point", "coordinates": [ 30.36674969, 59.8826986 ] } },
{ "type": "Feature", "properties": { "service_name": "Neste", "address": null, "administrative_unit": "Красносельский", "municipality": "Горелово", "Широта": null, "Долгота": null }, "geometry": { "type": "Point", "coordinates": [ 30.16159811, 59.80548382 ] } },
{ "type": "Feature", "properties": { "service_name": "Северное", "address": null, "administrative_unit": "Кировский", "municipality": "Красненькая речка", "Широта": null, "Долгота": null }, "geometry": { "type": "Point", "coordinates": [ 30.2153959, 59.8464482 ] } },
{ "type": "Feature", "properties": { "service_name": "Neste", "address": null, "administrative_unit": "Красносельский", "municipality": "Урицк", "Широта": null, "Долгота": null }, "geometry": { "type": "Point", "coordinates": [ 30.1856219, 59.82621617 ] } },
{ "type": "Feature", "properties": { "service_name": "Аэро", "address": null, "administrative_unit": "Адмиралтейский", "municipality": "Коломна", "Широта": null, "Долгота": null }, "geometry": { "type": "Point", "coordinates": [ 30.28039093, 59.92341286 ] } },
{ "type": "Feature", "properties": { "service_name": "ПТК", "address": null, "administrative_unit": "Пушкинский", "municipality": "Тярлево", "Широта": null, "Долгота": null }, "geometry": { "type": "Point", "coordinates": [ 30.44012975, 59.69868285 ] } },
{ "type": "Feature", "properties": { "service_name": "Neste", "address": null, "administrative_unit": "Московский", "municipality": "Новоизмайловское", "Широта": null, "Долгота": null }, "geometry": { "type": "Point", "coordinates": [ 30.29246086, 59.84770947 ] } },
{ "type": "Feature", "properties": { "service_name": "ПТК", "address": null, "administrative_unit": "Выборгский", "municipality": "Светлановское", "Широта": null, "Долгота": null }, "geometry": { "type": "Point", "coordinates": [ 30.31145466, 60.02227564 ] } },
{ "type": "Feature", "properties": { "service_name": "ПТК", "address": null, "administrative_unit": "Курортный", "municipality": "Репино", "Широта": null, "Долгота": null }, "geometry": { "type": "Point", "coordinates": [ 29.9003902, 60.1656517 ] } },
{ "type": "Feature", "properties": { "service_name": "Роснефть", "address": null, "administrative_unit": "Московский", "municipality": "Гагаринское", "Широта": null, "Долгота": null }, "geometry": { "type": "Point", "coordinates": [ 30.35824364, 59.83152122 ] } },
{ "type": "Feature", "properties": { "service_name": "Фаэтон", "address": null, "administrative_unit": "Пушкинский", "municipality": "Пушкин", "Широта": null, "Долгота": null }, "geometry": { "type": "Point", "coordinates": [ 30.2437469, 59.6820773 ] } },
{ "type": "Feature", "properties": { "service_name": "Роснефть", "address": null, "administrative_unit": "Московский", "municipality": "Пулковский меридиан", "Широта": null, "Долгота": null }, "geometry": { "type": "Point", "coordinates": [ 30.32251905, 59.80218715 ] } },
{ "type": "Feature", "properties": { "service_name": "Лукойл", "address": null, "administrative_unit": "Московский", "municipality": "Московская застава", "Широта": null, "Долгота": null }, "geometry": { "type": "Point", "coordinates": [ 30.34864363, 59.87927923 ] } },
{ "type": "Feature", "properties": { "service_name": "Лукойл", "address": null, "administrative_unit": "Выборгский", "municipality": "Шувалово-Озерки", "Широта": null, "Долгота": null }, "geometry": { "type": "Point", "coordinates": [ 30.3193206, 60.0642444 ] } },
{ "type": "Feature", "properties": { "service_name": "Роснефть", "address": null, "administrative_unit": "Кронштадтский", "municipality": "Кронштадт", "Широта": null, "Долгота": null }, "geometry": { "type": "Point", "coordinates": [ 29.71221811, 60.00693108 ] } },
{ "type": "Feature", "properties": { "service_name": "Газпромнефть", "address": null, "administrative_unit": "Кировский", "municipality": "Автово", "Широта": null, "Долгота": null }, "geometry": { "type": "Point", "coordinates": [ 30.28855517, 59.8615313 ] } },
{ "type": "Feature", "properties": { "service_name": "Татнефть", "address": null, "administrative_unit": "Невский", "municipality": "Народный", "Широта": null, "Долгота": null }, "geometry": { "type": "Point", "coordinates": [ 30.45141205, 59.88354815 ] } },
{ "type": "Feature", "properties": { "service_name": "Neste", "address": null, "administrative_unit": "Московский", "municipality": "Московская застава", "Широта": null, "Долгота": null }, "geometry": { "type": "Point", "coordinates": [ 30.32125842, 59.8815205 ] } },
{ "type": "Feature", "properties": { "service_name": "Киришиавтосервис", "address": null, "administrative_unit": "Выборгский", "municipality": "Шувалово-Озерки", "Широта": null, "Долгота": null }, "geometry": { "type": "Point", "coordinates": [ 30.31899624, 60.03457307 ] } },
{ "type": "Feature", "properties": { "service_name": "Лукойл", "address": null, "administrative_unit": "Кировский", "municipality": "Красненькая речка", "Широта": null, "Долгота": null }, "geometry": { "type": "Point", "coordinates": [ 30.2184038, 59.84665885 ] } },
{ "type": "Feature", "properties": { "service_name": "Лукойл", "address": null, "administrative_unit": "Московский", "municipality": "Звездное", "Широта": null, "Долгота": null }, "geometry": { "type": "Point", "coordinates": [ 30.32507723, 59.8150124 ] } },
{ "type": "Feature", "properties": { "service_name": "Газпромнефть", "address": null, "administrative_unit": "Выборгский", "municipality": "Парголово", "Широта": null, "Долгота": null }, "geometry": { "type": "Point", "coordinates": [ 30.27109093, 60.0768727 ] } },
{ "type": "Feature", "properties": { "service_name": "Лукойл", "address": null, "administrative_unit": "Приморский", "municipality": "№ 65", "Широта": null, "Долгота": null }, "geometry": { "type": "Point", "coordinates": [ 30.19635944, 59.99146315 ] } },
{ "type": "Feature", "properties": { "service_name": "Киришиавтосервис", "address": null, "administrative_unit": "Невский", "municipality": "Рыбацкое", "Широта": null, "Долгота": null }, "geometry": { "type": "Point", "coordinates": [ 30.48490139, 59.84679095 ] } },
{ "type": "Feature", "properties": { "service_name": "Газпромнефть", "address": null, "administrative_unit": "Пушкинский", "municipality": "Шушары", "Широта": null, "Долгота": null }, "geometry": { "type": "Point", "coordinates": [ 30.5077506, 59.7478602 ] } },
{ "type": "Feature", "properties": { "service_name": "Роснефть", "address": null, "administrative_unit": "Василеостровский", "municipality": "Васильевский", "Широта": null, "Долгота": null }, "geometry": { "type": "Point", "coordinates": [ 30.2452676, 59.93899305 ] } },
{ "type": "Feature", "properties": { "service_name": "Киришиавтосервис", "address": null, "administrative_unit": "Выборгский", "municipality": "Шувалово-Озерки", "Широта": null, "Долгота": null }, "geometry": { "type": "Point", "coordinates": [ 30.3194764, 60.03452001 ] } },
{ "type": "Feature", "properties": { "service_name": "Роснефть", "address": null, "administrative_unit": "Петродворцовый", "municipality": "Петергоф", "Широта": null, "Долгота": null }, "geometry": { "type": "Point", "coordinates": [ 29.9714142, 59.8693354 ] } },
{ "type": "Feature", "properties": { "service_name": "ПТК", "address": null, "administrative_unit": "Пушкинский", "municipality": "Шушары", "Широта": null, "Долгота": null }, "geometry": { "type": "Point", "coordinates": [ 30.4570891, 59.77133865 ] } },
{ "type": "Feature", "properties": { "service_name": "Лукойл", "address": null, "administrative_unit": "Кировский", "municipality": "Нарвский округ", "Широта": null, "Долгота": null }, "geometry": { "type": "Point", "coordinates": [ 30.28885219, 59.89702815 ] } },
{ "type": "Feature", "properties": { "service_name": "ПТК", "address": null, "administrative_unit": "Кировский", "municipality": "Княжево", "Широта": null, "Долгота": null }, "geometry": { "type": "Point", "coordinates": [ 30.28168902, 59.84794743 ] } },
{ "type": "Feature", "properties": { "service_name": "Роснефть", "address": null, "administrative_unit": "Курортный", "municipality": "Сестрорецк", "Широта": null, "Долгота": null }, "geometry": { "type": "Point", "coordinates": [ 30.00001025, 60.03877275 ] } },
{ "type": "Feature", "properties": { "service_name": "Лукойл", "address": null, "administrative_unit": "Московский", "municipality": "Звездное", "Широта": null, "Долгота": null }, "geometry": { "type": "Point", "coordinates": [ 30.34335354, 59.83037807 ] } },
{ "type": "Feature", "properties": { "service_name": "Лукойл", "address": null, "administrative_unit": "Выборгский", "municipality": "№ 15", "Широта": null, "Долгота": null }, "geometry": { "type": "Point", "coordinates": [ 30.3770968, 60.05300195 ] } },
{ "type": "Feature", "properties": { "service_name": "Лукойл", "address": null, "administrative_unit": "Кировский", "municipality": "Красненькая речка", "Широта": null, "Долгота": null }, "geometry": { "type": "Point", "coordinates": [ 30.21549697, 59.84750048 ] } },
{ "type": "Feature", "properties": { "service_name": "Газпромнефть", "address": null, "administrative_unit": "Московский", "municipality": "Гагаринское", "Широта": null, "Долгота": null }, "geometry": { "type": "Point", "coordinates": [ 30.3678587, 59.81918938 ] } },
{ "type": "Feature", "properties": { "service_name": "Газпромнефть", "address": null, "administrative_unit": "Фрунзенский", "municipality": "№ 75", "Широта": null, "Долгота": null }, "geometry": { "type": "Point", "coordinates": [ 30.43047118, 59.8353891 ] } },
{ "type": "Feature", "properties": { "service_name": "Газпромнефть", "address": null, "administrative_unit": "Петродворцовый", "municipality": "Ломоносов", "Широта": null, "Долгота": null }, "geometry": { "type": "Point", "coordinates": [ 29.76872814, 59.9014713 ] } },
{ "type": "Feature", "properties": { "service_name": "Лукойл", "address": null, "administrative_unit": "Калининский", "municipality": "№ 21", "Широта": null, "Долгота": null }, "geometry": { "type": "Point", "coordinates": [ 30.43281073, 60.04212418 ] } },
{ "type": "Feature", "properties": { "service_name": "Киришиавтосервис", "address": null, "administrative_unit": "Фрунзенский", "municipality": "№ 75", "Широта": null, "Долгота": null }, "geometry": { "type": "Point", "coordinates": [ 30.42421869, 59.85683346 ] } },
{ "type": "Feature", "properties": { "service_name": "Топливо Киришского НПЗ", "address": null, "administrative_unit": "Пушкинский", "municipality": "Шушары", "Широта": null, "Долгота": null }, "geometry": { "type": "Point", "coordinates": [ 30.50172051, 59.74529549 ] } },
{ "type": "Feature", "properties": { "service_name": "ПТК", "address": null, "administrative_unit": "Московский", "municipality": "Московская застава", "Широта": null, "Долгота": null }, "geometry": { "type": "Point", "coordinates": [ 30.34292283, 59.88581465 ] } },
{ "type": "Feature", "properties": { "service_name": "Neste", "address": null, "administrative_unit": "Калининский", "municipality": "Пискаревка", "Широта": null, "Долгота": null }, "geometry": { "type": "Point", "coordinates": [ 30.36229354, 59.98659677 ] } },
{ "type": "Feature", "properties": { "service_name": "Лукойл", "address": null, "administrative_unit": "Фрунзенский", "municipality": "№ 75", "Широта": null, "Долгота": null }, "geometry": { "type": "Point", "coordinates": [ 30.41647157, 59.86314572 ] } },
{ "type": "Feature", "properties": { "service_name": "Nord Point", "address": null, "administrative_unit": "Выборгский", "municipality": "Сергиевское", "Широта": null, "Долгота": null }, "geometry": { "type": "Point", "coordinates": [ 30.36377891, 60.0867169 ] } },
{ "type": "Feature", "properties": { "service_name": "Лукойл", "address": null, "administrative_unit": "Невский", "municipality": "Рыбацкое", "Широта": null, "Долгота": null }, "geometry": { "type": "Point", "coordinates": [ 30.5576624, 59.82271964 ] } },
{ "type": "Feature", "properties": { "service_name": "Лукойл", "address": null, "administrative_unit": "Невский", "municipality": "Обуховский", "Широта": null, "Долгота": null }, "geometry": { "type": "Point", "coordinates": [ 30.46842885, 59.86062241 ] } },
{ "type": "Feature", "properties": { "service_name": "ПТК", "address": null, "administrative_unit": "Адмиралтейский", "municipality": "Екатерингофский", "Широта": null, "Долгота": null }, "geometry": { "type": "Point", "coordinates": [ 30.2808167, 59.91576467 ] } },
{ "type": "Feature", "properties": { "service_name": "Лукойл", "address": null, "administrative_unit": "Фрунзенский", "municipality": "Балканский", "Широта": null, "Долгота": null }, "geometry": { "type": "Point", "coordinates": [ 30.38135833, 59.83121096 ] } },
{ "type": "Feature", "properties": { "service_name": "Пропан 24", "address": null, "administrative_unit": "Адмиралтейский", "municipality": "Екатерингофский", "Широта": null, "Долгота": null }, "geometry": { "type": "Point", "coordinates": [ 30.289602246232253, 59.909654231751212 ] } },
{ "type": "Feature", "properties": { "service_name": "Фаэтон", "address": null, "administrative_unit": "Красногвардейский", "municipality": "Пороховые", "Широта": null, "Долгота": null }, "geometry": { "type": "Point", "coordinates": [ 30.45417478, 59.95433824 ] } },
{ "type": "Feature", "properties": { "service_name": "Газпромнефть", "address": null, "administrative_unit": "Красносельский", "municipality": "Красное Село", "Широта": null, "Долгота": null }, "geometry": { "type": "Point", "coordinates": [ 30.07957551, 59.7165975 ] } },
{ "type": "Feature", "properties": { "service_name": "Роснефть", "address": null, "administrative_unit": "Фрунзенский", "municipality": "№ 75", "Широта": null, "Долгота": null }, "geometry": { "type": "Point", "coordinates": [ 30.40080501, 59.85648914 ] } },
{ "type": "Feature", "properties": { "service_name": "Роснефть", "address": null, "administrative_unit": "Кронштадтский", "municipality": "Кронштадт", "Широта": null, "Долгота": null }, "geometry": { "type": "Point", "coordinates": [ 29.77261635, 60.00068856 ] } },
{ "type": "Feature", "properties": { "service_name": "Киришиавтосервис", "address": null, "administrative_unit": "Пушкинский", "municipality": "Шушары", "Широта": null, "Долгота": null }, "geometry": { "type": "Point", "coordinates": [ 30.38294484, 59.81163782 ] } },
{ "type": "Feature", "properties": { "service_name": "Газпромнефть", "address": null, "administrative_unit": "Колпинский", "municipality": "Саперный", "Широта": null, "Долгота": null }, "geometry": { "type": "Point", "coordinates": [ 30.70181699, 59.77336225 ] } },
{ "type": "Feature", "properties": { "service_name": "ПТК", "address": null, "administrative_unit": "Приморский", "municipality": "№ 65", "Широта": null, "Долгота": null }, "geometry": { "type": "Point", "coordinates": [ 30.23127583, 59.98316399 ] } },
{ "type": "Feature", "properties": { "service_name": "Татнефть", "address": null, "administrative_unit": "Московский", "municipality": "Гагаринское", "Широта": null, "Долгота": null }, "geometry": { "type": "Point", "coordinates": [ 30.34567209, 59.87176809 ] } },
{ "type": "Feature", "properties": { "service_name": "Роснефть", "address": null, "administrative_unit": "Фрунзенский", "municipality": "№ 75", "Широта": null, "Долгота": null }, "geometry": { "type": "Point", "coordinates": [ 30.42231686, 59.84437287 ] } },
{ "type": "Feature", "properties": { "service_name": "Neste", "address": null, "administrative_unit": "Приморский", "municipality": "Озеро Долгое", "Широта": null, "Долгота": null }, "geometry": { "type": "Point", "coordinates": [ 30.27647273, 60.01127554 ] } },
{ "type": "Feature", "properties": { "service_name": "Газонаполнительный пункт", "address": null, "administrative_unit": "Пушкинский", "municipality": "Пушкин", "Широта": null, "Долгота": null }, "geometry": { "type": "Point", "coordinates": [ 30.4330698, 59.72145828 ] } },
{ "type": "Feature", "properties": { "service_name": "Киришиавтосервис", "address": null, "administrative_unit": "Пушкинский", "municipality": "Шушары", "Широта": null, "Долгота": null }, "geometry": { "type": "Point", "coordinates": [ 30.46266608, 59.76588586 ] } },
{ "type": "Feature", "properties": { "service_name": "Газпром", "address": null, "administrative_unit": "Пушкинский", "municipality": "Пушкин", "Широта": null, "Долгота": null }, "geometry": { "type": "Point", "coordinates": [ 30.39001285, 59.6983057 ] } },
{ "type": "Feature", "properties": { "service_name": "Киришиавтосервис", "address": null, "administrative_unit": "Кировский", "municipality": "Нарвский округ", "Широта": null, "Долгота": null }, "geometry": { "type": "Point", "coordinates": [ 30.2885312, 59.8994684 ] } },
{ "type": "Feature", "properties": { "service_name": "Лукойл", "address": null, "administrative_unit": "Курортный", "municipality": "Сестрорецк", "Широта": null, "Долгота": null }, "geometry": { "type": "Point", "coordinates": [ 29.95636156, 60.08347749 ] } },
{ "type": "Feature", "properties": { "service_name": "Лукойл", "address": null, "administrative_unit": "Московский", "municipality": "Звездное", "Широта": null, "Долгота": null }, "geometry": { "type": "Point", "coordinates": [ 30.36732456, 59.81764218 ] } },
{ "type": "Feature", "properties": { "service_name": "Nord point", "address": null, "administrative_unit": "Пушкинский", "municipality": "Шушары", "Широта": null, "Долгота": null }, "geometry": { "type": "Point", "coordinates": [ 30.44895224, 59.77350677 ] } },
{ "type": "Feature", "properties": { "service_name": "ПТК", "address": null, "administrative_unit": "Пушкинский", "municipality": "Пушкин", "Широта": null, "Долгота": null }, "geometry": { "type": "Point", "coordinates": [ 30.42390511, 59.73099154 ] } },
{ "type": "Feature", "properties": { "service_name": "Neste", "address": null, "administrative_unit": "Невский", "municipality": "№ 54", "Широта": null, "Долгота": null }, "geometry": { "type": "Point", "coordinates": [ 30.49242145, 59.89276186 ] } },
{ "type": "Feature", "properties": { "service_name": "Газпромнефть", "address": null, "administrative_unit": "Московский", "municipality": "Гагаринское", "Широта": null, "Долгота": null }, "geometry": { "type": "Point", "coordinates": [ 30.36987659, 59.8325598 ] } },
{ "type": "Feature", "properties": { "service_name": "Лукойл", "address": null, "administrative_unit": "Выборгский", "municipality": "Парголово", "Широта": null, "Долгота": null }, "geometry": { "type": "Point", "coordinates": [ 30.34392291, 60.06640795 ] } },
{ "type": "Feature", "properties": { "service_name": "Газпромнефть", "address": null, "administrative_unit": "Пушкинский", "municipality": "Шушары", "Широта": null, "Долгота": null }, "geometry": { "type": "Point", "coordinates": [ 30.39447195, 59.7877623 ] } },
{ "type": "Feature", "properties": { "service_name": "Лукойл", "address": null, "administrative_unit": "Калининский", "municipality": "Пискаревка", "Широта": null, "Долгота": null }, "geometry": { "type": "Point", "coordinates": [ 30.42896319, 59.98851417 ] } },
{ "type": "Feature", "properties": { "service_name": "Neste", "address": null, "administrative_unit": "Курортный", "municipality": "Сестрорецк", "Широта": null, "Долгота": null }, "geometry": { "type": "Point", "coordinates": [ 29.97642411, 60.1215267 ] } },
{ "type": "Feature", "properties": { "service_name": "Nord Point", "address": null, "administrative_unit": "Приморский", "municipality": "№ 65", "Широта": null, "Долгота": null }, "geometry": { "type": "Point", "coordinates": [ 30.23488884, 60.00435941 ] } },
{ "type": "Feature", "properties": { "service_name": "Аэро", "address": null, "administrative_unit": "Кировский", "municipality": "Автово", "Широта": null, "Долгота": null }, "geometry": { "type": "Point", "coordinates": [ 30.27965548, 59.87972639 ] } },
{ "type": "Feature", "properties": { "service_name": "Газпромнефть", "address": null, "administrative_unit": "Фрунзенский", "municipality": "Балканский", "Широта": null, "Долгота": null }, "geometry": { "type": "Point", "coordinates": [ 30.41843609, 59.82719099 ] } },
{ "type": "Feature", "properties": { "service_name": "Киришиавтосервис", "address": null, "administrative_unit": "Калининский", "municipality": "№ 21", "Широта": null, "Долгота": null }, "geometry": { "type": "Point", "coordinates": [ 30.43159467, 60.02653446 ] } },
{ "type": "Feature", "properties": { "service_name": "Лукойл", "address": null, "administrative_unit": "Петродворцовый", "municipality": "Петергоф", "Широта": null, "Долгота": null }, "geometry": { "type": "Point", "coordinates": [ 29.85821505, 59.87701165 ] } },
{ "type": "Feature", "properties": { "service_name": "Роснефть", "address": null, "administrative_unit": "Пушкинский", "municipality": "Шушары", "Широта": null, "Долгота": null }, "geometry": { "type": "Point", "coordinates": [ 30.3944385, 59.8120133 ] } },
{ "type": "Feature", "properties": { "service_name": "Газпромнефть", "address": null, "administrative_unit": "Невский", "municipality": "№ 54", "Широта": null, "Долгота": null }, "geometry": { "type": "Point", "coordinates": [ 30.4456088, 59.897955 ] } },
{ "type": "Feature", "properties": { "service_name": "Газпромнефть", "address": null, "administrative_unit": "Московский", "municipality": "Новоизмайловское", "Широта": null, "Долгота": null }, "geometry": { "type": "Point", "coordinates": [ 30.29829811, 59.840112 ] } },
{ "type": "Feature", "properties": { "service_name": "Лукойл", "address": null, "administrative_unit": "Красносельский", "municipality": "Красное Село", "Широта": null, "Долгота": null }, "geometry": { "type": "Point", "coordinates": [ 30.06449017, 59.71972532 ] } },
{ "type": "Feature", "properties": { "service_name": "ПТК ", "address": null, "administrative_unit": "Петродворцовый", "municipality": "Ломоносов", "Широта": null, "Долгота": null }, "geometry": { "type": "Point", "coordinates": [ 29.81866547, 59.90227691 ] } },
{ "type": "Feature", "properties": { "service_name": "Киришиавтосервис", "address": null, "administrative_unit": "Невский", "municipality": "Народный", "Широта": null, "Долгота": null }, "geometry": { "type": "Point", "coordinates": [ 30.47539054, 59.88998679 ] } },
{ "type": "Feature", "properties": { "service_name": "Роснефть", "address": null, "administrative_unit": "Фрунзенский", "municipality": "№ 75", "Широта": null, "Долгота": null }, "geometry": { "type": "Point", "coordinates": [ 30.42490617, 59.85240753 ] } },
{ "type": "Feature", "properties": { "service_name": "Лукойл", "address": null, "administrative_unit": "Выборгский", "municipality": "Сосновское", "Широта": null, "Долгота": null }, "geometry": { "type": "Point", "coordinates": [ 30.34192337, 60.03082913 ] } },
{ "type": "Feature", "properties": { "service_name": "Роснефть", "address": null, "administrative_unit": "Московский", "municipality": "Звездное", "Широта": null, "Долгота": null }, "geometry": { "type": "Point", "coordinates": [ 30.36623677, 59.8181048 ] } },
{ "type": "Feature", "properties": { "service_name": "Neste Express", "address": null, "administrative_unit": "Калининский", "municipality": "Пискаревка", "Широта": null, "Долгота": null }, "geometry": { "type": "Point", "coordinates": [ 30.43280915, 60.01474175 ] } },
{ "type": "Feature", "properties": { "service_name": "Автогаз", "address": "Пискарёвский просп., 4Ц", "administrative_unit": "Калининский район", "municipality": "Пискарёвка", "Широта": 59.960715, "Долгота": 30.40658 }, "geometry": { "type": "Point", "coordinates": [ 30.40658, 59.960715 ] } },
{ "type": "Feature", "properties": { "service_name": "Пропан24", "address": "Полюстровский проспект д.59 ", "administrative_unit": "Калининский район", "municipality": "Финляндский", "Широта": 59.97367, "Долгота": 30.379047 }, "geometry": { "type": "Point", "coordinates": [ 30.379047, 59.97367 ] } },
{ "type": "Feature", "properties": { "service_name": "Роснефть", "address": "Советский проспект, 40", "administrative_unit": "Невский район", "municipality": "Рыбацкое", "Широта": 59.828107, "Долгота": 30.547904 }, "geometry": { "type": "Point", "coordinates": [ 30.547904, 59.828107 ] } },
{ "type": "Feature", "properties": { "service_name": "Северо-западная топливная компания", "address": "​Проспект Народного Ополчения, 20", "administrative_unit": "Кировский район", "municipality": "Ульянка", "Широта": 59.825525, "Долгота": 30.191379 }, "geometry": { "type": "Point", "coordinates": [ 30.191379, 59.825525 ] } },
{ "type": "Feature", "properties": { "service_name": "Global Gas", "address": "улица Уральская, 2в", "administrative_unit": "Василеостровский район", "municipality": "Остров Декабристов", "Широта": 59.952272, "Долгота": 30.262376 }, "geometry": { "type": "Point", "coordinates": [ 30.262376, 59.952272 ] } },
{ "type": "Feature", "properties": { "service_name": "Global Gas", "address": "улица Софийская, 100", "administrative_unit": "Колпинский район", "municipality": "Петро-Славянка пос.", "Широта": 59.813762, "Долгота": 30.459137 }, "geometry": { "type": "Point", "coordinates": [ 30.459137, 59.813762 ] } },
{ "type": "Feature", "properties": { "service_name": "Neste", "address": "Малоохтинский проспект, 59а", "administrative_unit": "Красногвардейский район", "municipality": "Малая Охта", "Широта": 59.930641, "Долгота": 30.400149 }, "geometry": { "type": "Point", "coordinates": [ 30.400149, 59.930641 ] } },
{ "type": "Feature", "properties": { "service_name": "Neste", "address": "Российский проспект, 2", "administrative_unit": "Невский район", "municipality": "Правобережный", "Широта": 59.920645, "Долгота": 30.469663 }, "geometry": { "type": "Point", "coordinates": [ 30.469663, 59.920645 ] } },
{ "type": "Feature", "properties": { "service_name": "Neste", "address": "улица Школьная, 77", "administrative_unit": "Приморский район", "municipality": "Муниципальный округ №65", "Широта": 59.992871, "Долгота": 30.207881 }, "geometry": { "type": "Point", "coordinates": [ 30.207881, 59.992871 ] } },
{ "type": "Feature", "properties": { "service_name": "Neste", "address": "улица Софийская, 18 лит А", "administrative_unit": "Фрунзенский район", "municipality": "Волковское", "Широта": 59.878956, "Долгота": 30.397749 }, "geometry": { "type": "Point", "coordinates": [ 30.397749, 59.878956 ] } },
{ "type": "Feature", "properties": { "service_name": "Neste", "address": "Московское шоссе, 18", "administrative_unit": "Пушкинский район", "municipality": "Шушары пос.", "Широта": 59.799009, "Долгота": 30.401954 }, "geometry": { "type": "Point", "coordinates": [ 30.401954, 59.799009 ] } },
{ "type": "Feature", "properties": { "service_name": "Neste", "address": "проспект Косыгина, 20", "administrative_unit": "Красногвардейский район", "municipality": "Пороховые", "Широта": 59.945537, "Долгота": 30.480042 }, "geometry": { "type": "Point", "coordinates": [ 30.480042, 59.945537 ] } },
{ "type": "Feature", "properties": { "service_name": "Neste", "address": "Малый проспект В.О., 68 к1", "administrative_unit": "Василеостровский район", "municipality": "Гавань", "Широта": 59.938745, "Долгота": 30.246373 }, "geometry": { "type": "Point", "coordinates": [ 30.246373, 59.938745 ] } },
{ "type": "Feature", "properties": { "service_name": "Neste", "address": "Средний проспект В.О., 91 к2", "administrative_unit": "Василеостровский район", "municipality": "Гавань", "Широта": 59.935214, "Долгота": 30.250203 }, "geometry": { "type": "Point", "coordinates": [ 30.250203, 59.935214 ] } },
{ "type": "Feature", "properties": { "service_name": "Neste", "address": "Витебский проспект, 139", "administrative_unit": "Пушкинский район", "municipality": "Шушары пос.", "Широта": 59.799653, "Долгота": 30.38949 }, "geometry": { "type": "Point", "coordinates": [ 30.38949, 59.799653 ] } },
{ "type": "Feature", "properties": { "service_name": "Neste", "address": "Пулковское шоссе, 109", "administrative_unit": "Московский район", "municipality": "Пулковский меридиан", "Широта": 59.749208, "Долгота": 30.313147 }, "geometry": { "type": "Point", "coordinates": [ 30.313147, 59.749208 ] } },
{ "type": "Feature", "properties": { "service_name": "Neste", "address": "Выборгское шоссе, 216 к3", "administrative_unit": "Выборгский район", "municipality": "Парголово пос.", "Широта": 60.075883, "Долгота": 30.272442 }, "geometry": { "type": "Point", "coordinates": [ 30.272442, 60.075883 ] } },
{ "type": "Feature", "properties": { "service_name": "Nord point", "address": "улица Коллонтай, 8", "administrative_unit": "Невский район", "municipality": "Правобережный", "Широта": 59.915954, "Долгота": 30.451791 }, "geometry": { "type": "Point", "coordinates": [ 30.451791, 59.915954 ] } },
{ "type": "Feature", "properties": { "service_name": "Nord point", "address": "улица Софийская, 17 к2", "administrative_unit": "Фрунзенский район", "municipality": "Волковское", "Широта": 59.882544, "Долгота": 30.389156 }, "geometry": { "type": "Point", "coordinates": [ 30.389156, 59.882544 ] } },
{ "type": "Feature", "properties": { "service_name": "Nord point", "address": "улица Софийская, 77", "administrative_unit": "Фрунзенский район", "municipality": "Александровский", "Широта": 59.85058, "Долгота": 30.425944 }, "geometry": { "type": "Point", "coordinates": [ 30.425944, 59.85058 ] } },
{ "type": "Feature", "properties": { "service_name": "Nord point", "address": "Приморское шоссе, 251", "administrative_unit": "Курортный район", "municipality": "Сестрорецк г.", "Широта": 60.071364, "Долгота": 29.969497 }, "geometry": { "type": "Point", "coordinates": [ 29.969497, 60.071364 ] } },
{ "type": "Feature", "properties": { "service_name": "Panex", "address": "8-й Верхний переулок", "administrative_unit": "Выборгский район", "municipality": "Сергиевское", "Широта": 60.081676, "Долгота": 30.359722 }, "geometry": { "type": "Point", "coordinates": [ 30.359722, 60.081676 ] } },
{ "type": "Feature", "properties": { "service_name": "Shishkoil", "address": "улица Дорога в Каменку, 70Б", "administrative_unit": "Приморский район", "municipality": "Коломяги", "Широта": 60.064235, "Долгота": 30.278161 }, "geometry": { "type": "Point", "coordinates": [ 30.278161, 60.064235 ] } },
{ "type": "Feature", "properties": { "service_name": "Sigma gas", "address": "Ириновский просп., 22, корп. 2", "administrative_unit": "Красногвардейский район", "municipality": "Ржевка", "Широта": 59.958224, "Долгота": 30.473904 }, "geometry": { "type": "Point", "coordinates": [ 30.473904, 59.958224 ] } },
{ "type": "Feature", "properties": { "service_name": "Teboil", "address": "проспект Маршала Блюхера, 39", "administrative_unit": "Калининский район", "municipality": "Финляндский", "Широта": 59.975631, "Долгота": 30.4068 }, "geometry": { "type": "Point", "coordinates": [ 30.4068, 59.975631 ] } },
{ "type": "Feature", "properties": { "service_name": "Teboil", "address": "Индустриальный проспект, 47 к1", "administrative_unit": "Красногвардейский район", "municipality": "Ржевка", "Широта": 59.959783, "Долгота": 30.464318 }, "geometry": { "type": "Point", "coordinates": [ 30.464318, 59.959783 ] } },
{ "type": "Feature", "properties": { "service_name": "Teboil", "address": "улица Савушкина, 106", "administrative_unit": "Приморский район", "municipality": "Муниципальный округ №65", "Широта": 59.984242, "Долгота": 30.244433 }, "geometry": { "type": "Point", "coordinates": [ 30.244433, 59.984242 ] } },
{ "type": "Feature", "properties": { "service_name": "Teboil", "address": "проспект Культуры, 19а", "administrative_unit": "Калининский район", "municipality": "Северный", "Широта": 60.042995, "Долгота": 30.372987 }, "geometry": { "type": "Point", "coordinates": [ 30.372987, 60.042995 ] } },
{ "type": "Feature", "properties": { "service_name": "Teboil", "address": "улица Парашютная, 73 к1", "administrative_unit": "Приморский район", "municipality": "Коломяги", "Широта": 60.03948, "Долгота": 30.243952 }, "geometry": { "type": "Point", "coordinates": [ 30.243952, 60.03948 ] } },
{ "type": "Feature", "properties": { "service_name": "Teboil", "address": "Седова, 11а лит А", "administrative_unit": "Невский район", "municipality": "Невская застава", "Широта": 59.90014, "Долгота": 30.401955 }, "geometry": { "type": "Point", "coordinates": [ 30.401955, 59.90014 ] } },
{ "type": "Feature", "properties": { "service_name": "Teboil", "address": "улица Новороссийская, 15", "administrative_unit": "Выборгский район", "municipality": "Светлановское", "Широта": 59.994024, "Долгота": 30.354687 }, "geometry": { "type": "Point", "coordinates": [ 30.354687, 59.994024 ] } },
{ "type": "Feature", "properties": { "service_name": "Teboil", "address": "Боровая, 43 лит А", "administrative_unit": "Фрунзенский район", "municipality": "Волковское", "Широта": 59.91553, "Долгота": 30.344046 }, "geometry": { "type": "Point", "coordinates": [ 30.344046, 59.91553 ] } },
{ "type": "Feature", "properties": { "service_name": "Teboil", "address": "Ленинский проспект, 102", "administrative_unit": "Кировский район", "municipality": "Красненькая речка", "Широта": 59.852576, "Долгота": 30.224069 }, "geometry": { "type": "Point", "coordinates": [ 30.224069, 59.852576 ] } },
{ "type": "Feature", "properties": { "service_name": "Teboil", "address": "проспект Юрия Гагарина, 2 к2", "administrative_unit": "Московский район", "municipality": "Гагаринское", "Широта": 59.873231, "Долгота": 30.336888 }, "geometry": { "type": "Point", "coordinates": [ 30.336888, 59.873231 ] } },
{ "type": "Feature", "properties": { "service_name": "Teboil", "address": "Глиняная, 23/1", "administrative_unit": "Невский район", "municipality": "Невская застава", "Широта": 59.912738, "Долгота": 30.375656 }, "geometry": { "type": "Point", "coordinates": [ 30.375656, 59.912738 ] } },
{ "type": "Feature", "properties": { "service_name": "Teboil", "address": "Выборгское шоссе, 369г лит А", "administrative_unit": "Выборгский район", "municipality": "Парголово пос.", "Широта": 60.074285, "Долгота": 30.280998 }, "geometry": { "type": "Point", "coordinates": [ 30.280998, 60.074285 ] } },
{ "type": "Feature", "properties": { "service_name": "Teboil", "address": "Витебский проспект, 157", "administrative_unit": "Пушкинский район", "municipality": "Шушары пос.", "Широта": 59.792201, "Долгота": 30.391499 }, "geometry": { "type": "Point", "coordinates": [ 30.391499, 59.792201 ] } },
{ "type": "Feature", "properties": { "service_name": "Teboil", "address": "улица Софийская, 112", "administrative_unit": "Колпинский район", "municipality": "Петро-Славянка пос.", "Широта": 59.812146, "Долгота": 30.461925 }, "geometry": { "type": "Point", "coordinates": [ 30.461925, 59.812146 ] } },
{ "type": "Feature", "properties": { "service_name": "Teboil", "address": "КАД (внешнее кольцо) 75 километр, 1", "administrative_unit": "Московский район", "municipality": "Звездное", "Широта": 59.813488, "Долгота": 30.349838 }, "geometry": { "type": "Point", "coordinates": [ 30.349838, 59.813488 ] } },
{ "type": "Feature", "properties": { "service_name": "Teboil", "address": "Октябрьская набережная, 66 к2", "administrative_unit": "Невский район", "municipality": "Народный", "Широта": 59.879196, "Долгота": 30.457671 }, "geometry": { "type": "Point", "coordinates": [ 30.457671, 59.879196 ] } },
{ "type": "Feature", "properties": { "service_name": "Teboil", "address": "Пискарёвский проспект, 146/5", "administrative_unit": "Красногвардейский район", "municipality": "Полюстрово", "Широта": 60.008321, "Долгота": 30.449166 }, "geometry": { "type": "Point", "coordinates": [ 30.449166, 60.008321 ] } },
{ "type": "Feature", "properties": { "service_name": "Teboil", "address": "Пулковское шоссе, 46/3", "administrative_unit": "Пушкинский район", "municipality": "Шушары пос.", "Широта": 59.804633, "Долгота": 30.32491 }, "geometry": { "type": "Point", "coordinates": [ 30.32491, 59.804633 ] } },
{ "type": "Feature", "properties": { "service_name": "Teboil", "address": "Комендантский проспект, 41а", "administrative_unit": "Приморский район", "municipality": "Юнтолово", "Широта": 60.026197, "Долгота": 30.239022 }, "geometry": { "type": "Point", "coordinates": [ 30.239022, 60.026197 ] } },
{ "type": "Feature", "properties": { "service_name": "Teboil", "address": "проспект Народного Ополчения, 147 лит А", "administrative_unit": "Кировский район", "municipality": "Ульянка", "Широта": 59.832168, "Долгота": 30.250569 }, "geometry": { "type": "Point", "coordinates": [ 30.250569, 59.832168 ] } },
{ "type": "Feature", "properties": { "service_name": "Teboil", "address": "улица Хошимина, 2", "administrative_unit": "Выборгский район", "municipality": "Шувалово-Озерки", "Широта": 60.051673, "Долгота": 30.312187 }, "geometry": { "type": "Point", "coordinates": [ 30.312187, 60.051673 ] } },
{ "type": "Feature", "properties": { "service_name": "Teboil", "address": "Московское шоссе, 295 лит Б", "administrative_unit": "Пушкинский район", "municipality": "Шушары пос.", "Широта": 59.756152, "Долгота": 30.484581 }, "geometry": { "type": "Point", "coordinates": [ 30.484581, 59.756152 ] } },
{ "type": "Feature", "properties": { "service_name": "Teboil", "address": "Приморское шоссе, 144 лит А", "administrative_unit": "Приморский район", "municipality": "Лисий Нос пос.", "Широта": 60.03399, "Долгота": 29.981308 }, "geometry": { "type": "Point", "coordinates": [ 29.981308, 60.03399 ] } },
{ "type": "Feature", "properties": { "service_name": "Teboil", "address": "проспект Маршала Блюхера, 2 к1", "administrative_unit": "Калининский район", "municipality": "Пискарёвка", "Широта": 59.986972, "Долгота": 30.35913 }, "geometry": { "type": "Point", "coordinates": [ 30.35913, 59.986972 ] } },
{ "type": "Feature", "properties": { "service_name": "Vervex", "address": "Выборгская набережная, 57Б", "administrative_unit": "Выборгский район", "municipality": "Сампсониевское", "Широта": 59.978128, "Долгота": 30.327183 }, "geometry": { "type": "Point", "coordinates": [ 30.327183, 59.978128 ] } },
{ "type": "Feature", "properties": { "service_name": "Vervex", "address": "Полюстровский проспект, 64д", "administrative_unit": "Выборгский район", "municipality": "Сампсониевское", "Широта": 59.979997, "Долгота": 30.365788 }, "geometry": { "type": "Point", "coordinates": [ 30.365788, 59.979997 ] } },
{ "type": "Feature", "properties": { "service_name": "Vervex", "address": "Коломяжский проспект, 19д", "administrative_unit": "Приморский район", "municipality": "Комендантский аэродром", "Широта": 60.007031, "Долгота": 30.297898 }, "geometry": { "type": "Point", "coordinates": [ 30.297898, 60.007031 ] } },
{ "type": "Feature", "properties": { "service_name": "Vervex", "address": "Студенческая, 15а", "administrative_unit": "Выборгский район", "municipality": "Сампсониевское", "Широта": 59.993543, "Долгота": 30.32704 }, "geometry": { "type": "Point", "coordinates": [ 30.32704, 59.993543 ] } },
{ "type": "Feature", "properties": { "service_name": "Vervex", "address": "Дальневосточный проспект, 20/1", "administrative_unit": "Невский район", "municipality": "Невский", "Широта": 59.9068, "Долгота": 30.452131 }, "geometry": { "type": "Point", "coordinates": [ 30.452131, 59.9068 ] } },
{ "type": "Feature", "properties": { "service_name": "Vervex", "address": "улица Коллонтай, 8Б", "administrative_unit": "Невский район", "municipality": "Правобережный", "Широта": 59.916216, "Долгота": 30.452219 }, "geometry": { "type": "Point", "coordinates": [ 30.452219, 59.916216 ] } },
{ "type": "Feature", "properties": { "service_name": "Vervex", "address": "Витебский проспект, 9 к2 лит А", "administrative_unit": "Московский район", "municipality": "Гагаринское", "Широта": 59.875044, "Долгота": 30.350956 }, "geometry": { "type": "Point", "coordinates": [ 30.350956, 59.875044 ] } },
{ "type": "Feature", "properties": { "service_name": "Vervex", "address": "Ириновский проспект, 16 лит А", "administrative_unit": "Красногвардейский район", "municipality": "Пороховые", "Широта": 59.956069, "Долгота": 30.465885 }, "geometry": { "type": "Point", "coordinates": [ 30.465885, 59.956069 ] } },
{ "type": "Feature", "properties": { "service_name": "Vervex", "address": "Малый проспект В.О., 79а", "administrative_unit": "Василеостровский район", "municipality": "Гавань", "Широта": 59.93848, "Долгота": 30.231921 }, "geometry": { "type": "Point", "coordinates": [ 30.231921, 59.93848 ] } },
{ "type": "Feature", "properties": { "service_name": "Vervex", "address": "улица Салова, 82Б", "administrative_unit": "Фрунзенский район", "municipality": "Волковское", "Широта": 59.879424, "Долгота": 30.357794 }, "geometry": { "type": "Point", "coordinates": [ 30.357794, 59.879424 ] } },
{ "type": "Feature", "properties": { "service_name": "Vervex", "address": "улица Софийская, 77", "administrative_unit": "Фрунзенский район", "municipality": "Александровский", "Широта": 59.850602, "Долгота": 30.426122 }, "geometry": { "type": "Point", "coordinates": [ 30.426122, 59.850602 ] } },
{ "type": "Feature", "properties": { "service_name": "Vervex", "address": "улица Софийская, 17 к2а", "administrative_unit": "Фрунзенский район", "municipality": "Волковское", "Широта": 59.882858, "Долгота": 30.388804 }, "geometry": { "type": "Point", "coordinates": [ 30.388804, 59.882858 ] } },
{ "type": "Feature", "properties": { "service_name": "Vervex", "address": "Ленинский проспект, 61а", "administrative_unit": "Красносельский район", "municipality": "Южно-Приморский", "Широта": 59.860604, "Долгота": 30.178117 }, "geometry": { "type": "Point", "coordinates": [ 30.178117, 59.860604 ] } },
{ "type": "Feature", "properties": { "service_name": "Vervex", "address": "улица Софийская, 89а", "administrative_unit": "Фрунзенский район", "municipality": "Александровский", "Широта": 59.843699, "Долгота": 30.431874 }, "geometry": { "type": "Point", "coordinates": [ 30.431874, 59.843699 ] } },
{ "type": "Feature", "properties": { "service_name": "Vervex", "address": "Демьяна Бедного, 15г", "administrative_unit": "Калининский район", "municipality": "Прометей", "Широта": 60.042493, "Долгота": 30.388072 }, "geometry": { "type": "Point", "coordinates": [ 30.388072, 60.042493 ] } },
{ "type": "Feature", "properties": { "service_name": "Vervex", "address": "улица Оптиков, 1е", "administrative_unit": "Приморский район", "municipality": "Муниципальный округ №65", "Широта": 59.996463, "Долгота": 30.250819 }, "geometry": { "type": "Point", "coordinates": [ 30.250819, 59.996463 ] } },
{ "type": "Feature", "properties": { "service_name": "Автогаз", "address": "Нижняя Полевая, 44а", "administrative_unit": "Приморский район", "municipality": "Коломяги", "Широта": 60.017, "Долгота": 30.284016 }, "geometry": { "type": "Point", "coordinates": [ 30.284016, 60.017 ] } },
{ "type": "Feature", "properties": { "service_name": "Автогаз", "address": "Рощинская, 20и", "administrative_unit": "Московский район", "municipality": "Московская застава", "Широта": 59.883043, "Долгота": 30.328725 }, "geometry": { "type": "Point", "coordinates": [ 30.328725, 59.883043 ] } },
{ "type": "Feature", "properties": { "service_name": "Лигово", "address": "Станционный посёлок, 11 лит А", "administrative_unit": "Красносельский район", "municipality": "Константиновское", "Широта": 59.823048, "Долгота": 30.156237 }, "geometry": { "type": "Point", "coordinates": [ 30.156237, 59.823048 ] } },
{ "type": "Feature", "properties": { "service_name": "БензоРобот", "address": "Пироговская набережная, 17а", "administrative_unit": "Выборгский район", "municipality": "Сампсониевское", "Широта": 59.964458, "Долгота": 30.338388 }, "geometry": { "type": "Point", "coordinates": [ 30.338388, 59.964458 ] } },
{ "type": "Feature", "properties": { "service_name": "Бензоточка", "address": "Полюстровский проспект, 62", "administrative_unit": "Выборгский район", "municipality": "Сампсониевское", "Широта": 59.979408, "Долгота": 30.365587 }, "geometry": { "type": "Point", "coordinates": [ 30.365587, 59.979408 ] } },
{ "type": "Feature", "properties": { "service_name": "Газпром газомоторное топливо", "address": "Пулковское шоссе, 42в", "administrative_unit": "Московский район", "municipality": "Звездное", "Широта": 59.815614, "Долгота": 30.326063 }, "geometry": { "type": "Point", "coordinates": [ 30.326063, 59.815614 ] } },
{ "type": "Feature", "properties": { "service_name": "Газпром газомоторное топливо", "address": "улица Салова, 82 к3", "administrative_unit": "Фрунзенский район", "municipality": "Волковское", "Широта": 59.877974, "Долгота": 30.361323 }, "geometry": { "type": "Point", "coordinates": [ 30.361323, 59.877974 ] } },
{ "type": "Feature", "properties": { "service_name": "Газпром газомоторное топливо", "address": "улица Софийская, 102 к2", "administrative_unit": "Колпинский район", "municipality": "Петро-Славянка пос.", "Широта": 59.815059, "Долгота": 30.459076 }, "geometry": { "type": "Point", "coordinates": [ 30.459076, 59.815059 ] } },
{ "type": "Feature", "properties": { "service_name": "Газпромнефть", "address": "проспект Культуры, 3а", "administrative_unit": "Калининский район", "municipality": "Северный", "Широта": 60.035135, "Долгота": 30.36597 }, "geometry": { "type": "Point", "coordinates": [ 30.36597, 60.035135 ] } },
{ "type": "Feature", "properties": { "service_name": "Газпромнефть", "address": "Циолковского, 18", "administrative_unit": "Адмиралтейский район", "municipality": "Екатерингофский", "Широта": 59.909865, "Долгота": 30.289748 }, "geometry": { "type": "Point", "coordinates": [ 30.289748, 59.909865 ] } },
{ "type": "Feature", "properties": { "service_name": "Газпромнефть", "address": "Кушелевская дорога, 8", "administrative_unit": "Калининский район", "municipality": "Пискарёвка", "Широта": 59.988588, "Долгота": 30.367964 }, "geometry": { "type": "Point", "coordinates": [ 30.367964, 59.988588 ] } },
{ "type": "Feature", "properties": { "service_name": "Газпромнефть", "address": "проспект Королёва, 51", "administrative_unit": "Приморский район", "municipality": "Юнтолово", "Широта": 60.02535, "Долгота": 30.250626 }, "geometry": { "type": "Point", "coordinates": [ 30.250626, 60.02535 ] } },
{ "type": "Feature", "properties": { "service_name": "Газпромнефть", "address": "улица Потапова, 7", "administrative_unit": "Красногвардейский район", "municipality": "Ржевка", "Широта": 59.961556, "Долгота": 30.470867 }, "geometry": { "type": "Point", "coordinates": [ 30.470867, 59.961556 ] } },
{ "type": "Feature", "properties": { "service_name": "Газпромнефть", "address": "Пискарёвский проспект, 4", "administrative_unit": "Калининский район", "municipality": "Финляндский", "Широта": 59.960582, "Долгота": 30.406424 }, "geometry": { "type": "Point", "coordinates": [ 30.406424, 59.960582 ] } },
{ "type": "Feature", "properties": { "service_name": "Газпромнефть", "address": "Кржижановского, 10 к3", "administrative_unit": "Невский район", "municipality": "Правобережный", "Широта": 59.931748, "Долгота": 30.476985 }, "geometry": { "type": "Point", "coordinates": [ 30.476985, 59.931748 ] } },
{ "type": "Feature", "properties": { "service_name": "Газпромнефть", "address": "Стасовой, 10", "administrative_unit": "Красногвардейский район", "municipality": "Полюстрово", "Широта": 59.968955, "Долгота": 30.438293 }, "geometry": { "type": "Point", "coordinates": [ 30.438293, 59.968955 ] } },
{ "type": "Feature", "properties": { "service_name": "Газпромнефть", "address": "Земледельческая, 5а лит Б", "administrative_unit": "Приморский район", "municipality": "Ланское", "Широта": 59.989861, "Долгота": 30.325762 }, "geometry": { "type": "Point", "coordinates": [ 30.325762, 59.989861 ] } },
{ "type": "Feature", "properties": { "service_name": "Газпромнефть", "address": "улица Руставели, 45", "administrative_unit": "Калининский район", "municipality": "Пискарёвка", "Широта": 60.0197, "Долгота": 30.43364 }, "geometry": { "type": "Point", "coordinates": [ 30.43364, 60.0197 ] } },
{ "type": "Feature", "properties": { "service_name": "Газпромнефть", "address": "Зотовский проспект, 9", "administrative_unit": "Красногвардейский район", "municipality": "Ржевка", "Широта": 59.983311, "Долгота": 30.4564 }, "geometry": { "type": "Point", "coordinates": [ 30.4564, 59.983311 ] } },
{ "type": "Feature", "properties": { "service_name": "Газпромнефть", "address": "улица Школьная, 100", "administrative_unit": "Приморский район", "municipality": "Муниципальный округ №65", "Широта": 59.990815, "Долгота": 30.221422 }, "geometry": { "type": "Point", "coordinates": [ 30.221422, 59.990815 ] } },
{ "type": "Feature", "properties": { "service_name": "Газпромнефть", "address": "Академика Константинова, 1 к2", "administrative_unit": "Калининский район", "municipality": "Академическое", "Широта": 60.017086, "Долгота": 30.379609 }, "geometry": { "type": "Point", "coordinates": [ 30.379609, 60.017086 ] } },
{ "type": "Feature", "properties": { "service_name": "Газпромнефть", "address": "Индустриальный проспект, 68", "administrative_unit": "Красногвардейский район", "municipality": "Ржевка", "Широта": 59.969657, "Долгота": 30.455939 }, "geometry": { "type": "Point", "coordinates": [ 30.455939, 59.969657 ] } },
{ "type": "Feature", "properties": { "service_name": "Газпромнефть", "address": "улица Полевая Сабировская, 56", "administrative_unit": "Приморский район", "municipality": "Озеро Долгое", "Широта": 59.997817, "Долгота": 30.269111 }, "geometry": { "type": "Point", "coordinates": [ 30.269111, 59.997817 ] } },
{ "type": "Feature", "properties": { "service_name": "Газпромнефть", "address": "Коломяжский проспект, 31", "administrative_unit": "Приморский район", "municipality": "Комендантский аэродром", "Широта": 60.014253, "Долгота": 30.294981 }, "geometry": { "type": "Point", "coordinates": [ 30.294981, 60.014253 ] } },
{ "type": "Feature", "properties": { "service_name": "Газпромнефть", "address": "проспект Энгельса, 173", "administrative_unit": "Выборгский район", "municipality": "Сергиевское", "Широта": 60.082791, "Долгота": 30.359986 }, "geometry": { "type": "Point", "coordinates": [ 30.359986, 60.082791 ] } },
{ "type": "Feature", "properties": { "service_name": "Газпромнефть", "address": "улица Маршала Говорова, 41", "administrative_unit": "Кировский район", "municipality": "Нарвский", "Широта": 59.896387, "Долгота": 30.288441 }, "geometry": { "type": "Point", "coordinates": [ 30.288441, 59.896387 ] } },
{ "type": "Feature", "properties": { "service_name": "Газпромнефть", "address": "проспект Энгельса, 190 к1", "administrative_unit": "Выборгский район", "municipality": "Парголово пос.", "Широта": 60.087216, "Долгота": 30.360823 }, "geometry": { "type": "Point", "coordinates": [ 30.360823, 60.087216 ] } },
{ "type": "Feature", "properties": { "service_name": "Газпромнефть", "address": "Витебский проспект, 90 лит А", "administrative_unit": "Московский район", "municipality": "Гагаринское", "Широта": 59.834517, "Долгота": 30.372937 }, "geometry": { "type": "Point", "coordinates": [ 30.372937, 59.834517 ] } },
{ "type": "Feature", "properties": { "service_name": "Газпромнефть", "address": "улица Кубинская, 82 к3 лит А", "administrative_unit": "Московский район", "municipality": "Новоизмайловское", "Широта": 59.837621, "Долгота": 30.303985 }, "geometry": { "type": "Point", "coordinates": [ 30.303985, 59.837621 ] } },
{ "type": "Feature", "properties": { "service_name": "Газпромнефть", "address": "Лахтинский проспект, 149", "administrative_unit": "Приморский район", "municipality": "Лахта-Ольгино", "Широта": 59.995245, "Долгота": 30.123899 }, "geometry": { "type": "Point", "coordinates": [ 30.123899, 59.995245 ] } },
{ "type": "Feature", "properties": { "service_name": "Газпромнефть", "address": "улица Софийская, 85", "administrative_unit": "Фрунзенский район", "municipality": "Александровский", "Широта": 59.845574, "Долгота": 30.430196 }, "geometry": { "type": "Point", "coordinates": [ 30.430196, 59.845574 ] } },
{ "type": "Feature", "properties": { "service_name": "Газпромнефть", "address": "Ленинградская, 89", "administrative_unit": "Выборгский район", "municipality": "Парголово пос.", "Широта": 60.116752, "Долгота": 30.1908 }, "geometry": { "type": "Point", "coordinates": [ 30.1908, 60.116752 ] } },
{ "type": "Feature", "properties": { "service_name": "Газпромнефть", "address": "проспект Ветеранов, 161", "administrative_unit": "Красносельский район", "municipality": "Сосновая Поляна", "Широта": 59.835904, "Долгота": 30.1256 }, "geometry": { "type": "Point", "coordinates": [ 30.1256, 59.835904 ] } },
{ "type": "Feature", "properties": { "service_name": "Газпромнефть", "address": "Пулковское шоссе, 68 лит А", "administrative_unit": "Пушкинский район", "municipality": "Шушары пос.", "Широта": 59.783705, "Долгота": 30.327304 }, "geometry": { "type": "Point", "coordinates": [ 30.327304, 59.783705 ] } },
{ "type": "Feature", "properties": { "service_name": "Газпромнефть", "address": "Московское шоссе, 295 лит А", "administrative_unit": "Пушкинский район", "municipality": "Ленсоветовский пос.", "Широта": 59.758284, "Долгота": 30.481478 }, "geometry": { "type": "Point", "coordinates": [ 30.481478, 59.758284 ] } },
{ "type": "Feature", "properties": { "service_name": "Газпромнефть", "address": "улица Камышовая, 21", "administrative_unit": "Приморский район", "municipality": "Озеро Долгое", "Широта": 60.007711, "Долгота": 30.24263 }, "geometry": { "type": "Point", "coordinates": [ 30.24263, 60.007711 ] } },
{ "type": "Feature", "properties": { "service_name": "Газпромнефть", "address": "переулок Матюшенко, 3", "administrative_unit": "Невский район", "municipality": "Ивановский", "Широта": 59.878474, "Долгота": 30.446194 }, "geometry": { "type": "Point", "coordinates": [ 30.446194, 59.878474 ] } },
{ "type": "Feature", "properties": { "service_name": "Газпромнефть", "address": "Московское шоссе, 296", "administrative_unit": "Пушкинский район", "municipality": "Ленсоветовский пос.", "Широта": 59.756949, "Долгота": 30.479529 }, "geometry": { "type": "Point", "coordinates": [ 30.479529, 59.756949 ] } },
{ "type": "Feature", "properties": { "service_name": "Газпромнефть", "address": "Выборгское шоссе, 503", "administrative_unit": "Выборгский район", "municipality": "Парголово пос.", "Широта": 60.105262, "Долгота": 30.248673 }, "geometry": { "type": "Point", "coordinates": [ 30.248673, 60.105262 ] } },
{ "type": "Feature", "properties": { "service_name": "Газпромнефть", "address": "Пулковское шоссе, 21 к2", "administrative_unit": "Московский район", "municipality": "Пулковский меридиан", "Широта": 59.823745, "Долгота": 30.319241 }, "geometry": { "type": "Point", "coordinates": [ 30.319241, 59.823745 ] } },
{ "type": "Feature", "properties": { "service_name": "Газпромнефть", "address": "улица Десантников, 21", "administrative_unit": "Красносельский район", "municipality": "Южно-Приморский", "Широта": 59.853218, "Долгота": 30.199153 }, "geometry": { "type": "Point", "coordinates": [ 30.199153, 59.853218 ] } },
{ "type": "Feature", "properties": { "service_name": "Газпромнефть", "address": "Таллинское шоссе, 151 к1", "administrative_unit": "Красносельский район", "municipality": "Горелово", "Широта": 59.810717, "Долгота": 30.168531 }, "geometry": { "type": "Point", "coordinates": [ 30.168531, 59.810717 ] } },
{ "type": "Feature", "properties": { "service_name": "Газпромнефть", "address": "Верхняя, 10", "administrative_unit": "Выборгский район", "municipality": "Муниципальный округ №15", "Широта": 60.057774, "Долгота": 30.364815 }, "geometry": { "type": "Point", "coordinates": [ 30.364815, 60.057774 ] } },
{ "type": "Feature", "properties": { "service_name": "Газпромнефть", "address": "улица Савушкина, 110 лит А", "administrative_unit": "Приморский район", "municipality": "Муниципальный округ №65", "Широта": 59.98479, "Долгота": 30.228604 }, "geometry": { "type": "Point", "coordinates": [ 30.228604, 59.98479 ] } },
{ "type": "Feature", "properties": { "service_name": "Газпромнефть", "address": "Санкт-Петербургское шоссе, 130 к1", "administrative_unit": "Петродворцовый район", "municipality": "Петергоф г.", "Широта": 59.85789, "Долгота": 30.003331 }, "geometry": { "type": "Point", "coordinates": [ 30.003331, 59.85789 ] } },
{ "type": "Feature", "properties": { "service_name": "Газпромнефть", "address": "проспект Обуховской Обороны, 303", "administrative_unit": "Невский район", "municipality": "Рыбацкое", "Широта": 59.842187, "Долгота": 30.483705 }, "geometry": { "type": "Point", "coordinates": [ 30.483705, 59.842187 ] } },
{ "type": "Feature", "properties": { "service_name": "Газпромнефть", "address": "Пулковское шоссе, 2/120", "administrative_unit": "Пушкинский район", "municipality": "Шушары пос.", "Широта": 59.749266, "Долгота": 30.315944 }, "geometry": { "type": "Point", "coordinates": [ 30.315944, 59.749266 ] } },
{ "type": "Feature", "properties": { "service_name": "ГазСм", "address": "Колхозная, 21в", "administrative_unit": null, "municipality": "Горелово", "Широта": 59.786206, "Долгота": 30.138178 }, "geometry": { "type": "Point", "coordinates": [ 30.138178, 59.786206 ] } },
{ "type": "Feature", "properties": { "service_name": "Газэкосеть", "address": "Пискарёвский проспект, 173Б", "administrative_unit": "Красногвардейский район", "municipality": "Полюстрово", "Широта": 60.012678, "Долгота": 30.456198 }, "geometry": { "type": "Point", "coordinates": [ 30.456198, 60.012678 ] } },
{ "type": "Feature", "properties": { "service_name": "Кириш Petroleum", "address": "Ручьёвская дорога, 100", "administrative_unit": "Красногвардейский район", "municipality": "Полюстрово", "Широта": 60.000367, "Долгота": 30.451185 }, "geometry": { "type": "Point", "coordinates": [ 30.451185, 60.000367 ] } },
{ "type": "Feature", "properties": { "service_name": "КиришиАвтомаркет", "address": "дорога На Металлострой, 4 к6 лит А", "administrative_unit": "Колпинский район", "municipality": "Металлострой пос.", "Широта": 59.803577, "Долгота": 30.568355 }, "geometry": { "type": "Point", "coordinates": [ 30.568355, 59.803577 ] } },
{ "type": "Feature", "properties": { "service_name": "Киришиавтосервис", "address": "Пискарёвский проспект, 135", "administrative_unit": "Красногвардейский район", "municipality": "Полюстрово", "Широта": 60.001571, "Долгота": 30.446593 }, "geometry": { "type": "Point", "coordinates": [ 30.446593, 60.001571 ] } },
{ "type": "Feature", "properties": { "service_name": "Киришиавтосервис", "address": "Лапинский проспект, 10", "administrative_unit": "Красногвардейский район", "municipality": "Ржевка", "Широта": 59.980369, "Долгота": 30.459875 }, "geometry": { "type": "Point", "coordinates": [ 30.459875, 59.980369 ] } },
{ "type": "Feature", "properties": { "service_name": "Киришиавтосервис", "address": "Торфяная дорога, 10 лит А", "administrative_unit": "Приморский район", "municipality": "Муниципальный округ №65", "Широта": 59.992231, "Долгота": 30.254493 }, "geometry": { "type": "Point", "coordinates": [ 30.254493, 59.992231 ] } },
{ "type": "Feature", "properties": { "service_name": "Киришиавтосервис", "address": "Фермское шоссе, 35а", "administrative_unit": "Приморский район", "municipality": "Коломяги", "Широта": 60.016417, "Долгота": 30.312982 }, "geometry": { "type": "Point", "coordinates": [ 30.312982, 60.016417 ] } },
{ "type": "Feature", "properties": { "service_name": "Киришиавтосервис", "address": "Шафировский проспект, 24 лит А", "administrative_unit": "Красногвардейский район", "municipality": "Полюстрово", "Широта": 59.98862, "Долгота": 30.469299 }, "geometry": { "type": "Point", "coordinates": [ 30.469299, 59.98862 ] } },
{ "type": "Feature", "properties": { "service_name": "Киришиавтосервис", "address": "Рябовское шоссе, 115 к3 лит А", "administrative_unit": "Красногвардейский район", "municipality": "Ржевка", "Широта": 59.983484, "Долгота": 30.514903 }, "geometry": { "type": "Point", "coordinates": [ 30.514903, 59.983484 ] } },
{ "type": "Feature", "properties": { "service_name": "Киришиавтосервис", "address": "улица Коммуны, 14", "administrative_unit": "Красногвардейский район", "municipality": "Пороховые", "Широта": 59.940945, "Долгота": 30.503234 }, "geometry": { "type": "Point", "coordinates": [ 30.503234, 59.940945 ] } },
{ "type": "Feature", "properties": { "service_name": "Киришиавтосервис", "address": "Пулковское шоссе, 110", "administrative_unit": "Пушкинский район", "municipality": "Шушары пос.", "Широта": 59.754209, "Долгота": 30.321368 }, "geometry": { "type": "Point", "coordinates": [ 30.321368, 59.754209 ] } },
{ "type": "Feature", "properties": { "service_name": "Киришиавтосервис", "address": "Витебский проспект, 153", "administrative_unit": "Пушкинский район", "municipality": "Шушары пос.", "Широта": 59.793914, "Долгота": 30.39102 }, "geometry": { "type": "Point", "coordinates": [ 30.39102, 59.793914 ] } },
{ "type": "Feature", "properties": { "service_name": "Клевер", "address": "Рябовское шоссе, 147Б", "administrative_unit": "Красногвардейский район", "municipality": "Ржевка", "Широта": 59.990008, "Долгота": 30.529628 }, "geometry": { "type": "Point", "coordinates": [ 30.529628, 59.990008 ] } },
{ "type": "Feature", "properties": { "service_name": "Ленинский", "address": "Ленинский проспект, 139 лит З", "administrative_unit": "Кировский район", "municipality": "Княжево", "Широта": 59.851236, "Долгота": 30.287252 }, "geometry": { "type": "Point", "coordinates": [ 30.287252, 59.851236 ] } },
{ "type": "Feature", "properties": { "service_name": "Линос", "address": "Ириновский проспект, 16", "administrative_unit": "Красногвардейский район", "municipality": "Пороховые", "Широта": 59.956114, "Долгота": 30.466036 }, "geometry": { "type": "Point", "coordinates": [ 30.466036, 59.956114 ] } },
{ "type": "Feature", "properties": { "service_name": "Линос", "address": "Октябрьская набережная, 38 к3", "administrative_unit": "Невский район", "municipality": "Невский", "Широта": 59.902117, "Долгота": 30.44021 }, "geometry": { "type": "Point", "coordinates": [ 30.44021, 59.902117 ] } },
{ "type": "Feature", "properties": { "service_name": "Линос", "address": "Студенческая, 15", "administrative_unit": "Выборгский район", "municipality": "Сампсониевское", "Широта": 59.993707, "Долгота": 30.327245 }, "geometry": { "type": "Point", "coordinates": [ 30.327245, 59.993707 ] } },
{ "type": "Feature", "properties": { "service_name": "Лукойл", "address": "улица Бухарестская, 12", "administrative_unit": "Фрунзенский район", "municipality": "Волковское", "Широта": 59.88981, "Долгота": 30.362225 }, "geometry": { "type": "Point", "coordinates": [ 30.362225, 59.88981 ] } },
{ "type": "Feature", "properties": { "service_name": "Лукойл", "address": "Херсонский проезд, 4", "administrative_unit": "Центральный район", "municipality": "Смольнинское", "Широта": 59.928857, "Долгота": 30.385809 }, "geometry": { "type": "Point", "coordinates": [ 30.385809, 59.928857 ] } },
{ "type": "Feature", "properties": { "service_name": "Лукойл", "address": "проспект Добролюбова, 20 к6", "administrative_unit": "Петроградский район", "municipality": "Введенский", "Широта": 59.949726, "Долгота": 30.288496 }, "geometry": { "type": "Point", "coordinates": [ 30.288496, 59.949726 ] } },
{ "type": "Feature", "properties": { "service_name": "Лукойл", "address": "Пискарёвский проспект, 30", "administrative_unit": "Калининский район", "municipality": "Финляндский", "Широта": 59.974492, "Долгота": 30.413695 }, "geometry": { "type": "Point", "coordinates": [ 30.413695, 59.974492 ] } },