{
"type": "FeatureCollection",
"name": "bakery",
"crs": { "type": "name", "properties": { "name": "urn:ogc:def:crs:OGC:1.3:CRS84" } },
"features": [
{ "type": "Feature", "properties": { "service_name": "Аншок Мар", "municipality": "Сенной", "administrative_unit": "Адмиралтейский район", "Широта": 59.924039, "Долгота": 30.319374, "address": "Московский проспект, 10-12 к1 лит Б" }, "geometry": { "type": "Point", "coordinates": [ 30.319374, 59.924039 ] } },
{ "type": "Feature", "properties": { "service_name": "Галата", "municipality": "Волковское", "administrative_unit": "Фрунзенский район", "Широта": 59.911874, "Долгота": 30.350018, "address": "Курская, 24" }, "geometry": { "type": "Point", "coordinates": [ 30.350018, 59.911874 ] } },
{ "type": "Feature", "properties": { "service_name": "Ром-Баба", "municipality": "Юнтолово", "administrative_unit": "Приморский район", "Широта": 60.031529, "Долгота": 30.200971, "address": "Планерная улица, 89" }, "geometry": { "type": "Point", "coordinates": [ 30.200971, 60.031529 ] } },
{ "type": "Feature", "properties": { "service_name": "Bready", "municipality": "Стрельна пос.", "administrative_unit": "Петродворцовый район", "Широта": 59.850177, "Долгота": 30.026138, "address": "Львовская, 27 к2" }, "geometry": { "type": "Point", "coordinates": [ 30.026138, 59.850177 ] } },
{ "type": "Feature", "properties": { "service_name": "Cinnabon", "municipality": "Гагаринское", "administrative_unit": "Московский район", "Широта": 59.853194, "Долгота": 30.342231, "address": "улица Типанова, 21" }, "geometry": { "type": "Point", "coordinates": [ 30.342231, 59.853194 ] } },
{ "type": "Feature", "properties": { "service_name": "А тут пекут", "municipality": "Рыбацкое", "administrative_unit": "Невский район", "Широта": 59.829768, "Долгота": 30.5326, "address": "Советский проспект, 39 к1" }, "geometry": { "type": "Point", "coordinates": [ 30.5326, 59.829768 ] } },
{ "type": "Feature", "properties": { "service_name": "Гарсон", "municipality": "Петровский", "administrative_unit": "Петроградский район", "Широта": 59.957376, "Долгота": 30.298067, "address": "Большой проспект П.С., 30" }, "geometry": { "type": "Point", "coordinates": [ 30.298067, 59.957376 ] } },
{ "type": "Feature", "properties": { "service_name": "Гарсон", "municipality": "Лиговка-Ямская", "administrative_unit": "Центральный район", "Широта": 59.929595, "Долгота": 30.36822, "address": "Невский проспект, 103" }, "geometry": { "type": "Point", "coordinates": [ 30.36822, 59.929595 ] } },
{ "type": "Feature", "properties": { "service_name": "Ам!", "municipality": "Ивановский", "administrative_unit": "Невский район", "Широта": 59.875846, "Долгота": 30.444519, "address": "улица Ивановская, 9Б" }, "geometry": { "type": "Point", "coordinates": [ 30.444519, 59.875846 ] } },
{ "type": "Feature", "properties": { "service_name": "Гарсон", "municipality": "Дворцовый", "administrative_unit": "Центральный район", "Широта": 59.93436, "Долгота": 30.339245, "address": "Невский проспект, 60" }, "geometry": { "type": "Point", "coordinates": [ 30.339245, 59.93436 ] } },
{ "type": "Feature", "properties": { "service_name": "Гарсон", "municipality": "Муниципальный округ №78", "administrative_unit": "Центральный район", "Широта": 59.932751, "Долгота": 30.324837, "address": "набережная канала Грибоедова, 25" }, "geometry": { "type": "Point", "coordinates": [ 30.324837, 59.932751 ] } },
{ "type": "Feature", "properties": { "service_name": "Вкус Няш", "municipality": "Шушары пос.", "administrative_unit": "Пушкинский район", "Широта": 59.806653, "Долгота": 30.374192, "address": "Вишерская, 14" }, "geometry": { "type": "Point", "coordinates": [ 30.374192, 59.806653 ] } },
{ "type": "Feature", "properties": { "service_name": "Румяный хлеб", "municipality": "Гражданка", "administrative_unit": "Калининский район", "Широта": 60.008129, "Долгота": 30.418758, "address": "проспект Науки, 30 к1" }, "geometry": { "type": "Point", "coordinates": [ 30.418758, 60.008129 ] } },
{ "type": "Feature", "properties": { "service_name": "Bonape", "municipality": "Остров Декабристов", "administrative_unit": "Василеостровский район", "Широта": 59.952841, "Долгота": 30.216083, "address": "улица Кораблестроителей, 32 к3" }, "geometry": { "type": "Point", "coordinates": [ 30.216083, 59.952841 ] } },
{ "type": "Feature", "properties": { "service_name": "Румяный хлеб", "municipality": "Сосновское", "administrative_unit": "Выборгский район", "Широта": 60.038747, "Долгота": 30.346659, "address": "проспект Художников, 15 к1" }, "geometry": { "type": "Point", "coordinates": [ 30.346659, 60.038747 ] } },
{ "type": "Feature", "properties": { "service_name": "Румяный хлеб", "municipality": "Георгиевский", "administrative_unit": "Фрунзенский район", "Широта": 59.850647, "Долгота": 30.394179, "address": "улица Димитрова, 22 к3" }, "geometry": { "type": "Point", "coordinates": [ 30.394179, 59.850647 ] } },
{ "type": "Feature", "properties": { "service_name": "Русские пироги", "municipality": "Муниципальный округ №7", "administrative_unit": "Василеостровский район", "Широта": 59.94191, "Долгота": 30.276956, "address": "8-я линия В.О., 45" }, "geometry": { "type": "Point", "coordinates": [ 30.276956, 59.94191 ] } },
{ "type": "Feature", "properties": { "service_name": "Гарсон", "municipality": "Литейный", "administrative_unit": "Центральный район", "Широта": 59.932025, "Долгота": 30.359453, "address": "Невский проспект, 114-116" }, "geometry": { "type": "Point", "coordinates": [ 30.359453, 59.932025 ] } },
{ "type": "Feature", "properties": { "service_name": "Выпечка из тандыра", "municipality": "Екатерингофский", "administrative_unit": "Адмиралтейский район", "Широта": 59.902672, "Долгота": 30.27333, "address": "Нарвский проспект, 25а" }, "geometry": { "type": "Point", "coordinates": [ 30.27333, 59.902672 ] } },
{ "type": "Feature", "properties": { "service_name": "Русские пироги", "municipality": "Аптекарский остров", "administrative_unit": "Петроградский район", "Широта": 59.969294, "Долгота": 30.307094, "address": "набережная реки Карповки, 16" }, "geometry": { "type": "Point", "coordinates": [ 30.307094, 59.969294 ] } },
{ "type": "Feature", "properties": { "service_name": "С акцентом", "municipality": "Коломяги", "administrative_unit": "Приморский район", "Широта": 60.035709, "Долгота": 30.221955, "address": "Плесецкая, 16 ст1" }, "geometry": { "type": "Point", "coordinates": [ 30.221955, 60.035709 ] } },
{ "type": "Feature", "properties": { "service_name": "Свежая выпечка", "municipality": "Прометей", "administrative_unit": "Калининский район", "Широта": 60.039593, "Долгота": 30.398045, "address": "Светлановский проспект, 62а киоск" }, "geometry": { "type": "Point", "coordinates": [ 30.398045, 60.039593 ] } },
{ "type": "Feature", "properties": { "service_name": "Свежая корзина", "municipality": "Рыбацкое", "administrative_unit": "Невский район", "Широта": 59.833398, "Долгота": 30.506213, "address": "Караваевская улица, 24" }, "geometry": { "type": "Point", "coordinates": [ 30.506213, 59.833398 ] } },
{ "type": "Feature", "properties": { "service_name": "Гемриели Пури", "municipality": "Малая Охта", "administrative_unit": "Красногвардейский район", "Широта": 59.926879, "Долгота": 30.413397, "address": null }, "geometry": { "type": "Point", "coordinates": [ 30.413397, 59.926879 ] } },
{ "type": "Feature", "properties": { "service_name": "Грузинская пекарня", "municipality": "Лиговка-Ямская", "administrative_unit": "Центральный район", "Широта": 59.930366, "Долгота": 30.365304, "address": "Невский проспект, 91" }, "geometry": { "type": "Point", "coordinates": [ 30.365304, 59.930366 ] } },
{ "type": "Feature", "properties": { "service_name": "Ам!", "municipality": "Сергиевское", "administrative_unit": "Выборгский район", "Широта": 60.05348, "Долгота": 30.335814, "address": "проспект Энгельса, 141а" }, "geometry": { "type": "Point", "coordinates": [ 30.335814, 60.05348 ] } },
{ "type": "Feature", "properties": { "service_name": "Магазин выпечки", "municipality": "Муниципальный округ №54", "administrative_unit": "Невский район", "Широта": 59.897199, "Долгота": 30.476738, "address": "Крыленко, 21 к5" }, "geometry": { "type": "Point", "coordinates": [ 30.476738, 59.897199 ] } },
{ "type": "Feature", "properties": { "service_name": "Магазин выпечки", "municipality": "Нарвский", "administrative_unit": "Кировский район", "Широта": 59.899136, "Долгота": 30.272608, "address": "Промышленная улица, 6" }, "geometry": { "type": "Point", "coordinates": [ 30.272608, 59.899136 ] } },
{ "type": "Feature", "properties": { "service_name": "Магазин выпечки и мороженого", "municipality": "Малая Охта", "administrative_unit": "Красногвардейский район", "Широта": 59.925572, "Долгота": 30.423273, "address": "проспект Шаумяна, 50 лит А" }, "geometry": { "type": "Point", "coordinates": [ 30.423273, 59.925572 ] } },
{ "type": "Feature", "properties": { "service_name": "Магазин выпечки из тандыра", "municipality": "Невский", "administrative_unit": "Невский район", "Широта": 59.904208, "Долгота": 30.470553, "address": "улица Дыбенко, 16ж" }, "geometry": { "type": "Point", "coordinates": [ 30.470553, 59.904208 ] } },
{ "type": "Feature", "properties": { "service_name": "Магазин выпечки из тандыра", "municipality": "Северный", "administrative_unit": "Калининский район", "Широта": 60.046288, "Долгота": 30.389259, "address": "Демьяна Бедного, 26а" }, "geometry": { "type": "Point", "coordinates": [ 30.389259, 60.046288 ] } },
{ "type": "Feature", "properties": { "service_name": "Магазин выпечки из тандыра", "municipality": "Волковское", "administrative_unit": "Фрунзенский район", "Широта": 59.874561, "Долгота": 30.376093, "address": "улица Бухарестская, 23в" }, "geometry": { "type": "Point", "coordinates": [ 30.376093, 59.874561 ] } },
{ "type": "Feature", "properties": { "service_name": "Магазин свежей выпечки", "municipality": "Колпино г.", "administrative_unit": "Колпинский район", "Широта": 59.73341, "Долгота": 30.57734, "address": "Веры Слуцкой, 89" }, "geometry": { "type": "Point", "coordinates": [ 30.57734, 59.73341 ] } },
{ "type": "Feature", "properties": { "service_name": "Магазин свежей выпечки", "municipality": "Невская застава", "administrative_unit": "Невский район", "Широта": 59.893215, "Долгота": 30.432213, "address": "Ткачей, 8 лит Щ" }, "geometry": { "type": "Point", "coordinates": [ 30.432213, 59.893215 ] } },
{ "type": "Feature", "properties": { "service_name": "Магазин свежей выпечки из тандыра", "municipality": "Ивановский", "administrative_unit": "Невский район", "Широта": 59.877919, "Долгота": 30.434881, "address": "Полярников, 13 лит А" }, "geometry": { "type": "Point", "coordinates": [ 30.434881, 59.877919 ] } },
{ "type": "Feature", "properties": { "service_name": "Мак", "municipality": "Пискарёвка", "administrative_unit": "Калининский район", "Широта": 59.987431, "Долгота": 30.368039, "address": "Кушелевская дорога, 3 к1" }, "geometry": { "type": "Point", "coordinates": [ 30.368039, 59.987431 ] } },
{ "type": "Feature", "properties": { "service_name": "Свежий хлеб", "municipality": "Муниципальный округ №54", "administrative_unit": "Невский район", "Широта": 59.896546, "Долгота": 30.476301, "address": "Крыленко, 21 к1" }, "geometry": { "type": "Point", "coordinates": [ 30.476301, 59.896546 ] } },
{ "type": "Feature", "properties": { "service_name": "Маленький пекарь", "municipality": "Звездное", "administrative_unit": "Московский район", "Широта": 59.825085, "Долгота": 30.331567, "address": "Среднерогатская, 9" }, "geometry": { "type": "Point", "coordinates": [ 30.331567, 59.825085 ] } },
{ "type": "Feature", "properties": { "service_name": "Мама Волга", "municipality": "Измайловское", "administrative_unit": "Адмиралтейский район", "Широта": 59.914447, "Долгота": 30.317907, "address": "3-я Красноармейская улица, 2" }, "geometry": { "type": "Point", "coordinates": [ 30.317907, 59.914447 ] } },
{ "type": "Feature", "properties": { "service_name": "Мама Волга", "municipality": "Васильевский", "administrative_unit": "Василеостровский район", "Широта": 59.947165, "Долгота": 30.284362, "address": "Кадетская линия В.О., 31" }, "geometry": { "type": "Point", "coordinates": [ 30.284362, 59.947165 ] } },
{ "type": "Feature", "properties": { "service_name": "Пирожковая Голенецкой", "municipality": "Владимирский", "administrative_unit": "Центральный район", "Широта": 59.928676, "Долгота": 30.344669, "address": "Рубинштейна, 30" }, "geometry": { "type": "Point", "coordinates": [ 30.344669, 59.928676 ] } },
{ "type": "Feature", "properties": { "service_name": "Свежий хлеб", "municipality": "Светлановское", "administrative_unit": "Выборгский район", "Широта": 59.99832, "Долгота": 30.361057, "address": "2-й Муринский проспект, 51" }, "geometry": { "type": "Point", "coordinates": [ 30.361057, 59.99832 ] } },
{ "type": "Feature", "properties": { "service_name": "Свежий хлеб", "municipality": "Чкаловское", "administrative_unit": "Петроградский район", "Широта": 59.960864, "Долгота": 30.290644, "address": "Чкаловский проспект, 16" }, "geometry": { "type": "Point", "coordinates": [ 30.290644, 59.960864 ] } },
{ "type": "Feature", "properties": { "service_name": "Городская пекарня", "municipality": "Гагаринское", "administrative_unit": "Московский район", "Широта": 59.853126, "Долгота": 30.349907, "address": "улица Типанова, 27/39" }, "geometry": { "type": "Point", "coordinates": [ 30.349907, 59.853126 ] } },
{ "type": "Feature", "properties": { "service_name": "Городские пекарни", "municipality": "Пискарёвка", "administrative_unit": "Калининский район", "Широта": 59.983844, "Долгота": 30.397946, "address": "Кондратьевский проспект, 70 к1" }, "geometry": { "type": "Point", "coordinates": [ 30.397946, 59.983844 ] } },
{ "type": "Feature", "properties": { "service_name": "Городские пекарни", "municipality": "Южно-Приморский", "administrative_unit": "Красносельский район", "Широта": 59.851927, "Долгота": 30.155483, "address": "Катерников, 7 лит А" }, "geometry": { "type": "Point", "coordinates": [ 30.155483, 59.851927 ] } },
{ "type": "Feature", "properties": { "service_name": "Городские пекарни", "municipality": "Георгиевский", "administrative_unit": "Фрунзенский район", "Широта": 59.844795, "Долгота": 30.374762, "address": "улица Димитрова, 3 к1" }, "geometry": { "type": "Point", "coordinates": [ 30.374762, 59.844795 ] } },
{ "type": "Feature", "properties": { "service_name": "Городские пекарни", "municipality": "Введенский", "administrative_unit": "Петроградский район", "Широта": 59.955115, "Долгота": 30.302648, "address": "Лизы Чайкиной, 17" }, "geometry": { "type": "Point", "coordinates": [ 30.302648, 59.955115 ] } },
{ "type": "Feature", "properties": { "service_name": "Мама Волга", "municipality": "Литейный", "administrative_unit": "Центральный район", "Широта": 59.938346, "Долгота": 30.347574, "address": "Литейный проспект, 45/8" }, "geometry": { "type": "Point", "coordinates": [ 30.347574, 59.938346 ] } },
{ "type": "Feature", "properties": { "service_name": "Свежий хлеб", "municipality": "Измайловское", "administrative_unit": "Адмиралтейский район", "Широта": 59.91176, "Долгота": 30.307017, "address": "Красноармейская 12-я, 1" }, "geometry": { "type": "Point", "coordinates": [ 30.307017, 59.91176 ] } },
{ "type": "Feature", "properties": { "service_name": "Сдобно", "municipality": "Светлановское", "administrative_unit": "Выборгский район", "Широта": 60.010638, "Долгота": 30.330319, "address": "Манчестерская, 3 ст1" }, "geometry": { "type": "Point", "coordinates": [ 30.330319, 60.010638 ] } },
{ "type": "Feature", "properties": { "service_name": "Городские пекарни", "municipality": "Звездное", "administrative_unit": "Московский район", "Широта": 59.82199, "Долгота": 30.335112, "address": "Среднерогатская, 13 к1 ст1" }, "geometry": { "type": "Point", "coordinates": [ 30.335112, 59.82199 ] } },
{ "type": "Feature", "properties": { "service_name": "Волконский", "municipality": "Дворцовый", "administrative_unit": "Центральный район", "Широта": 59.934686, "Долгота": 30.337385, "address": "улица Малая Садовая, 3" }, "geometry": { "type": "Point", "coordinates": [ 30.337385, 59.934686 ] } },
{ "type": "Feature", "properties": { "service_name": "Волконский", "municipality": "Чкаловское", "administrative_unit": "Петроградский район", "Широта": 59.964464, "Долгота": 30.277578, "address": "набережная Адмирала Лазарева, 22 ст1" }, "geometry": { "type": "Point", "coordinates": [ 30.277578, 59.964464 ] } },
{ "type": "Feature", "properties": { "service_name": "Сдобушка", "municipality": "Екатерингофский", "administrative_unit": "Адмиралтейский район", "Широта": 59.901583, "Долгота": 30.274241, "address": "Старо-Петергофский проспект, 43-45" }, "geometry": { "type": "Point", "coordinates": [ 30.274241, 59.901583 ] } },
{ "type": "Feature", "properties": { "service_name": "Север-Метрополь", "municipality": "Сергиевское", "administrative_unit": "Выборгский район", "Широта": 60.049741, "Долгота": 30.354059, "address": "проспект Просвещения, 48" }, "geometry": { "type": "Point", "coordinates": [ 30.354059, 60.049741 ] } },
{ "type": "Feature", "properties": { "service_name": "Север-Метрополь", "municipality": "Прометей", "administrative_unit": "Калининский район", "Широта": 60.038792, "Долгота": 30.405856, "address": "Брянцева, 20 к1" }, "geometry": { "type": "Point", "coordinates": [ 30.405856, 60.038792 ] } },
{ "type": "Feature", "properties": { "service_name": "Север-Метрополь", "municipality": "Невский", "administrative_unit": "Невский район", "Широта": 59.907347, "Долгота": 30.481069, "address": "проспект Большевиков, 19" }, "geometry": { "type": "Point", "coordinates": [ 30.481069, 59.907347 ] } },
{ "type": "Feature", "properties": { "service_name": "Север-Метрополь", "municipality": "Ланское", "administrative_unit": "Приморский район", "Широта": 59.986656, "Долгота": 30.298663, "address": "улица Савушкина, 3" }, "geometry": { "type": "Point", "coordinates": [ 30.298663, 59.986656 ] } },
{ "type": "Feature", "properties": { "service_name": "Север-Метрополь", "municipality": "Рыбацкое", "administrative_unit": "Невский район", "Широта": 59.83235, "Долгота": 30.505477, "address": "Прибрежная, 18" }, "geometry": { "type": "Point", "coordinates": [ 30.505477, 59.83235 ] } },
{ "type": "Feature", "properties": { "service_name": "Север-Метрополь", "municipality": "Смольнинское", "administrative_unit": "Центральный район", "Широта": 59.93419, "Долгота": 30.369924, "address": "Суворовский проспект, 12" }, "geometry": { "type": "Point", "coordinates": [ 30.369924, 59.93419 ] } },
{ "type": "Feature", "properties": { "service_name": "Север-Метрополь", "municipality": "Семёновский", "administrative_unit": "Адмиралтейский район", "Широта": 59.914257, "Долгота": 30.318464, "address": "Московский проспект, 42" }, "geometry": { "type": "Point", "coordinates": [ 30.318464, 59.914257 ] } },
{ "type": "Feature", "properties": { "service_name": "Север-Метрополь", "municipality": "Малая Охта", "administrative_unit": "Красногвардейский район", "Широта": 59.928035, "Долгота": 30.408419, "address": "Заневский проспект, 9" }, "geometry": { "type": "Point", "coordinates": [ 30.408419, 59.928035 ] } },
{ "type": "Feature", "properties": { "service_name": "Север-Метрополь", "municipality": "Владимирский", "administrative_unit": "Центральный район", "Широта": 59.925787, "Долгота": 30.346081, "address": "Большая Московская, 11" }, "geometry": { "type": "Point", "coordinates": [ 30.346081, 59.925787 ] } },
{ "type": "Feature", "properties": { "service_name": "Север-Метрополь", "municipality": "Екатерингофский", "administrative_unit": "Адмиралтейский район", "Широта": 59.902255, "Долгота": 30.275333, "address": "Старо-Петергофский проспект, 41" }, "geometry": { "type": "Point", "coordinates": [ 30.275333, 59.902255 ] } },
{ "type": "Feature", "properties": { "service_name": "Север-Метрополь", "municipality": "Остров Декабристов", "administrative_unit": "Василеостровский район", "Широта": 59.948908, "Долгота": 30.234162, "address": "улица Железноводская, 68 к1" }, "geometry": { "type": "Point", "coordinates": [ 30.234162, 59.948908 ] } },
{ "type": "Feature", "properties": { "service_name": "Север-Метрополь", "municipality": "Академическое", "administrative_unit": "Калининский район", "Широта": 60.014785, "Долгота": 30.392363, "address": "проспект Науки, 12" }, "geometry": { "type": "Point", "coordinates": [ 30.392363, 60.014785 ] } },
{ "type": "Feature", "properties": { "service_name": "Север-Метрополь", "municipality": "Введенский", "administrative_unit": "Петроградский район", "Широта": 59.954488, "Долгота": 30.296318, "address": "Большая Пушкарская, 4" }, "geometry": { "type": "Point", "coordinates": [ 30.296318, 59.954488 ] } },
{ "type": "Feature", "properties": { "service_name": "Ам!", "municipality": "Коломна", "administrative_unit": "Адмиралтейский район", "Широта": 59.923495, "Долгота": 30.284875, "address": "улица Декабристов, 58" }, "geometry": { "type": "Point", "coordinates": [ 30.284875, 59.923495 ] } },
{ "type": "Feature", "properties": { "service_name": "Север-Метрополь", "municipality": "Смольнинское", "administrative_unit": "Центральный район", "Широта": 59.944061, "Долгота": 30.359487, "address": "улица Кирочная, 28" }, "geometry": { "type": "Point", "coordinates": [ 30.359487, 59.944061 ] } },
{ "type": "Feature", "properties": { "service_name": "Север-Метрополь", "municipality": "Дачное", "administrative_unit": "Кировский район", "Широта": 59.842433, "Долгота": 30.248347, "address": "бульвар Новаторов, 79 к8" }, "geometry": { "type": "Point", "coordinates": [ 30.248347, 59.842433 ] } },
{ "type": "Feature", "properties": { "service_name": "Север-Метрополь", "municipality": "Купчино", "administrative_unit": "Фрунзенский район", "Широта": 59.864124, "Долгота": 30.386283, "address": "улица Бухарестская, 33 к1" }, "geometry": { "type": "Point", "coordinates": [ 30.386283, 59.864124 ] } },
{ "type": "Feature", "properties": { "service_name": "Север-Метрополь", "municipality": "Невская застава", "administrative_unit": "Невский район", "Широта": 59.896438, "Долгота": 30.422709, "address": "проспект Елизарова, 15" }, "geometry": { "type": "Point", "coordinates": [ 30.422709, 59.896438 ] } },
{ "type": "Feature", "properties": { "service_name": "Север-Метрополь", "municipality": "Сенной", "administrative_unit": "Адмиралтейский район", "Широта": 59.926216, "Долгота": 30.319564, "address": "Ефимова, 1/4" }, "geometry": { "type": "Point", "coordinates": [ 30.319564, 59.926216 ] } },
{ "type": "Feature", "properties": { "service_name": "Север-Метрополь", "municipality": "Смольнинское", "administrative_unit": "Центральный район", "Широта": 59.941611, "Долгота": 30.380494, "address": "Суворовский проспект, 42" }, "geometry": { "type": "Point", "coordinates": [ 30.380494, 59.941611 ] } },
{ "type": "Feature", "properties": { "service_name": "Север-Метрополь", "municipality": "Муниципальный округ №78", "administrative_unit": "Центральный район", "Широта": 59.934416, "Долгота": 30.313755, "address": "Большая Морская, 23/12" }, "geometry": { "type": "Point", "coordinates": [ 30.313755, 59.934416 ] } },
{ "type": "Feature", "properties": { "service_name": "Север-Метрополь", "municipality": "Муниципальный округ №7", "administrative_unit": "Василеостровский район", "Широта": 59.942575, "Долгота": 30.277021, "address": "8-я линия В.О., 45" }, "geometry": { "type": "Point", "coordinates": [ 30.277021, 59.942575 ] } },
{ "type": "Feature", "properties": { "service_name": "Север-Метрополь", "municipality": "Литейный", "administrative_unit": "Центральный район", "Широта": 59.943326, "Долгота": 30.355254, "address": "улица Кирочная, 13" }, "geometry": { "type": "Point", "coordinates": [ 30.355254, 59.943326 ] } },
{ "type": "Feature", "properties": { "service_name": "Север-Метрополь", "municipality": "Полюстрово", "administrative_unit": "Красногвардейский район", "Широта": 60.032737, "Долгота": 30.448036, "address": "проспект Маршака, 12 к1 ст1" }, "geometry": { "type": "Point", "coordinates": [ 30.448036, 60.032737 ] } },
{ "type": "Feature", "properties": { "service_name": "Север-Метрополь", "municipality": "Сампсониевское", "administrative_unit": "Выборгский район", "Широта": 59.971009, "Долгота": 30.3433, "address": "Смолячкова, 12" }, "geometry": { "type": "Point", "coordinates": [ 30.3433, 59.971009 ] } },
{ "type": "Feature", "properties": { "service_name": "Север-Метрополь", "municipality": "Литейный", "administrative_unit": "Центральный район", "Широта": 59.931771, "Долгота": 30.356575, "address": "Невский проспект, 104" }, "geometry": { "type": "Point", "coordinates": [ 30.356575, 59.931771 ] } },
{ "type": "Feature", "properties": { "service_name": "Север-Метрополь", "municipality": "Муниципальный округ №78", "administrative_unit": "Центральный район", "Широта": 59.933023, "Долгота": 30.333043, "address": "улица Садовая, 22" }, "geometry": { "type": "Point", "coordinates": [ 30.333043, 59.933023 ] } },
{ "type": "Feature", "properties": { "service_name": "Север-Метрополь", "municipality": "Пулковский меридиан", "administrative_unit": "Московский район", "Широта": 59.850047, "Долгота": 30.320976, "address": "Московский проспект, 195" }, "geometry": { "type": "Point", "coordinates": [ 30.320976, 59.850047 ] } },
{ "type": "Feature", "properties": { "service_name": "Север-Метрополь", "municipality": "Ивановский", "administrative_unit": "Невский район", "Широта": 59.877104, "Долгота": 30.443622, "address": "улица Бабушкина, 42 к1" }, "geometry": { "type": "Point", "coordinates": [ 30.443622, 59.877104 ] } },
{ "type": "Feature", "properties": { "service_name": "Север-Метрополь", "municipality": "Светлановское", "administrative_unit": "Выборгский район", "Широта": 60.001218, "Долгота": 30.365344, "address": "проспект Тореза, 9" }, "geometry": { "type": "Point", "coordinates": [ 30.365344, 60.001218 ] } },
{ "type": "Feature", "properties": { "service_name": "Север-Метрополь", "municipality": "Правобережный", "administrative_unit": "Невский район", "Широта": 59.92131, "Долгота": 30.462188, "address": "проспект Пятилеток, 4 к1" }, "geometry": { "type": "Point", "coordinates": [ 30.462188, 59.92131 ] } },
{ "type": "Feature", "properties": { "service_name": "Север-Метрополь", "municipality": "Муниципальный округ №7", "administrative_unit": "Василеостровский район", "Широта": 59.93113, "Долгота": 30.260766, "address": "26-я линия В.О., 7 ст1" }, "geometry": { "type": "Point", "coordinates": [ 30.260766, 59.93113 ] } },
{ "type": "Feature", "properties": { "service_name": "Север-Метрополь", "municipality": "Балканский", "administrative_unit": "Фрунзенский район", "Широта": 59.830819, "Долгота": 30.385443, "address": "улица Ярослава Гашека, 5" }, "geometry": { "type": "Point", "coordinates": [ 30.385443, 59.830819 ] } },
{ "type": "Feature", "properties": { "service_name": "Север-Метрополь", "municipality": "Пороховые", "administrative_unit": "Красногвардейский район", "Широта": 59.94564, "Долгота": 30.485103, "address": "проспект Косыгина, 26 к1" }, "geometry": { "type": "Point", "coordinates": [ 30.485103, 59.94564 ] } },
{ "type": "Feature", "properties": { "service_name": "Север-Метрополь", "municipality": "Академическое", "administrative_unit": "Калининский район", "Широта": 60.009725, "Долгота": 30.370131, "address": "улица Политехническая, 31" }, "geometry": { "type": "Point", "coordinates": [ 30.370131, 60.009725 ] } },
{ "type": "Feature", "properties": { "service_name": "Север-Метрополь", "municipality": "Большая Охта", "administrative_unit": "Красногвардейский район", "Широта": 59.959054, "Долгота": 30.415909, "address": "Среднеохтинский проспект, 51/13" }, "geometry": { "type": "Point", "coordinates": [ 30.415909, 59.959054 ] } },
{ "type": "Feature", "properties": { "service_name": "Городские пекарни", "municipality": "Комендантский аэродром", "administrative_unit": "Приморский район", "Широта": 60.004363, "Долгота": 30.294701, "address": "Коломяжский проспект, 26" }, "geometry": { "type": "Point", "coordinates": [ 30.294701, 60.004363 ] } },
{ "type": "Feature", "properties": { "service_name": "Север-Метрополь", "municipality": "Озеро Долгое", "administrative_unit": "Приморский район", "Широта": 60.009329, "Долгота": 30.262712, "address": "улица Уточкина, 1 к1" }, "geometry": { "type": "Point", "coordinates": [ 30.262712, 60.009329 ] } },
{ "type": "Feature", "properties": { "service_name": "Городские пекарни", "municipality": "Невский", "administrative_unit": "Невский район", "Широта": 59.900784, "Долгота": 30.451185, "address": "улица Дыбенко, 6 к2" }, "geometry": { "type": "Point", "coordinates": [ 30.451185, 59.900784 ] } },
{ "type": "Feature", "properties": { "service_name": "Север-Метрополь", "municipality": "Княжево", "administrative_unit": "Кировский район", "Широта": 59.849125, "Долгота": 30.269406, "address": "бульвар Новаторов, 10" }, "geometry": { "type": "Point", "coordinates": [ 30.269406, 59.849125 ] } },
{ "type": "Feature", "properties": { "service_name": "Мама Люба bakery", "municipality": "Правобережный", "administrative_unit": "Невский район", "Широта": 59.928017, "Долгота": 30.449867, "address": "Ванеева, 10" }, "geometry": { "type": "Point", "coordinates": [ 30.449867, 59.928017 ] } },
{ "type": "Feature", "properties": { "service_name": "Городские пекарни", "municipality": "Южно-Приморский", "administrative_unit": "Красносельский район", "Широта": 59.853504, "Долгота": 30.147929, "address": "Адмирала Трибуца, 8 лит А" }, "geometry": { "type": "Point", "coordinates": [ 30.147929, 59.853504 ] } },
{ "type": "Feature", "properties": { "service_name": "Городские пекарни", "municipality": "Пискарёвка", "administrative_unit": "Калининский район", "Широта": 59.984937, "Долгота": 30.392114, "address": "Кондратьевский проспект, 68 к4" }, "geometry": { "type": "Point", "coordinates": [ 30.392114, 59.984937 ] } },
{ "type": "Feature", "properties": { "service_name": "Север-Метрополь", "municipality": "Пороховые", "administrative_unit": "Красногвардейский район", "Широта": 59.951156, "Долгота": 30.470049, "address": "проспект Ударников, 28" }, "geometry": { "type": "Point", "coordinates": [ 30.470049, 59.951156 ] } },
{ "type": "Feature", "properties": { "service_name": "ГрандПирог", "municipality": "Нарвский", "administrative_unit": "Кировский район", "Широта": 59.898796, "Долгота": 30.273534, "address": "Промышленная улица, 6" }, "geometry": { "type": "Point", "coordinates": [ 30.273534, 59.898796 ] } },
{ "type": "Feature", "properties": { "service_name": "Грузинская пекарня", "municipality": "Обуховский", "administrative_unit": "Невский район", "Широта": 59.864532, "Долгота": 30.452864, "address": "улица Бабушкина, 111 лит Б" }, "geometry": { "type": "Point", "coordinates": [ 30.452864, 59.864532 ] } },
{ "type": "Feature", "properties": { "service_name": "Север-Метрополь", "municipality": "Нарвский", "administrative_unit": "Кировский район", "Широта": 59.894492, "Долгота": 30.274918, "address": "проспект Стачек, 15" }, "geometry": { "type": "Point", "coordinates": [ 30.274918, 59.894492 ] } },
{ "type": "Feature", "properties": { "service_name": "Север-Метрополь", "municipality": "Кронверкское", "administrative_unit": "Петроградский район", "Широта": 59.956785, "Долгота": 30.312005, "address": "Кронверкский проспект, 47" }, "geometry": { "type": "Point", "coordinates": [ 30.312005, 59.956785 ] } },
{ "type": "Feature", "properties": { "service_name": "Булочные Ф. Вольчека", "municipality": "Чкаловское", "administrative_unit": "Петроградский район", "Широта": 59.970824, "Долгота": 30.306597, "address": "Каменноостровский проспект, 50" }, "geometry": { "type": "Point", "coordinates": [ 30.306597, 59.970824 ] } },
{ "type": "Feature", "properties": { "service_name": "Все дома", "municipality": "Финляндский", "administrative_unit": "Калининский район", "Широта": 59.979777, "Долгота": 30.377928, "address": "проспект Маршала Блюхера, 11 к1 ст1" }, "geometry": { "type": "Point", "coordinates": [ 30.377928, 59.979777 ] } },
{ "type": "Feature", "properties": { "service_name": "Мамадай", "municipality": "Гражданка", "administrative_unit": "Калининский район", "Широта": 60.006728, "Долгота": 30.402847, "address": "улица Бутлерова, 11 к4" }, "geometry": { "type": "Point", "coordinates": [ 30.402847, 60.006728 ] } },
{ "type": "Feature", "properties": { "service_name": "Мамапапури", "municipality": "Пороховые", "administrative_unit": "Красногвардейский район", "Широта": 59.951854, "Долгота": 30.469971, "address": "Индустриальный проспект, 34а" }, "geometry": { "type": "Point", "coordinates": [ 30.469971, 59.951854 ] } },
{ "type": "Feature", "properties": { "service_name": "Матрёшка", "municipality": "Сосновая Поляна", "administrative_unit": "Красносельский район", "Широта": 59.843533, "Долгота": 30.147973, "address": "Пограничника Гарькавого, 4" }, "geometry": { "type": "Point", "coordinates": [ 30.147973, 59.843533 ] } },
{ "type": "Feature", "properties": { "service_name": "Север-Метрополь", "municipality": "Пороховые", "administrative_unit": "Красногвардейский район", "Широта": 59.937104, "Долгота": 30.489235, "address": "проспект Наставников, 3 к1" }, "geometry": { "type": "Point", "coordinates": [ 30.489235, 59.937104 ] } },
{ "type": "Feature", "properties": { "service_name": "Bonape", "municipality": "Пискарёвка", "administrative_unit": "Калининский район", "Широта": 60.006068, "Долгота": 30.424148, "address": "проспект Науки, 69" }, "geometry": { "type": "Point", "coordinates": [ 30.424148, 60.006068 ] } },
{ "type": "Feature", "properties": { "service_name": "Ам!", "municipality": "Кронверкское", "administrative_unit": "Петроградский район", "Широта": 59.956286, "Долгота": 30.320354, "address": "Кронверкский проспект, 13Б" }, "geometry": { "type": "Point", "coordinates": [ 30.320354, 59.956286 ] } },
{ "type": "Feature", "properties": { "service_name": "Ам!", "municipality": "Обуховский", "administrative_unit": "Невский район", "Широта": 59.848641, "Долгота": 30.457129, "address": "Грибакиных, 27а" }, "geometry": { "type": "Point", "coordinates": [ 30.457129, 59.848641 ] } },
{ "type": "Feature", "properties": { "service_name": "Ам!", "municipality": "Ланское", "administrative_unit": "Приморский район", "Широта": 59.985919, "Долгота": 30.30138, "address": "улица Савушкина, 2 к1" }, "geometry": { "type": "Point", "coordinates": [ 30.30138, 59.985919 ] } },
{ "type": "Feature", "properties": { "service_name": "Булочные Ф. Вольчека", "municipality": "Смольнинское", "administrative_unit": "Центральный район", "Широта": 59.931764, "Долгота": 30.361834, "address": "Лиговский проспект, 10" }, "geometry": { "type": "Point", "coordinates": [ 30.361834, 59.931764 ] } },
{ "type": "Feature", "properties": { "service_name": "Булочные Ф. Вольчека", "municipality": "Литейный", "administrative_unit": "Центральный район", "Широта": 59.932859, "Долгота": 30.348185, "address": "Литейный проспект, 64/78" }, "geometry": { "type": "Point", "coordinates": [ 30.348185, 59.932859 ] } },
{ "type": "Feature", "properties": { "service_name": "Булочные Ф. Вольчека", "municipality": "Сенной", "administrative_unit": "Адмиралтейский район", "Широта": 59.927503, "Долгота": 30.316808, "address": "переулок Гривцова, 26" }, "geometry": { "type": "Point", "coordinates": [ 30.316808, 59.927503 ] } },
{ "type": "Feature", "properties": { "service_name": "Булочные Ф. Вольчека", "municipality": "Дворцовый", "administrative_unit": "Центральный район", "Широта": 59.934354, "Долгота": 30.336275, "address": "Невский проспект, 54" }, "geometry": { "type": "Point", "coordinates": [ 30.336275, 59.934354 ] } },
{ "type": "Feature", "properties": { "service_name": "Булочные Ф. Вольчека", "municipality": "Дворцовый", "administrative_unit": "Центральный район", "Широта": 59.941861, "Долгота": 30.323232, "address": "Конюшенный переулок, 1/6" }, "geometry": { "type": "Point", "coordinates": [ 30.323232, 59.941861 ] } },
{ "type": "Feature", "properties": { "service_name": "Булочные Ф. Вольчека", "municipality": "Измайловское", "administrative_unit": "Адмиралтейский район", "Широта": 59.915949, "Долгота": 30.314317, "address": "1-я Красноармейская улица, 8-10" }, "geometry": { "type": "Point", "coordinates": [ 30.314317, 59.915949 ] } },
{ "type": "Feature", "properties": { "service_name": "Булочные Ф. Вольчека", "municipality": "Сенной", "administrative_unit": "Адмиралтейский район", "Широта": 59.926749, "Долгота": 30.307953, "address": "набережная канала Грибоедова, 79/23" }, "geometry": { "type": "Point", "coordinates": [ 30.307953, 59.926749 ] } },
{ "type": "Feature", "properties": { "service_name": "Булочные Ф. Вольчека", "municipality": "Муниципальный округ №7", "administrative_unit": "Василеостровский район", "Широта": 59.940755, "Долгота": 30.270866, "address": "Средний проспект В.О., 50" }, "geometry": { "type": "Point", "coordinates": [ 30.270866, 59.940755 ] } },
{ "type": "Feature", "properties": { "service_name": "Булочные Ф. Вольчека", "municipality": "Владимирский", "administrative_unit": "Центральный район", "Широта": 59.925986, "Долгота": 30.342296, "address": "Разъезжая, 1" }, "geometry": { "type": "Point", "coordinates": [ 30.342296, 59.925986 ] } },
{ "type": "Feature", "properties": { "service_name": "Булочные Ф. Вольчека", "municipality": "Аптекарский остров", "administrative_unit": "Петроградский район", "Широта": 59.965688, "Долгота": 30.314246, "address": "улица Льва Толстого, 4" }, "geometry": { "type": "Point", "coordinates": [ 30.314246, 59.965688 ] } },
{ "type": "Feature", "properties": { "service_name": "Булочные Ф. Вольчека", "municipality": "Кронверкское", "administrative_unit": "Петроградский район", "Широта": 59.957644, "Долгота": 30.307526, "address": "Сытнинская улица, 10/12" }, "geometry": { "type": "Point", "coordinates": [ 30.307526, 59.957644 ] } },
{ "type": "Feature", "properties": { "service_name": "Булочные Ф. Вольчека", "municipality": "Васильевский", "administrative_unit": "Василеостровский район", "Широта": 59.945433, "Долгота": 30.285766, "address": "1-я линия В.О., 46 лит А" }, "geometry": { "type": "Point", "coordinates": [ 30.285766, 59.945433 ] } },
{ "type": "Feature", "properties": { "service_name": "Булочные Ф. Вольчека", "municipality": "Смольнинское", "administrative_unit": "Центральный район", "Широта": 59.946216, "Долгота": 30.367471, "address": "Чайковского, 83" }, "geometry": { "type": "Point", "coordinates": [ 30.367471, 59.946216 ] } },
{ "type": "Feature", "properties": { "service_name": "Булочные Ф. Вольчека", "municipality": "Литейный", "administrative_unit": "Центральный район", "Широта": 59.946305, "Долгота": 30.358962, "address": "Чайковского, 57" }, "geometry": { "type": "Point", "coordinates": [ 30.358962, 59.946305 ] } },
{ "type": "Feature", "properties": { "service_name": "Булочные Ф. Вольчека", "municipality": "Аптекарский остров", "administrative_unit": "Петроградский район", "Широта": 59.964422, "Долгота": 30.313105, "address": "Каменноостровский проспект, 29" }, "geometry": { "type": "Point", "coordinates": [ 30.313105, 59.964422 ] } },
{ "type": "Feature", "properties": { "service_name": "Булочные Ф. Вольчека", "municipality": "Смольнинское", "administrative_unit": "Центральный район", "Широта": 59.928229, "Долгота": 30.377052, "address": "Перекупной переулок, 6" }, "geometry": { "type": "Point", "coordinates": [ 30.377052, 59.928229 ] } },
{ "type": "Feature", "properties": { "service_name": "Булочные Ф. Вольчека", "municipality": "Финляндский", "administrative_unit": "Калининский район", "Широта": 59.955415, "Долгота": 30.3576, "address": "улица Комсомола, 35" }, "geometry": { "type": "Point", "coordinates": [ 30.3576, 59.955415 ] } },
{ "type": "Feature", "properties": { "service_name": "Булочные Ф. Вольчека", "municipality": "Ржевка", "administrative_unit": "Красногвардейский район", "Широта": 59.957857, "Долгота": 30.484965, "address": "Лазо, 9" }, "geometry": { "type": "Point", "coordinates": [ 30.484965, 59.957857 ] } },
{ "type": "Feature", "properties": { "service_name": "Булочные Ф. Вольчека", "municipality": "Смольнинское", "administrative_unit": "Центральный район", "Широта": 59.945308, "Долгота": 30.361728, "address": "улица Фурштатская, 42" }, "geometry": { "type": "Point", "coordinates": [ 30.361728, 59.945308 ] } },
{ "type": "Feature", "properties": { "service_name": "Булочные Ф. Вольчека", "municipality": "Балканский", "administrative_unit": "Фрунзенский район", "Широта": 59.832649, "Долгота": 30.389366, "address": "улица Ярослава Гашека, 4 к1" }, "geometry": { "type": "Point", "coordinates": [ 30.389366, 59.832649 ] } },
{ "type": "Feature", "properties": { "service_name": "Булочные Ф. Вольчека", "municipality": "Волковское", "administrative_unit": "Фрунзенский район", "Широта": 59.868706, "Долгота": 30.370669, "address": "Будапештская, 14 к1" }, "geometry": { "type": "Point", "coordinates": [ 30.370669, 59.868706 ] } },
{ "type": "Feature", "properties": { "service_name": "Булочные Ф. Вольчека", "municipality": "Обуховский", "administrative_unit": "Невский район", "Широта": 59.86797, "Долгота": 30.440776, "address": "Седова, 89 к1" }, "geometry": { "type": "Point", "coordinates": [ 30.440776, 59.86797 ] } },
{ "type": "Feature", "properties": { "service_name": "Булочные Ф. Вольчека", "municipality": "Новоизмайловское", "administrative_unit": "Московский район", "Широта": 59.856559, "Долгота": 30.306247, "address": "Новоизмайловский проспект, 38 к1" }, "geometry": { "type": "Point", "coordinates": [ 30.306247, 59.856559 ] } },
{ "type": "Feature", "properties": { "service_name": "Булочные Ф. Вольчека", "municipality": "Георгиевский", "administrative_unit": "Фрунзенский район", "Широта": 59.844606, "Долгота": 30.39132, "address": "Будапештская, 74 к1" }, "geometry": { "type": "Point", "coordinates": [ 30.39132, 59.844606 ] } },
{ "type": "Feature", "properties": { "service_name": "Булочные Ф. Вольчека", "municipality": "Муниципальный округ №21", "administrative_unit": "Калининский район", "Широта": 60.027766, "Долгота": 30.413602, "address": "Гражданский проспект, 105 к1" }, "geometry": { "type": "Point", "coordinates": [ 30.413602, 60.027766 ] } },
{ "type": "Feature", "properties": { "service_name": "Булочные Ф. Вольчека", "municipality": "Ланское", "administrative_unit": "Приморский район", "Широта": 59.994018, "Долгота": 30.310714, "address": "Ланское шоссе, 14 к1" }, "geometry": { "type": "Point", "coordinates": [ 30.310714, 59.994018 ] } },
{ "type": "Feature", "properties": { "service_name": "Булочные Ф. Вольчека", "municipality": "Невский", "administrative_unit": "Невский район", "Широта": 59.908489, "Долгота": 30.455984, "address": "Белышева, 5/6" }, "geometry": { "type": "Point", "coordinates": [ 30.455984, 59.908489 ] } },
{ "type": "Feature", "properties": { "service_name": "Булочные Ф. Вольчека", "municipality": "Невский", "administrative_unit": "Невский район", "Широта": 59.914201, "Долгота": 30.449183, "address": "улица Коллонтай, 5" }, "geometry": { "type": "Point", "coordinates": [ 30.449183, 59.914201 ] } },
{ "type": "Feature", "properties": { "service_name": "Булочные Ф. Вольчека", "municipality": "Юнтолово", "administrative_unit": "Приморский район", "Широта": 60.022686, "Долгота": 30.240792, "address": "Комендантский проспект, 34 к1" }, "geometry": { "type": "Point", "coordinates": [ 30.240792, 60.022686 ] } },
{ "type": "Feature", "properties": { "service_name": "Булочные Ф. Вольчека", "municipality": "Петровский", "administrative_unit": "Петроградский район", "Широта": 59.963697, "Долгота": 30.295629, "address": "Гатчинская, 35" }, "geometry": { "type": "Point", "coordinates": [ 30.295629, 59.963697 ] } },
{ "type": "Feature", "properties": { "service_name": "Булочные Ф. Вольчека", "municipality": "Сосновское", "administrative_unit": "Выборгский район", "Широта": 60.038078, "Долгота": 30.326786, "address": "проспект Энгельса, 113 к2" }, "geometry": { "type": "Point", "coordinates": [ 30.326786, 60.038078 ] } },
{ "type": "Feature", "properties": { "service_name": "Булочные Ф. Вольчека", "municipality": "Парголово пос.", "administrative_unit": "Выборгский район", "Широта": 60.072059, "Долгота": 30.336987, "address": "улица Фёдора Абрамова, 8" }, "geometry": { "type": "Point", "coordinates": [ 30.336987, 60.072059 ] } },
{ "type": "Feature", "properties": { "service_name": "Булочные Ф. Вольчека", "municipality": "Прометей", "administrative_unit": "Калининский район", "Широта": 60.040319, "Долгота": 30.398258, "address": "Светлановский проспект, 66" }, "geometry": { "type": "Point", "coordinates": [ 30.398258, 60.040319 ] } },
{ "type": "Feature", "properties": { "service_name": "Булочные Ф. Вольчека", "municipality": "Остров Декабристов", "administrative_unit": "Василеостровский район", "Широта": 59.949109, "Долгота": 30.231453, "address": null }, "geometry": { "type": "Point", "coordinates": [ 30.231453, 59.949109 ] } },
{ "type": "Feature", "properties": { "service_name": "Булочные Ф. Вольчека", "municipality": "Сестрорецк г.", "administrative_unit": "Курортный район", "Широта": 60.101607, "Долгота": 29.971924, "address": "Борисова, 4" }, "geometry": { "type": "Point", "coordinates": [ 29.971924, 60.101607 ] } },
{ "type": "Feature", "properties": { "service_name": "Грузинская пекарня", "municipality": "Правобережный", "administrative_unit": "Невский район", "Широта": 59.918834, "Долгота": 30.464157, "address": "улица Коллонтай, 18Б" }, "geometry": { "type": "Point", "coordinates": [ 30.464157, 59.918834 ] } },
{ "type": "Feature", "properties": { "service_name": "Грузинская пекарня", "municipality": "Правобережный", "administrative_unit": "Невский район", "Широта": 59.926248, "Долгота": 30.471569, "address": "Российский проспект, 8Б" }, "geometry": { "type": "Point", "coordinates": [ 30.471569, 59.926248 ] } },
{ "type": "Feature", "properties": { "service_name": "Матрёшка", "municipality": "Сосновая Поляна", "administrative_unit": "Красносельский район", "Широта": 59.839186, "Долгота": 30.156994, "address": "Тамбасова, 3 к1 ст1" }, "geometry": { "type": "Point", "coordinates": [ 30.156994, 59.839186 ] } },
{ "type": "Feature", "properties": { "service_name": "Машенькины пироги", "municipality": "Невская застава", "administrative_unit": "Невский район", "Широта": 59.90723, "Долгота": 30.385561, "address": "Фаянсовая, 26" }, "geometry": { "type": "Point", "coordinates": [ 30.385561, 59.90723 ] } },
{ "type": "Feature", "properties": { "service_name": "Север-Метрополь", "municipality": "Гавань", "administrative_unit": "Василеостровский район", "Широта": 59.93762, "Долгота": 30.237466, "address": "Малый проспект В.О., 82" }, "geometry": { "type": "Point", "coordinates": [ 30.237466, 59.93762 ] } },
{ "type": "Feature", "properties": { "service_name": "Семейная", "municipality": "Парголово пос.", "administrative_unit": "Выборгский район", "Широта": 60.079364, "Долгота": 30.344223, "address": "улица Фёдора Абрамова, 21 к2" }, "geometry": { "type": "Point", "coordinates": [ 30.344223, 60.079364 ] } },
{ "type": "Feature", "properties": { "service_name": "Семейная", "municipality": "Волковское", "administrative_unit": "Фрунзенский район", "Широта": 59.887033, "Долгота": 30.359193, "address": "Стрельбищенская, 16" }, "geometry": { "type": "Point", "coordinates": [ 30.359193, 59.887033 ] } },
{ "type": "Feature", "properties": { "service_name": "Семейная грузинская пекарня", "municipality": "Парголово пос.", "administrative_unit": "Выборгский район", "Широта": 60.079373, "Долгота": 30.344099, "address": "улица Фёдора Абрамова, 21 к1 лит А" }, "geometry": { "type": "Point", "coordinates": [ 30.344099, 60.079373 ] } },
{ "type": "Feature", "properties": { "service_name": "Сёстры", "municipality": "Екатерингофский", "administrative_unit": "Адмиралтейский район", "Широта": 59.901872, "Долгота": 30.272627, "address": "Перекопская, 1" }, "geometry": { "type": "Point", "coordinates": [ 30.272627, 59.901872 ] } },
{ "type": "Feature", "properties": { "service_name": "Буше", "municipality": "Муниципальный округ №78", "administrative_unit": "Центральный район", "Широта": 59.934581, "Долгота": 30.326511, "address": "набережная канала Грибоедова, 18-20" }, "geometry": { "type": "Point", "coordinates": [ 30.326511, 59.934581 ] } },
{ "type": "Feature", "properties": { "service_name": "Буше", "municipality": "Владимирский", "administrative_unit": "Центральный район", "Широта": 59.930781, "Долгота": 30.354747, "address": "улица Марата, 3" }, "geometry": { "type": "Point", "coordinates": [ 30.354747, 59.930781 ] } },
{ "type": "Feature", "properties": { "service_name": "Буше", "municipality": "Измайловское", "administrative_unit": "Адмиралтейский район", "Широта": 59.913779, "Долгота": 30.317917, "address": "Московский проспект, 35" }, "geometry": { "type": "Point", "coordinates": [ 30.317917, 59.913779 ] } },
{ "type": "Feature", "properties": { "service_name": "Буше", "municipality": "Смольнинское", "administrative_unit": "Центральный район", "Широта": 59.941413, "Долгота": 30.366385, "address": "Парадная, 3 к2" }, "geometry": { "type": "Point", "coordinates": [ 30.366385, 59.941413 ] } },
{ "type": "Feature", "properties": { "service_name": "Буше", "municipality": "Комендантский аэродром", "administrative_unit": "Приморский район", "Широта": 60.004927, "Долгота": 30.30021, "address": "Коломяжский проспект, 17 к1" }, "geometry": { "type": "Point", "coordinates": [ 30.30021, 60.004927 ] } },
{ "type": "Feature", "properties": { "service_name": "Буше", "municipality": "Невский", "administrative_unit": "Невский район", "Широта": 59.911863, "Долгота": 30.445981, "address": "улица Коллонтай, 3" }, "geometry": { "type": "Point", "coordinates": [ 30.445981, 59.911863 ] } },
{ "type": "Feature", "properties": { "service_name": "Грузинская пекарня", "municipality": "Остров Декабристов", "administrative_unit": "Василеостровский район", "Широта": 59.956102, "Долгота": 30.225175, "address": "улица Кораблестроителей, 33 к1 лит А" }, "geometry": { "type": "Point", "coordinates": [ 30.225175, 59.956102 ] } },
{ "type": "Feature", "properties": { "service_name": "Грузинская пекарня", "municipality": "Сестрорецк г.", "administrative_unit": "Курортный район", "Широта": 60.093562, "Долгота": 29.962283, "address": null }, "geometry": { "type": "Point", "coordinates": [ 29.962283, 60.093562 ] } },
{ "type": "Feature", "properties": { "service_name": "Грузинская пекарня", "municipality": "Нарвский", "administrative_unit": "Кировский район", "Широта": 59.888759, "Долгота": 30.270439, "address": "проспект Стачек, 32" }, "geometry": { "type": "Point", "coordinates": [ 30.270439, 59.888759 ] } },
{ "type": "Feature", "properties": { "service_name": "Сёстры", "municipality": "Муниципальный округ №15", "administrative_unit": "Выборгский район", "Широта": 60.040977, "Долгота": 30.369089, "address": "проспект Культуры, 12 к1" }, "geometry": { "type": "Point", "coordinates": [ 30.369089, 60.040977 ] } },
{ "type": "Feature", "properties": { "service_name": "Сёстры", "municipality": "Прометей", "administrative_unit": "Калининский район", "Широта": 60.040635, "Долгота": 30.3918, "address": "Ольги Форш, 13 к1" }, "geometry": { "type": "Point", "coordinates": [ 30.3918, 60.040635 ] } },
{ "type": "Feature", "properties": { "service_name": "Сёстры", "municipality": "Гражданка", "administrative_unit": "Калининский район", "Широта": 60.010051, "Долгота": 30.411688, "address": "проспект Науки, 18" }, "geometry": { "type": "Point", "coordinates": [ 30.411688, 60.010051 ] } },
{ "type": "Feature", "properties": { "service_name": "Сёстры", "municipality": "Оккервиль", "administrative_unit": "Невский район", "Широта": 59.915445, "Долгота": 30.487477, "address": "Товарищеский проспект, 22 к1" }, "geometry": { "type": "Point", "coordinates": [ 30.487477, 59.915445 ] } },
{ "type": "Feature", "properties": { "service_name": "Сёстры", "municipality": "Невский", "administrative_unit": "Невский район", "Широта": 59.910404, "Долгота": 30.477848, "address": "Антонова-Овсеенко, 25 к1" }, "geometry": { "type": "Point", "coordinates": [ 30.477848, 59.910404 ] } },
{ "type": "Feature", "properties": { "service_name": "Сёстры", "municipality": "Светлановское", "administrative_unit": "Выборгский район", "Широта": 60.01794, "Долгота": 30.32144, "address": "проспект Энгельса, 68" }, "geometry": { "type": "Point", "coordinates": [ 30.32144, 60.01794 ] } },
{ "type": "Feature", "properties": { "service_name": "Сёстры", "municipality": "Муниципальный округ №15", "administrative_unit": "Выборгский район", "Широта": 60.043413, "Долгота": 30.350419, "address": "проспект Художников, 27 к1" }, "geometry": { "type": "Point", "coordinates": [ 30.350419, 60.043413 ] } },
{ "type": "Feature", "properties": { "service_name": "Буше", "municipality": "Васильевский", "administrative_unit": "Василеостровский район", "Широта": 59.943019, "Долгота": 30.277623, "address": "Средний проспект В.О., 33" }, "geometry": { "type": "Point", "coordinates": [ 30.277623, 59.943019 ] } },
{ "type": "Feature", "properties": { "service_name": "Буше", "municipality": "Владимирский", "administrative_unit": "Центральный район", "Широта": 59.924693, "Долгота": 30.34563, "address": "Разъезжая, 13" }, "geometry": { "type": "Point", "coordinates": [ 30.34563, 59.924693 ] } },
{ "type": "Feature", "properties": { "service_name": "Буше", "municipality": "Пулковский меридиан", "administrative_unit": "Московский район", "Широта": 59.866344, "Долгота": 30.318794, "address": "Московский проспект, 165" }, "geometry": { "type": "Point", "coordinates": [ 30.318794, 59.866344 ] } },
{ "type": "Feature", "properties": { "service_name": "Буше", "municipality": "Московская застава", "administrative_unit": "Московский район", "Широта": 59.879727, "Долгота": 30.319212, "address": "Московский проспект, 139 к1" }, "geometry": { "type": "Point", "coordinates": [ 30.319212, 59.879727 ] } },
{ "type": "Feature", "properties": { "service_name": "Буше", "municipality": "Ланское", "administrative_unit": "Приморский район", "Широта": 59.987511, "Долгота": 30.261802, "address": "улица Школьная, 41" }, "geometry": { "type": "Point", "coordinates": [ 30.261802, 59.987511 ] } },
{ "type": "Feature", "properties": { "service_name": "Буше", "municipality": "Оккервиль", "administrative_unit": "Невский район", "Широта": 59.908061, "Долгота": 30.483115, "address": "проспект Большевиков, 18" }, "geometry": { "type": "Point", "coordinates": [ 30.483115, 59.908061 ] } },
{ "type": "Feature", "properties": { "service_name": "Буше", "municipality": "Шувалово-Озерки", "administrative_unit": "Выборгский район", "Широта": 60.051826, "Долгота": 30.332644, "address": "проспект Просвещения, 19 лит А" }, "geometry": { "type": "Point", "coordinates": [ 30.332644, 60.051826 ] } },
{ "type": "Feature", "properties": { "service_name": "Скворец", "municipality": "Невская застава", "administrative_unit": "Невский район", "Широта": 59.902687, "Долгота": 30.426118, "address": "Общественный переулок, 5" }, "geometry": { "type": "Point", "coordinates": [ 30.426118, 59.902687 ] } },
{ "type": "Feature", "properties": { "service_name": "Буше", "municipality": "Южно-Приморский", "administrative_unit": "Красносельский район", "Широта": 59.84955, "Долгота": 30.143107, "address": "Петергофское шоссе, 51" }, "geometry": { "type": "Point", "coordinates": [ 30.143107, 59.84955 ] } },
{ "type": "Feature", "properties": { "service_name": "Скворец", "municipality": "Ивановский", "administrative_unit": "Невский район", "Широта": 59.882179, "Долгота": 30.43465, "address": "улица Бабушкина, 55 к1 ст1" }, "geometry": { "type": "Point", "coordinates": [ 30.43465, 59.882179 ] } },
{ "type": "Feature", "properties": { "service_name": "Сладкий город", "municipality": "Комендантский аэродром", "administrative_unit": "Приморский район", "Широта": 60.006075, "Долгота": 30.290256, "address": "аллея Поликарпова, 6 к2" }, "geometry": { "type": "Point", "coordinates": [ 30.290256, 60.006075 ] } },
{ "type": "Feature", "properties": { "service_name": "Между булочек", "municipality": "Екатерингофский", "administrative_unit": "Адмиралтейский район", "Широта": 59.914117, "Долгота": 30.296971, "address": "Лермонтовский проспект, 43" }, "geometry": { "type": "Point", "coordinates": [ 30.296971, 59.914117 ] } },
{ "type": "Feature", "properties": { "service_name": "Сладкоежка", "municipality": "Муниципальный округ №78", "administrative_unit": "Центральный район", "Широта": 59.926935, "Долгота": 30.324552, "address": "Гороховая, 44" }, "geometry": { "type": "Point", "coordinates": [ 30.324552, 59.926935 ] } },
{ "type": "Feature", "properties": { "service_name": "Ам!", "municipality": "Академическое", "administrative_unit": "Калининский район", "Широта": 59.999588, "Долгота": 30.366044, "address": "улица Политехническая, 17 к1" }, "geometry": { "type": "Point", "coordinates": [ 30.366044, 59.999588 ] } },
{ "type": "Feature", "properties": { "service_name": "Булочные Ф. Вольчека", "municipality": "Гавань", "administrative_unit": "Василеостровский район", "Широта": 59.937944, "Долгота": 30.236103, "address": "Малый проспект В.О., 75" }, "geometry": { "type": "Point", "coordinates": [ 30.236103, 59.937944 ] } },
{ "type": "Feature", "properties": { "service_name": "Булочные Ф. Вольчека", "municipality": "Смольнинское", "administrative_unit": "Центральный район", "Широта": 59.94032, "Долгота": 30.360766, "address": "Восстания, 43" }, "geometry": { "type": "Point", "coordinates": [ 30.360766, 59.94032 ] } },
{ "type": "Feature", "properties": { "service_name": "Булочные Ф. Вольчека", "municipality": "Лиговка-Ямская", "administrative_unit": "Центральный район", "Широта": 59.92562, "Долгота": 30.379006, "address": "Невский проспект, 151" }, "geometry": { "type": "Point", "coordinates": [ 30.379006, 59.92562 ] } },
{ "type": "Feature", "properties": { "service_name": "Булочные Ф. Вольчека", "municipality": "Смольнинское", "administrative_unit": "Центральный район", "Широта": 59.934869, "Долгота": 30.378577, "address": "Мытнинская, 20" }, "geometry": { "type": "Point", "coordinates": [ 30.378577, 59.934869 ] } },
{ "type": "Feature", "properties": { "service_name": "Булочные Ф. Вольчека", "municipality": "Муниципальный округ №72", "administrative_unit": "Фрунзенский район", "Широта": 59.867362, "Долгота": 30.411932, "address": "улица Софийская, 57" }, "geometry": { "type": "Point", "coordinates": [ 30.411932, 59.867362 ] } },
{ "type": "Feature", "properties": { "service_name": "Булочные Ф. Вольчека", "municipality": "Коломяги", "administrative_unit": "Приморский район", "Широта": 60.031141, "Долгота": 30.238779, "address": "Комендантский проспект, 51 к1" }, "geometry": { "type": "Point", "coordinates": [ 30.238779, 60.031141 ] } },
{ "type": "Feature", "properties": { "service_name": "Булочные Ф. Вольчека", "municipality": "Звездное", "administrative_unit": "Московский район", "Широта": 59.836038, "Долгота": 30.352124, "address": "Пулковская, 10 к2" }, "geometry": { "type": "Point", "coordinates": [ 30.352124, 59.836038 ] } },
{ "type": "Feature", "properties": { "service_name": "Вкусно", "municipality": "Полюстрово", "administrative_unit": "Красногвардейский район", "Широта": 60.034046, "Долгота": 30.45438, "address": "Муринская дорога, 74 к1" }, "geometry": { "type": "Point", "coordinates": [ 30.45438, 60.034046 ] } },
{ "type": "Feature", "properties": { "service_name": "Грузинская пекарня", "municipality": "Муниципальный округ №65", "administrative_unit": "Приморский район", "Широта": 59.988623, "Долгота": 30.201095, "address": "улица Савушкина, 128 к1" }, "geometry": { "type": "Point", "coordinates": [ 30.201095, 59.988623 ] } },
{ "type": "Feature", "properties": { "service_name": "Грузинская пекарня", "municipality": "Финляндский", "administrative_unit": "Калининский район", "Широта": 59.978903, "Долгота": 30.374129, "address": "проспект Маршала Блюхера, 9 к2" }, "geometry": { "type": "Point", "coordinates": [ 30.374129, 59.978903 ] } },
{ "type": "Feature", "properties": { "service_name": "Месье Патиссье", "municipality": "Московская застава", "administrative_unit": "Московский район", "Широта": 59.891818, "Долгота": 30.318227, "address": "Московский проспект, 103Б" }, "geometry": { "type": "Point", "coordinates": [ 30.318227, 59.891818 ] } },
{ "type": "Feature", "properties": { "service_name": "Сладости Карелии", "municipality": "Петровский", "administrative_unit": "Петроградский район", "Широта": 59.960483, "Долгота": 30.298742, "address": "Ораниенбаумская, 13" }, "geometry": { "type": "Point", "coordinates": [ 30.298742, 59.960483 ] } },
{ "type": "Feature", "properties": { "service_name": "Сластена", "municipality": "Пушкин г.", "administrative_unit": "Пушкинский район", "Широта": 59.730431, "Долгота": 30.421725, "address": "бульвар Алексея Толстого, 1" }, "geometry": { "type": "Point", "coordinates": [ 30.421725, 59.730431 ] } },
{ "type": "Feature", "properties": { "service_name": "Слой", "municipality": "Измайловское", "administrative_unit": "Адмиралтейский район", "Широта": 59.911528, "Долгота": 30.31804, "address": "Московский проспект, 49" }, "geometry": { "type": "Point", "coordinates": [ 30.31804, 59.911528 ] } },
{ "type": "Feature", "properties": { "service_name": "Слойка", "municipality": "Большая Охта", "administrative_unit": "Красногвардейский район", "Широта": 59.939673, "Долгота": 30.41725, "address": "Брантовская дорога, 3" }, "geometry": { "type": "Point", "coordinates": [ 30.41725, 59.939673 ] } },
{ "type": "Feature", "properties": { "service_name": "Слойка Кофе", "municipality": "Волковское", "administrative_unit": "Фрунзенский район", "Широта": 59.904935, "Долгота": 30.341551, "address": "Лиговский проспект, 271" }, "geometry": { "type": "Point", "coordinates": [ 30.341551, 59.904935 ] } },
{ "type": "Feature", "properties": { "service_name": "Сойка на слойке", "municipality": "Муниципальный округ №65", "administrative_unit": "Приморский район", "Широта": 59.983648, "Долгота": 30.236819, "address": "Приморский проспект, 52 к1" }, "geometry": { "type": "Point", "coordinates": [ 30.236819, 59.983648 ] } },
{ "type": "Feature", "properties": { "service_name": "София", "municipality": "Юнтолово", "administrative_unit": "Приморский район", "Широта": 60.035158, "Долгота": 30.218466, "address": "Плесецкая, 14" }, "geometry": { "type": "Point", "coordinates": [ 30.218466, 60.035158 ] } },
{ "type": "Feature", "properties": { "service_name": "Стряпуха", "municipality": "Светлановское", "administrative_unit": "Выборгский район", "Широта": 60.01735, "Долгота": 30.314945, "address": "Удельный проспект, 25" }, "geometry": { "type": "Point", "coordinates": [ 30.314945, 60.01735 ] } },
{ "type": "Feature", "properties": { "service_name": "Стряпуха", "municipality": "Волковское", "administrative_unit": "Фрунзенский район", "Широта": 59.872473, "Долгота": 30.382004, "address": "Белы Куна, 8" }, "geometry": { "type": "Point", "coordinates": [ 30.382004, 59.872473 ] } },
{ "type": "Feature", "properties": { "service_name": "Сурхон Самса", "municipality": "Сенной", "administrative_unit": "Адмиралтейский район", "Широта": 59.924036, "Долгота": 30.319178, "address": "Московский проспект, 10-12 к1 лит Д" }, "geometry": { "type": "Point", "coordinates": [ 30.319178, 59.924036 ] } },
{ "type": "Feature", "properties": { "service_name": "Сытый круассан", "municipality": "Васильевский", "administrative_unit": "Василеостровский район", "Широта": 59.946648, "Долгота": 30.257037, "address": "17-я линия В.О., 70/12" }, "geometry": { "type": "Point", "coordinates": [ 30.257037, 59.946648 ] } },
{ "type": "Feature", "properties": { "service_name": "Сытый круассан", "municipality": "Озеро Долгое", "administrative_unit": "Приморский район", "Широта": 60.009579, "Долгота": 30.261287, "address": "улица Уточкина, 2 к1" }, "geometry": { "type": "Point", "coordinates": [ 30.261287, 60.009579 ] } },
{ "type": "Feature", "properties": { "service_name": "Т.Кофеев", "municipality": "Металлострой пос.", "administrative_unit": "Колпинский район", "Широта": 59.810023, "Долгота": 30.570894, "address": "Пионерская, 6" }, "geometry": { "type": "Point", "coordinates": [ 30.570894, 59.810023 ] } },
{ "type": "Feature", "properties": { "service_name": "Тандыр", "municipality": "Георгиевский", "administrative_unit": "Фрунзенский район", "Широта": 59.842004, "Долгота": 30.392655, "address": "улица Пловдивская, 9г" }, "geometry": { "type": "Point", "coordinates": [ 30.392655, 59.842004 ] } },
{ "type": "Feature", "properties": { "service_name": "Тандыр", "municipality": "Пулковский меридиан", "administrative_unit": "Московский район", "Широта": 59.853294, "Долгота": 30.315786, "address": "Ленинский проспект, 191а к3" }, "geometry": { "type": "Point", "coordinates": [ 30.315786, 59.853294 ] } },
{ "type": "Feature", "properties": { "service_name": "Тандыр", "municipality": "Автово", "administrative_unit": "Кировский район", "Широта": 59.879332, "Долгота": 30.266493, "address": "улица Васи Алексеева, 6в" }, "geometry": { "type": "Point", "coordinates": [ 30.266493, 59.879332 ] } },
{ "type": "Feature", "properties": { "service_name": "Тандыр", "municipality": "Прометей", "administrative_unit": "Калининский район", "Широта": 60.043853, "Долгота": 30.402706, "address": "Тимуровская, 13" }, "geometry": { "type": "Point", "coordinates": [ 30.402706, 60.043853 ] } },
{ "type": "Feature", "properties": { "service_name": "Тандыр", "municipality": "Муниципальный округ №15", "administrative_unit": "Выборгский район", "Широта": 60.037928, "Долгота": 30.358924, "address": "проспект Луначарского, 74Б" }, "geometry": { "type": "Point", "coordinates": [ 30.358924, 60.037928 ] } },
{ "type": "Feature", "properties": { "service_name": "Тандыр", "municipality": "Муниципальный округ №72", "administrative_unit": "Фрунзенский район", "Широта": 59.869533, "Долгота": 30.410422, "address": "улица Софийская, 44/1" }, "geometry": { "type": "Point", "coordinates": [ 30.410422, 59.869533 ] } },
{ "type": "Feature", "properties": { "service_name": "Тандыр плюс", "municipality": "Купчино", "administrative_unit": "Фрунзенский район", "Широта": 59.865114, "Долгота": 30.373339, "address": "Будапештская, 24 лит А" }, "geometry": { "type": "Point", "coordinates": [ 30.373339, 59.865114 ] } },
{ "type": "Feature", "properties": { "service_name": "Тапатошка", "municipality": "Пороховые", "administrative_unit": "Красногвардейский район", "Широта": 59.95625, "Долгота": 30.447926, "address": "Бокситогорская, 27 ст1" }, "geometry": { "type": "Point", "coordinates": [ 30.447926, 59.95625 ] } },
{ "type": "Feature", "properties": { "service_name": "Тёплого хлеба", "municipality": "Большая Охта", "administrative_unit": "Красногвардейский район", "Широта": 59.957869, "Долгота": 30.405732, "address": "Пискарёвский проспект, 1" }, "geometry": { "type": "Point", "coordinates": [ 30.405732, 59.957869 ] } },
{ "type": "Feature", "properties": { "service_name": "Тёплого хлеба", "municipality": "Аптекарский остров", "administrative_unit": "Петроградский район", "Широта": 59.975026, "Долгота": 30.316684, "address": "проспект Медиков, 10 к1" }, "geometry": { "type": "Point", "coordinates": [ 30.316684, 59.975026 ] } },
{ "type": "Feature", "properties": { "service_name": "Дедас пури", "municipality": "Кронверкское", "administrative_unit": "Петроградский район", "Широта": 59.957496, "Долгота": 30.308617, "address": "Сытнинская площадь, 3 к1" }, "geometry": { "type": "Point", "coordinates": [ 30.308617, 59.957496 ] } },
{ "type": "Feature", "properties": { "service_name": "Дедас пури", "municipality": "Муниципальный округ №7", "administrative_unit": "Василеостровский район", "Широта": 59.938986, "Долгота": 30.285267, "address": "Волжский переулок, 5а" }, "geometry": { "type": "Point", "coordinates": [ 30.285267, 59.938986 ] } },
{ "type": "Feature", "properties": { "service_name": "Джем", "municipality": "Полюстрово", "administrative_unit": "Красногвардейский район", "Широта": 59.962832, "Долгота": 30.43177, "address": "улица Маршала Тухачевского, 5 к1" }, "geometry": { "type": "Point", "coordinates": [ 30.43177, 59.962832 ] } },
{ "type": "Feature", "properties": { "service_name": "Дом Ленинградской Пышки", "municipality": "Озеро Долгое", "administrative_unit": "Приморский район", "Широта": 59.98984, "Долгота": 30.257273, "address": "Торфяная дорога, 7 лит А" }, "geometry": { "type": "Point", "coordinates": [ 30.257273, 59.98984 ] } },
{ "type": "Feature", "properties": { "service_name": "Домашний хлеб", "municipality": "Лиговка-Ямская", "administrative_unit": "Центральный район", "Широта": 59.927197, "Долгота": 30.374847, "address": "Невский проспект, 127" }, "geometry": { "type": "Point", "coordinates": [ 30.374847, 59.927197 ] } },
{ "type": "Feature", "properties": { "service_name": "Дон Батон", "municipality": "Муниципальный округ №78", "administrative_unit": "Центральный район", "Широта": 59.929958, "Долгота": 30.325011, "address": "улица Садовая, 25" }, "geometry": { "type": "Point", "coordinates": [ 30.325011, 59.929958 ] } },
{ "type": "Feature", "properties": { "service_name": "Дукани", "municipality": "Коломна", "administrative_unit": "Адмиралтейский район", "Широта": 59.917788, "Долгота": 30.289967, "address": "улица Садовая, 98" }, "geometry": { "type": "Point", "coordinates": [ 30.289967, 59.917788 ] } },
{ "type": "Feature", "properties": { "service_name": "Дукани", "municipality": "Гавань", "administrative_unit": "Василеостровский район", "Широта": 59.930797, "Долгота": 30.24556, "address": "Среднегаванский проспект, 7" }, "geometry": { "type": "Point", "coordinates": [ 30.24556, 59.930797 ] } },
{ "type": "Feature", "properties": { "service_name": "Есть хлеб", "municipality": "Парголово пос.", "administrative_unit": "Выборгский район", "Широта": 60.079247, "Долгота": 30.335095, "address": "Валерия Гаврилина, 13 к1" }, "geometry": { "type": "Point", "coordinates": [ 30.335095, 60.079247 ] } },
{ "type": "Feature", "properties": { "service_name": "Тёплого хлеба", "municipality": "Ланское", "administrative_unit": "Приморский район", "Широта": 59.981868, "Долгота": 30.317049, "address": "Ушаковская набережная, 3 к2" }, "geometry": { "type": "Point", "coordinates": [ 30.317049, 59.981868 ] } },
{ "type": "Feature", "properties": { "service_name": "Тёплого хлеба", "municipality": "Большая Охта", "administrative_unit": "Красногвардейский район", "Широта": 59.938282, "Долгота": 30.436148, "address": "проспект Энергетиков, 9 к1" }, "geometry": { "type": "Point", "coordinates": [ 30.436148, 59.938282 ] } },
{ "type": "Feature", "properties": { "service_name": "Тёплого хлеба", "municipality": "Измайловское", "administrative_unit": "Адмиралтейский район", "Широта": 59.904511, "Долгота": 30.314919, "address": "Московский проспект, 73 к5" }, "geometry": { "type": "Point", "coordinates": [ 30.314919, 59.904511 ] } },
{ "type": "Feature", "properties": { "service_name": "Тёплого хлеба", "municipality": "Петровский", "administrative_unit": "Петроградский район", "Широта": 59.963493, "Долгота": 30.270635, "address": "улица Пионерская, 50" }, "geometry": { "type": "Point", "coordinates": [ 30.270635, 59.963493 ] } },
{ "type": "Feature", "properties": { "service_name": "Тёплого хлеба", "municipality": "Сампсониевское", "administrative_unit": "Выборгский район", "Широта": 59.983089, "Долгота": 30.353928, "address": "Грибалёвой, 7 к1" }, "geometry": { "type": "Point", "coordinates": [ 30.353928, 59.983089 ] } },
{ "type": "Feature", "properties": { "service_name": "Тёплого хлеба", "municipality": "Муниципальный округ №65", "administrative_unit": "Приморский район", "Широта": 59.984146, "Долгота": 30.215203, "address": "Яхтенная, 1 к1" }, "geometry": { "type": "Point", "coordinates": [ 30.215203, 59.984146 ] } },
{ "type": "Feature", "properties": { "service_name": "Тёплого хлеба", "municipality": "Коломяги", "administrative_unit": "Приморский район", "Широта": 60.032365, "Долгота": 30.229276, "address": "Комендантский проспект, 56 ст1" }, "geometry": { "type": "Point", "coordinates": [ 30.229276, 60.032365 ] } },
{ "type": "Feature", "properties": { "service_name": "Тёплого хлеба", "municipality": "Ланское", "administrative_unit": "Приморский район", "Широта": 59.985656, "Долгота": 30.32291, "address": "Белоостровская, 10 к1 ст1" }, "geometry": { "type": "Point", "coordinates": [ 30.32291, 59.985656 ] } },
{ "type": "Feature", "properties": { "service_name": "Тёплого хлеба", "municipality": "Смольнинское", "administrative_unit": "Центральный район", "Широта": 59.943317, "Долгота": 30.394244, "address": "Смольный проспект, 17 ст1" }, "geometry": { "type": "Point", "coordinates": [ 30.394244, 59.943317 ] } },
{ "type": "Feature", "properties": { "service_name": "Тёплого хлеба", "municipality": "Муниципальный округ №65", "administrative_unit": "Приморский район", "Широта": 60.003575, "Долгота": 30.196276, "address": "улица Оптиков, 51 к1" }, "geometry": { "type": "Point", "coordinates": [ 30.196276, 60.003575 ] } },
{ "type": "Feature", "properties": { "service_name": "Тёплого хлеба", "municipality": "Комендантский аэродром", "administrative_unit": "Приморский район", "Широта": 60.013398, "Долгота": 30.312909, "address": "Фермское шоссе, 16" }, "geometry": { "type": "Point", "coordinates": [ 30.312909, 60.013398 ] } },
{ "type": "Feature", "properties": { "service_name": "Тёплого хлеба", "municipality": "Лиговка-Ямская", "administrative_unit": "Центральный район", "Широта": 59.923372, "Долгота": 30.371733, "address": "Кременчугская улица, 9 к1" }, "geometry": { "type": "Point", "coordinates": [ 30.371733, 59.923372 ] } },
{ "type": "Feature", "properties": { "service_name": "Тёплого хлеба", "municipality": "Муниципальный округ №54", "administrative_unit": "Невский район", "Широта": 59.899273, "Долгота": 30.453544, "address": "улица Дыбенко, 5 к3 ст1" }, "geometry": { "type": "Point", "coordinates": [ 30.453544, 59.899273 ] } },
{ "type": "Feature", "properties": { "service_name": "Теплое место", "municipality": "Муниципальный округ №7", "administrative_unit": "Василеостровский район", "Широта": 59.937945, "Долгота": 30.276951, "address": "Большой проспект В.О., 39" }, "geometry": { "type": "Point", "coordinates": [ 30.276951, 59.937945 ] } },
{ "type": "Feature", "properties": { "service_name": "Тёплый хлеб", "municipality": "Екатерингофский", "administrative_unit": "Адмиралтейский район", "Широта": 59.907387, "Долгота": 30.297183, "address": "Библиотечный переулок, 6" }, "geometry": { "type": "Point", "coordinates": [ 30.297183, 59.907387 ] } },
{ "type": "Feature", "properties": { "service_name": "Тесто место", "municipality": "Литейный", "administrative_unit": "Центральный район", "Широта": 59.945353, "Долгота": 30.357252, "address": "улица Фурштатская, 32" }, "geometry": { "type": "Point", "coordinates": [ 30.357252, 59.945353 ] } },
{ "type": "Feature", "properties": { "service_name": "Тестолюб", "municipality": "Финляндский", "administrative_unit": "Калининский район", "Широта": 59.956939, "Долгота": 30.363315, "address": "Михайлова, 17 лит В" }, "geometry": { "type": "Point", "coordinates": [ 30.363315, 59.956939 ] } },
{ "type": "Feature", "properties": { "service_name": "Тили-тесто", "municipality": "Звездное", "administrative_unit": "Московский район", "Широта": 59.853594, "Долгота": 30.324298, "address": "улица Типанова, 3а киоск" }, "geometry": { "type": "Point", "coordinates": [ 30.324298, 59.853594 ] } },
{ "type": "Feature", "properties": { "service_name": "Тили-тесто", "municipality": "Семёновский", "administrative_unit": "Адмиралтейский район", "Широта": 59.92009, "Долгота": 30.318183, "address": "Московский проспект, 20" }, "geometry": { "type": "Point", "coordinates": [ 30.318183, 59.92009 ] } },
{ "type": "Feature", "properties": { "service_name": "Тили-тесто", "municipality": "Звездное", "administrative_unit": "Московский район", "Широта": 59.850767, "Долгота": 30.324471, "address": "улица Типанова, 4в киоск" }, "geometry": { "type": "Point", "coordinates": [ 30.324471, 59.850767 ] } },
{ "type": "Feature", "properties": { "service_name": "Тили-тесто", "municipality": "Дачное", "administrative_unit": "Кировский район", "Широта": 59.84052, "Долгота": 30.238375, "address": null }, "geometry": { "type": "Point", "coordinates": [ 30.238375, 59.84052 ] } },
{ "type": "Feature", "properties": { "service_name": "Тили-тесто", "municipality": "Звездное", "administrative_unit": "Московский район", "Широта": 59.849192, "Долгота": 30.322832, "address": "Московский проспект, 216д киоск" }, "geometry": { "type": "Point", "coordinates": [ 30.322832, 59.849192 ] } },
{ "type": "Feature", "properties": { "service_name": "Тили-тесто", "municipality": "Георгиевский", "administrative_unit": "Фрунзенский район", "Широта": 59.83876, "Долгота": 30.385404, "address": "улица Купчинская, 15Б" }, "geometry": { "type": "Point", "coordinates": [ 30.385404, 59.83876 ] } },
{ "type": "Feature", "properties": { "service_name": "Тили-тесто", "municipality": "Измайловское", "administrative_unit": "Адмиралтейский район", "Широта": 59.913332, "Долгота": 30.31773, "address": "Московский проспект, 37а" }, "geometry": { "type": "Point", "coordinates": [ 30.31773, 59.913332 ] } },
{ "type": "Feature", "properties": { "service_name": "Тили-тесто", "municipality": "Звездное", "administrative_unit": "Московский район", "Широта": 59.837134, "Долгота": 30.350684, "address": "Пулковская, 10 к1" }, "geometry": { "type": "Point", "coordinates": [ 30.350684, 59.837134 ] } },
{ "type": "Feature", "properties": { "service_name": "Тили-тесто", "municipality": "Коломна", "administrative_unit": "Адмиралтейский район", "Широта": 59.925643, "Долгота": 30.292894, "address": "улица Декабристов, 36" }, "geometry": { "type": "Point", "coordinates": [ 30.292894, 59.925643 ] } },
{ "type": "Feature", "properties": { "service_name": "Тили-тесто", "municipality": "Муниципальный округ №72", "administrative_unit": "Фрунзенский район", "Широта": 59.875828, "Долгота": 30.401633, "address": "улица Софийская, 24а" }, "geometry": { "type": "Point", "coordinates": [ 30.401633, 59.875828 ] } },
{ "type": "Feature", "properties": { "service_name": "Тили-тесто", "municipality": "Оккервиль", "administrative_unit": "Невский район", "Широта": 59.916868, "Долгота": 30.474235, "address": "проспект Большевиков, 2" }, "geometry": { "type": "Point", "coordinates": [ 30.474235, 59.916868 ] } },
{ "type": "Feature", "properties": { "service_name": "Тили-тесто", "municipality": "Введенский", "administrative_unit": "Петроградский район", "Широта": 59.952911, "Долгота": 30.29145, "address": "Большой проспект П.С., 3" }, "geometry": { "type": "Point", "coordinates": [ 30.29145, 59.952911 ] } },
{ "type": "Feature", "properties": { "service_name": "Тили-тесто", "municipality": "Измайловское", "administrative_unit": "Адмиралтейский район", "Широта": 59.915876, "Долгота": 30.309451, "address": "Измайловский проспект, 4" }, "geometry": { "type": "Point", "coordinates": [ 30.309451, 59.915876 ] } },
{ "type": "Feature", "properties": { "service_name": "Тили-тесто", "municipality": "Аптекарский остров", "administrative_unit": "Петроградский район", "Широта": 59.966559, "Долгота": 30.313014, "address": "Большой проспект П.С., 98" }, "geometry": { "type": "Point", "coordinates": [ 30.313014, 59.966559 ] } },
{ "type": "Feature", "properties": { "service_name": "Тоне", "municipality": "Шушары пос.", "administrative_unit": "Пушкинский район", "Широта": 59.810219, "Долгота": 30.366989, "address": "Новгородский проспект, 7 лит П" }, "geometry": { "type": "Point", "coordinates": [ 30.366989, 59.810219 ] } },
{ "type": "Feature", "properties": { "service_name": "Тоне N1", "municipality": "Академическое", "administrative_unit": "Калининский район", "Широта": 60.013888, "Долгота": 30.396151, "address": "Гражданский проспект, 66 к1" }, "geometry": { "type": "Point", "coordinates": [ 30.396151, 60.013888 ] } },
{ "type": "Feature", "properties": { "service_name": "ТортоФея", "municipality": "Дачное", "administrative_unit": "Кировский район", "Широта": 59.851449, "Долгота": 30.242543, "address": "Ленинский проспект, 111 к1" }, "geometry": { "type": "Point", "coordinates": [ 30.242543, 59.851449 ] } },
{ "type": "Feature", "properties": { "service_name": "Трдельник", "municipality": "Лиговка-Ямская", "administrative_unit": "Центральный район", "Широта": 59.927979, "Долгота": 30.360588, "address": "Лиговский проспект, 30" }, "geometry": { "type": "Point", "coordinates": [ 30.360588, 59.927979 ] } },
{ "type": "Feature", "properties": { "service_name": "Трдельник", "municipality": "Муниципальный округ №7", "administrative_unit": "Василеостровский район", "Широта": 59.939496, "Долгота": 30.285533, "address": "Большой проспект В.О., 16" }, "geometry": { "type": "Point", "coordinates": [ 30.285533, 59.939496 ] } },
{ "type": "Feature", "properties": { "service_name": "Трдельник", "municipality": "Литейный", "administrative_unit": "Центральный район", "Широта": 59.941304, "Долгота": 30.36037, "address": "Восстания, 36" }, "geometry": { "type": "Point", "coordinates": [ 30.36037, 59.941304 ] } },
{ "type": "Feature", "properties": { "service_name": "Трдельник&Кофе", "municipality": "Светлановское", "administrative_unit": "Выборгский район", "Широта": 60.017126, "Долгота": 30.315216, "address": "Удельный проспект, 25" }, "geometry": { "type": "Point", "coordinates": [ 30.315216, 60.017126 ] } },
{ "type": "Feature", "properties": { "service_name": "Три Тандыра", "municipality": "Смольнинское", "administrative_unit": "Центральный район", "Широта": 59.937991, "Долгота": 30.394214, "address": "Красного Текстильщика, 10-12 лит Ю" }, "geometry": { "type": "Point", "coordinates": [ 30.394214, 59.937991 ] } },
{ "type": "Feature", "properties": { "service_name": "Тутпекут", "municipality": "Муниципальный округ №7", "administrative_unit": "Василеостровский район", "Широта": 59.929049, "Долгота": 30.259909, "address": "26-я линия В.О., 7" }, "geometry": { "type": "Point", "coordinates": [ 30.259909, 59.929049 ] } },
{ "type": "Feature", "properties": { "service_name": "Узбекская пекарня", "municipality": "Васильевский", "administrative_unit": "Василеостровский район", "Широта": 59.945896, "Долгота": 30.275642, "address": "6-я линия В.О., 43а" }, "geometry": { "type": "Point", "coordinates": [ 30.275642, 59.945896 ] } },
{ "type": "Feature", "properties": { "service_name": "Узбекские лепешки", "municipality": "Парголово пос.", "administrative_unit": "Выборгский район", "Широта": 60.06802, "Долгота": 30.334713, "address": "улица Михаила Дудина, 15 к1 ст2" }, "geometry": { "type": "Point", "coordinates": [ 30.334713, 60.06802 ] } },
{ "type": "Feature", "properties": { "service_name": "Уютное местечко", "municipality": "Пискарёвка", "administrative_unit": "Калининский район", "Широта": 59.98952, "Долгота": 30.367441, "address": "Кушелевская дорога, 6 к1" }, "geometry": { "type": "Point", "coordinates": [ 30.367441, 59.98952 ] } },
{ "type": "Feature", "properties": { "service_name": "Футура", "municipality": "Екатерингофский", "administrative_unit": "Адмиралтейский район", "Широта": 59.910407, "Долгота": 30.284816, "address": "набережная Обводного канала, 199-201 лит Л" }, "geometry": { "type": "Point", "coordinates": [ 30.284816, 59.910407 ] } },
{ "type": "Feature", "properties": { "service_name": "Хачапури hot лаваш", "municipality": "Муниципальный округ №72", "administrative_unit": "Фрунзенский район", "Широта": 59.860046, "Долгота": 30.39413, "address": "улица Бухарестская, 96" }, "geometry": { "type": "Point", "coordinates": [ 30.39413, 59.860046 ] } },
{ "type": "Feature", "properties": { "service_name": "Хачапурный дом", "municipality": "Пушкин г.", "administrative_unit": "Пушкинский район", "Широта": 59.705411, "Долгота": 30.406506, "address": "Кадетский бульвар, 22/12" }, "geometry": { "type": "Point", "coordinates": [ 30.406506, 59.705411 ] } },
{ "type": "Feature", "properties": { "service_name": "Есть хлеб", "municipality": "Коломяги", "administrative_unit": "Приморский район", "Широта": 60.033734, "Долгота": 30.227695, "address": "Комендантский проспект, 58 к1 ст1" }, "geometry": { "type": "Point", "coordinates": [ 30.227695, 60.033734 ] } },
{ "type": "Feature", "properties": { "service_name": "Буше", "municipality": "Муниципальный округ №78", "administrative_unit": "Центральный район", "Широта": 59.935986, "Долгота": 30.313342, "address": "Малая Морская, 7" }, "geometry": { "type": "Point", "coordinates": [ 30.313342, 59.935986 ] } },
{ "type": "Feature", "properties": { "service_name": "Хлеб да Еда", "municipality": "Муниципальный округ №65", "administrative_unit": "Приморский район", "Широта": 59.996565, "Долгота": 30.217252, "address": "Мебельная улица, 19 к2" }, "geometry": { "type": "Point", "coordinates": [ 30.217252, 59.996565 ] } },
{ "type": "Feature", "properties": { "service_name": "Хлеб да любовь", "municipality": "Дачное", "administrative_unit": "Кировский район", "Широта": 59.840631, "Долгота": 30.256225, "address": "Дачный проспект, 19" }, "geometry": { "type": "Point", "coordinates": [ 30.256225, 59.840631 ] } },
{ "type": "Feature", "properties": { "service_name": "Хлеб да любовь", "municipality": "Невская застава", "administrative_unit": "Невский район", "Широта": 59.896469, "Долгота": 30.424274, "address": "проспект Елизарова, 12" }, "geometry": { "type": "Point", "coordinates": [ 30.424274, 59.896469 ] } },
{ "type": "Feature", "properties": { "service_name": "Хлеб да любовь", "municipality": "Колпино г.", "administrative_unit": "Колпинский район", "Широта": 59.750741, "Долгота": 30.576799, "address": "проспект Ленина, 29" }, "geometry": { "type": "Point", "coordinates": [ 30.576799, 59.750741 ] } },
{ "type": "Feature", "properties": { "service_name": "Хлеб да любовь", "municipality": "Дачное", "administrative_unit": "Кировский район", "Широта": 59.841542, "Долгота": 30.252464, "address": "бульвар Новаторов, 102 к1" }, "geometry": { "type": "Point", "coordinates": [ 30.252464, 59.841542 ] } },
{ "type": "Feature", "properties": { "service_name": "Хлеб и пицца", "municipality": "Пискарёвка", "administrative_unit": "Калининский район", "Широта": 59.984964, "Долгота": 30.39577, "address": "Кондратьевский проспект, 68 к4 ст1" }, "geometry": { "type": "Point", "coordinates": [ 30.39577, 59.984964 ] } },
{ "type": "Feature", "properties": { "service_name": "Хлеб и булочка", "municipality": "Балканский", "administrative_unit": "Фрунзенский район", "Широта": 59.830562, "Долгота": 30.378197, "address": "Балканская площадь, 5 лит О" }, "geometry": { "type": "Point", "coordinates": [ 30.378197, 59.830562 ] } },
{ "type": "Feature", "properties": { "service_name": "Хлеб и тандыр", "municipality": "Морской", "administrative_unit": "Василеостровский район", "Широта": 59.945851, "Долгота": 30.215378, "address": "улица Кораблестроителей, 21 к1" }, "geometry": { "type": "Point", "coordinates": [ 30.215378, 59.945851 ] } },
{ "type": "Feature", "properties": { "service_name": "Булочные Ф. Вольчека", "municipality": "Южно-Приморский", "administrative_unit": "Красносельский район", "Широта": 59.863827, "Долгота": 30.171888, "address": "Ленинский проспект, 64 к1 лит А" }, "geometry": { "type": "Point", "coordinates": [ 30.171888, 59.863827 ] } },
{ "type": "Feature", "properties": { "service_name": "Булочные Ф. Вольчека", "municipality": "Муниципальный округ №7", "administrative_unit": "Василеостровский район", "Широта": 59.940518, "Долгота": 30.281357, "address": "7-я линия В.О., 30" }, "geometry": { "type": "Point", "coordinates": [ 30.281357, 59.940518 ] } },
{ "type": "Feature", "properties": { "service_name": "Булочные Ф. Вольчека", "municipality": "Посадский", "administrative_unit": "Петроградский район", "Широта": 59.95699, "Долгота": 30.322039, "address": "Малая Посадская, 7/4" }, "geometry": { "type": "Point", "coordinates": [ 30.322039, 59.95699 ] } },
{ "type": "Feature", "properties": { "service_name": "Булочные Ф. Вольчека", "municipality": "Адмиралтейский", "administrative_unit": "Адмиралтейский район", "Широта": 59.92435, "Долгота": 30.305629, "address": "проспект Римского-Корсакова, 8" }, "geometry": { "type": "Point", "coordinates": [ 30.305629, 59.92435 ] } },
{ "type": "Feature", "properties": { "service_name": "Булочные Ф. Вольчека", "municipality": "Васильевский", "administrative_unit": "Василеостровский район", "Широта": 59.945549, "Долгота": 30.268704, "address": "Малый проспект В.О., 33" }, "geometry": { "type": "Point", "coordinates": [ 30.268704, 59.945549 ] } },
{ "type": "Feature", "properties": { "service_name": "Булочные Ф. Вольчека", "municipality": "Екатерингофский", "administrative_unit": "Адмиралтейский район", "Широта": 59.910664, "Долгота": 30.297462, "address": "Лермонтовский проспект, 55" }, "geometry": { "type": "Point", "coordinates": [ 30.297462, 59.910664 ] } },
{ "type": "Feature", "properties": { "service_name": "Ам!", "municipality": "Московская застава", "administrative_unit": "Московский район", "Широта": 59.888678, "Долгота": 30.320594, "address": "Московский проспект, 130" }, "geometry": { "type": "Point", "coordinates": [ 30.320594, 59.888678 ] } },
{ "type": "Feature", "properties": { "service_name": "Арго", "municipality": "Адмиралтейский", "administrative_unit": "Адмиралтейский район", "Широта": 59.931308, "Долгота": 30.293784, "address": "площадь Труда, 6" }, "geometry": { "type": "Point", "coordinates": [ 30.293784, 59.931308 ] } },
{ "type": "Feature", "properties": { "service_name": "Булочные Ф. Вольчека", "municipality": "Коломна", "administrative_unit": "Адмиралтейский район", "Широта": 59.917669, "Долгота": 30.290073, "address": "улица Садовая, 98" }, "geometry": { "type": "Point", "coordinates": [ 30.290073, 59.917669 ] } },
{ "type": "Feature", "properties": { "service_name": "Жар-птица", "municipality": "Владимирский", "administrative_unit": "Центральный район", "Широта": 59.923764, "Долгота": 30.355938, "address": "Лиговский проспект, 89" }, "geometry": { "type": "Point", "coordinates": [ 30.355938, 59.923764 ] } },
{ "type": "Feature", "properties": { "service_name": "Хлеб из тандыра", "municipality": "Полюстрово", "administrative_unit": "Красногвардейский район", "Широта": 60.035459, "Долгота": 30.451962, "address": "Муринская дорога, 78" }, "geometry": { "type": "Point", "coordinates": [ 30.451962, 60.035459 ] } },
{ "type": "Feature", "properties": { "service_name": "Хлеб из тандыра", "municipality": "Муниципальный округ №15", "administrative_unit": "Выборгский район", "Широта": 60.045681, "Долгота": 30.37339, "address": "проспект Культуры, 20 лит А" }, "geometry": { "type": "Point", "coordinates": [ 30.37339, 60.045681 ] } },
{ "type": "Feature", "properties": { "service_name": "Хлебstory", "municipality": "Рыбацкое", "administrative_unit": "Невский район", "Широта": 59.845864, "Долгота": 30.484913, "address": "проспект Обуховской Обороны, 138 к2 лит А" }, "geometry": { "type": "Point", "coordinates": [ 30.484913, 59.845864 ] } },
{ "type": "Feature", "properties": { "service_name": "Арго", "municipality": "Гавань", "administrative_unit": "Василеостровский район", "Широта": 59.930704, "Долгота": 30.246139, "address": "Среднегаванский проспект, 6" }, "geometry": { "type": "Point", "coordinates": [ 30.246139, 59.930704 ] } },
{ "type": "Feature", "properties": { "service_name": "Булочные Ф. Вольчека", "municipality": "Владимирский", "administrative_unit": "Центральный район", "Широта": 59.928481, "Долгота": 30.35897, "address": "Лиговский проспект, 57" }, "geometry": { "type": "Point", "coordinates": [ 30.35897, 59.928481 ] } },
{ "type": "Feature", "properties": { "service_name": "Булочные Ф. Вольчека", "municipality": "Сенной", "administrative_unit": "Адмиралтейский район", "Широта": 59.930243, "Долгота": 30.319178, "address": "набережная канала Грибоедова, 42" }, "geometry": { "type": "Point", "coordinates": [ 30.319178, 59.930243 ] } },
{ "type": "Feature", "properties": { "service_name": "Булочные Ф. Вольчека", "municipality": "Владимирский", "administrative_unit": "Центральный район", "Широта": 59.922101, "Долгота": 30.348569, "address": "Боровая, 6" }, "geometry": { "type": "Point", "coordinates": [ 30.348569, 59.922101 ] } },
{ "type": "Feature", "properties": { "service_name": "Булочные Ф. Вольчека", "municipality": "Владимирский", "administrative_unit": "Центральный район", "Широта": 59.927535, "Долгота": 30.350932, "address": "Кузнечный переулок, 8" }, "geometry": { "type": "Point", "coordinates": [ 30.350932, 59.927535 ] } },
{ "type": "Feature", "properties": { "service_name": "Булочные Ф. Вольчека", "municipality": "Литейный", "administrative_unit": "Центральный район", "Широта": 59.941831, "Долгота": 30.345051, "address": "Моховая, 27-29" }, "geometry": { "type": "Point", "coordinates": [ 30.345051, 59.941831 ] } },
{ "type": "Feature", "properties": { "service_name": "Булочные Ф. Вольчека", "municipality": "Коломна", "administrative_unit": "Адмиралтейский район", "Широта": 59.922351, "Долгота": 30.285365, "address": "Союза Печатников, 27" }, "geometry": { "type": "Point", "coordinates": [ 30.285365, 59.922351 ] } },
{ "type": "Feature", "properties": { "service_name": "Булочные Ф. Вольчека", "municipality": "Владимирский", "administrative_unit": "Центральный район", "Широта": 59.924114, "Долгота": 30.353513, "address": "Свечной переулок, 16" }, "geometry": { "type": "Point", "coordinates": [ 30.353513, 59.924114 ] } },
{ "type": "Feature", "properties": { "service_name": "Булочные Ф. Вольчека", "municipality": "Московская застава", "administrative_unit": "Московский район", "Широта": 59.888725, "Долгота": 30.325233, "address": "Коли Томчака, 18/26" }, "geometry": { "type": "Point", "coordinates": [ 30.325233, 59.888725 ] } },
{ "type": "Feature", "properties": { "service_name": "Булочные Ф. Вольчека", "municipality": "Литейный", "administrative_unit": "Центральный район", "Широта": 59.938529, "Долгота": 30.354958, "address": "Маяковского, 28" }, "geometry": { "type": "Point", "coordinates": [ 30.354958, 59.938529 ] } },
{ "type": "Feature", "properties": { "service_name": "Булочные Ф. Вольчека", "municipality": "Петровский", "administrative_unit": "Петроградский район", "Широта": 59.960462, "Долгота": 30.290535, "address": "Чкаловский проспект, 11" }, "geometry": { "type": "Point", "coordinates": [ 30.290535, 59.960462 ] } },
{ "type": "Feature", "properties": { "service_name": "Булочные Ф. Вольчека", "municipality": "Введенский", "administrative_unit": "Петроградский район", "Широта": 59.95227, "Долгота": 30.296967, "address": "Блохина, 23" }, "geometry": { "type": "Point", "coordinates": [ 30.296967, 59.95227 ] } },
{ "type": "Feature", "properties": { "service_name": "Булочные Ф. Вольчека", "municipality": "Сенной", "administrative_unit": "Адмиралтейский район", "Широта": 59.927603, "Долгота": 30.31139, "address": "Гражданская, 18/7" }, "geometry": { "type": "Point", "coordinates": [ 30.31139, 59.927603 ] } },
{ "type": "Feature", "properties": { "service_name": "Булочные Ф. Вольчека", "municipality": "Смольнинское", "administrative_unit": "Центральный район", "Широта": 59.93287, "Долгота": 30.368447, "address": "Суворовский проспект, 6" }, "geometry": { "type": "Point", "coordinates": [ 30.368447, 59.93287 ] } },
{ "type": "Feature", "properties": { "service_name": "Булочные Ф. Вольчека", "municipality": "Гавань", "administrative_unit": "Василеостровский район", "Широта": 59.931824, "Долгота": 30.241614, "address": "улица Гаванская, 19/100" }, "geometry": { "type": "Point", "coordinates": [ 30.241614, 59.931824 ] } },
{ "type": "Feature", "properties": { "service_name": "Булочные Ф. Вольчека", "municipality": "Нарвский", "administrative_unit": "Кировский район", "Широта": 59.899367, "Долгота": 30.275298, "address": "проспект Стачек, 4" }, "geometry": { "type": "Point", "coordinates": [ 30.275298, 59.899367 ] } },
{ "type": "Feature", "properties": { "service_name": "Булочные Ф. Вольчека", "municipality": "Сенной", "administrative_unit": "Адмиралтейский район", "Широта": 59.922327, "Долгота": 30.307799, "address": "Вознесенский проспект, 45" }, "geometry": { "type": "Point", "coordinates": [ 30.307799, 59.922327 ] } },
{ "type": "Feature", "properties": { "service_name": "Булочные Ф. Вольчека", "municipality": "Посадский", "administrative_unit": "Петроградский район", "Широта": 59.958205, "Долгота": 30.319132, "address": "Малая Посадская, 2" }, "geometry": { "type": "Point", "coordinates": [ 30.319132, 59.958205 ] } },
{ "type": "Feature", "properties": { "service_name": "Булочные Ф. Вольчека", "municipality": "Сампсониевское", "administrative_unit": "Выборгский район", "Широта": 59.982776, "Долгота": 30.346861, "address": "Александра Матросова, 9" }, "geometry": { "type": "Point", "coordinates": [ 30.346861, 59.982776 ] } },
{ "type": "Feature", "properties": { "service_name": "Булочные Ф. Вольчека", "municipality": "Аптекарский остров", "administrative_unit": "Петроградский район", "Широта": 59.963848, "Долгота": 30.302319, "address": "Малый проспект П.С., 72" }, "geometry": { "type": "Point", "coordinates": [ 30.302319, 59.963848 ] } },
{ "type": "Feature", "properties": { "service_name": "Булочные Ф. Вольчека", "municipality": "Новоизмайловское", "administrative_unit": "Московский район", "Широта": 59.871738, "Долгота": 30.311605, "address": "Кузнецовская, 26" }, "geometry": { "type": "Point", "coordinates": [ 30.311605, 59.871738 ] } },
{ "type": "Feature", "properties": { "service_name": "Булочные Ф. Вольчека", "municipality": "Нарвский", "administrative_unit": "Кировский район", "Широта": 59.887062, "Долгота": 30.26879, "address": "проспект Стачек, 40" }, "geometry": { "type": "Point", "coordinates": [ 30.26879, 59.887062 ] } },
{ "type": "Feature", "properties": { "service_name": "Булочные Ф. Вольчека", "municipality": "Смольнинское", "administrative_unit": "Центральный район", "Широта": 59.93819, "Долгота": 30.369879, "address": "Греческий проспект, 27" }, "geometry": { "type": "Point", "coordinates": [ 30.369879, 59.93819 ] } },
{ "type": "Feature", "properties": { "service_name": "Булочные Ф. Вольчека", "municipality": "Владимирский", "administrative_unit": "Центральный район", "Широта": 59.924989, "Долгота": 30.344809, "address": "Разъезжая, 11" }, "geometry": { "type": "Point", "coordinates": [ 30.344809, 59.924989 ] } },
{ "type": "Feature", "properties": { "service_name": "Булочные Ф. Вольчека", "municipality": "Невская застава", "administrative_unit": "Невский район", "Широта": 59.895923, "Долгота": 30.424899, "address": "улица Бабушкина, 14" }, "geometry": { "type": "Point", "coordinates": [ 30.424899, 59.895923 ] } },
{ "type": "Feature", "properties": { "service_name": "Булочные Ф. Вольчека", "municipality": "Большая Охта", "administrative_unit": "Красногвардейский район", "Широта": 59.953299, "Долгота": 30.415828, "address": "Среднеохтинский проспект, 25" }, "geometry": { "type": "Point", "coordinates": [ 30.415828, 59.953299 ] } },
{ "type": "Feature", "properties": { "service_name": "Булочные Ф. Вольчека", "municipality": "Малая Охта", "administrative_unit": "Красногвардейский район", "Широта": 59.925071, "Долгота": 30.415431, "address": "Новочеркасский проспект, 49" }, "geometry": { "type": "Point", "coordinates": [ 30.415431, 59.925071 ] } },
{ "type": "Feature", "properties": { "service_name": "Булочные Ф. Вольчека", "municipality": "Комендантский аэродром", "administrative_unit": "Приморский район", "Широта": 60.004322, "Долгота": 30.300509, "address": "Коломяжский проспект, 17 к1" }, "geometry": { "type": "Point", "coordinates": [ 30.300509, 60.004322 ] } },