{
"type": "FeatureCollection",
"name": "horse_riding",
"crs": { "type": "name", "properties": { "name": "urn:ogc:def:crs:OGC:1.3:CRS84" } },
"features": [
{ "type": "Feature", "properties": { "full_id": "n770206587", "osm_id": "770206587", "osm_type": "node", "leisure": "horse_riding", "phone": null, "opening_hours": null, "description": null, "barrier": null, "power": "tower", "operator": "КСК Кентавр", "name": "Конноспортивный клуб Кентавр", "building": "stable", "addr:street": "улица Свободы", "addr:housenumber": "48А", "addr:city": "Стрельна", "access": "yes" }, "geometry": { "type": "Point", "coordinates": [ 30.0139784, 59.8469855 ] } },
{ "type": "Feature", "properties": { "full_id": "n5326951392", "osm_id": "5326951392", "osm_type": "node", "leisure": "horse_riding", "phone": null, "opening_hours": null, "description": null, "barrier": null, "power": null, "operator": null, "name": null, "building": null, "addr:street": null, "addr:housenumber": null, "addr:city": null, "access": null }, "geometry": { "type": "Point", "coordinates": [ 30.2915958, 60.0753401 ] } },
{ "type": "Feature", "properties": { "full_id": "n5326951393", "osm_id": "5326951393", "osm_type": "node", "leisure": "horse_riding", "phone": null, "opening_hours": null, "description": null, "barrier": null, "power": null, "operator": null, "name": null, "building": null, "addr:street": null, "addr:housenumber": null, "addr:city": null, "access": null }, "geometry": { "type": "Point", "coordinates": [ 30.2873284, 60.0753829 ] } },
{ "type": "Feature", "properties": { "full_id": "n8752544711", "osm_id": "8752544711", "osm_type": "node", "leisure": null, "phone": null, "opening_hours": null, "description": null, "barrier": "gate", "power": null, "operator": null, "name": null, "building": null, "addr:street": null, "addr:housenumber": null, "addr:city": null, "access": null }, "geometry": { "type": "Point", "coordinates": [ 30.1403746, 59.9908265 ] } },
{ "type": "Feature", "properties": { "full_id": "n9975900234", "osm_id": "9975900234", "osm_type": "node", "leisure": "horse_riding", "phone": "+79214456841", "opening_hours": "Tu-Su 10:00-19:00", "description": "По предварительной записи: вт-вс", "barrier": null, "power": null, "operator": null, "name": "Гнедой конный клуб", "building": null, "addr:street": "улица Некрасова", "addr:housenumber": "14", "addr:city": null, "access": "private" }, "geometry": { "type": "Point", "coordinates": [ 30.0860663, 59.8187126 ] } },
{ "type": "Feature", "properties": { "full_id": null, "osm_id": null, "osm_type": null, "leisure": "horse_riding", "phone": null, "opening_hours": null, "description": null, "barrier": null, "power": null, "operator": null, "name": null, "building": null, "addr:street": null, "addr:housenumber": null, "addr:city": null, "access": null }, "geometry": { "type": "Point", "coordinates": [ 30.012972820474058, 59.847093355395785 ] } },
{ "type": "Feature", "properties": { "full_id": null, "osm_id": null, "osm_type": null, "leisure": "horse_riding", "phone": null, "opening_hours": null, "description": null, "barrier": null, "power": null, "operator": null, "name": null, "building": null, "addr:street": null, "addr:housenumber": null, "addr:city": null, "access": null }, "geometry": { "type": "Point", "coordinates": [ 30.073588567237501, 59.817840830327633 ] } }
]
}
