{
"type": "FeatureCollection",
"name": "music_school",
"crs": { "type": "name", "properties": { "name": "urn:ogc:def:crs:OGC:1.3:CRS84" } },
"features": [
{ "type": "Feature", "properties": { "Наименование": "Jam`s cool", "Адрес": "Казанская, 7 лит В", "Веб-сайт 1": "http://jamschool.ru", "Веб-сайт 2": null, "Широта": "59.932773", "Долгота": "30.320739" }, "geometry": { "type": "Point", "coordinates": [ 30.320766933632665, 59.932783496350332 ] } },
{ "type": "Feature", "properties": { "Наименование": "Saint-p music", "Адрес": "Ефимова, 1/4", "Веб-сайт 1": "http://spmuz.ru", "Веб-сайт 2": null, "Широта": "59.926134", "Долгота": "30.319717" }, "geometry": { "type": "Point", "coordinates": [ 30.319717, 59.926134 ] } },
{ "type": "Feature", "properties": { "Наименование": "Стаккато", "Адрес": "Конюшенная площадь, 2 лит В", "Веб-сайт 1": "http://www.staccatoschool.com", "Веб-сайт 2": "http://jivo.chat/6WaMUauxQS", "Широта": "59.9401", "Долгота": "30.325398" }, "geometry": { "type": "Point", "coordinates": [ 30.325398, 59.9401 ] } },
{ "type": "Feature", "properties": { "Наименование": "Духовая академия", "Адрес": "Лермонтовский проспект, 1/44", "Веб-сайт 1": "http://dav-music.ru", "Веб-сайт 2": null, "Широта": "59.925019", "Долгота": "30.290147" }, "geometry": { "type": "Point", "coordinates": [ 30.290147, 59.925019 ] } },
{ "type": "Feature", "properties": { "Наименование": "Классическая точка", "Адрес": "улица Декабристов, 30", "Веб-сайт 1": "http://classicpoint.ru", "Веб-сайт 2": null, "Широта": "59.926996", "Долгота": "30.29924" }, "geometry": { "type": "Point", "coordinates": [ 30.29924, 59.926996 ] } },
{ "type": "Feature", "properties": { "Наименование": "СПб ГБУДО Санкт-Петербургская детская музыкальная школа № 18", "Адрес": null, "Веб-сайт 1": null, "Веб-сайт 2": null, "Широта": null, "Долгота": null }, "geometry": { "type": "Point", "coordinates": [ 30.325173287149305, 59.937546126757091 ] } },
{ "type": "Feature", "properties": { "Наименование": "Не школа барабанов", "Адрес": "Рощинская, 9", "Веб-сайт 1": "http://ne-shkola.com", "Веб-сайт 2": null, "Широта": "59.882496", "Долгота": "30.329995" }, "geometry": { "type": "Point", "coordinates": [ 30.329995, 59.882496 ] } },
{ "type": "Feature", "properties": { "Наименование": "Music-Club", "Адрес": "4-я линия В.О., 5", "Веб-сайт 1": "http://mosmusic-club.ru/", "Веб-сайт 2": null, "Широта": "59.940885", "Долгота": "30.285374" }, "geometry": { "type": "Point", "coordinates": [ 30.285374, 59.940885 ] } },
{ "type": "Feature", "properties": { "Наименование": "Kaada", "Адрес": "улица Куйбышева, 33", "Веб-сайт 1": "http://kaada.ru?utm_source=2GIS.map", "Веб-сайт 2": null, "Широта": "59.957642", "Долгота": "30.334879" }, "geometry": { "type": "Point", "coordinates": [ 30.334879, 59.957642 ] } },
{ "type": "Feature", "properties": { "Наименование": "Guitar-Masters", "Адрес": "Гороховая, 73", "Веб-сайт 1": "http://guitar-masters.ru/", "Веб-сайт 2": null, "Широта": "59.922392", "Долгота": "30.329985" }, "geometry": { "type": "Point", "coordinates": [ 30.329985, 59.922392 ] } },
{ "type": "Feature", "properties": { "Наименование": "Классическая точка", "Адрес": "Измайловский проспект, 2", "Веб-сайт 1": "http://classicpoint.ru", "Веб-сайт 2": null, "Широта": "59.918088", "Долгота": "30.308002" }, "geometry": { "type": "Point", "coordinates": [ 30.308002, 59.918088 ] } },
{ "type": "Feature", "properties": { "Наименование": "Школа рока", "Адрес": "Лиговский проспект, 21Б", "Веб-сайт 1": "http://rokshkola.ru", "Веб-сайт 2": null, "Широта": "59.935168", "Долгота": "30.363067" }, "geometry": { "type": "Point", "coordinates": [ 30.363067, 59.935168 ] } },
{ "type": "Feature", "properties": { "Наименование": "Классическая точка", "Адрес": "улица Декабристов, 44", "Веб-сайт 1": "http://classicpoint.ru", "Веб-сайт 2": null, "Широта": "59.925019", "Долгота": "30.290147" }, "geometry": { "type": "Point", "coordinates": [ 30.290147, 59.925019 ] } },
{ "type": "Feature", "properties": { "Наименование": "Music Space", "Адрес": null, "Веб-сайт 1": null, "Веб-сайт 2": null, "Широта": null, "Долгота": null }, "geometry": { "type": "Point", "coordinates": [ 30.326129687920069, 59.93891319401969 ] } },
{ "type": "Feature", "properties": { "Наименование": "Tramplin", "Адрес": "Казанская, 7 лит В", "Веб-сайт 1": "http://tramplin.pro", "Веб-сайт 2": null, "Широта": "59.932773", "Долгота": "30.320739" }, "geometry": { "type": "Point", "coordinates": [ 30.321158004490051, 59.932624300771494 ] } },
{ "type": "Feature", "properties": { "Наименование": "Music-Club", "Адрес": "Пушкинская улица, 10", "Веб-сайт 1": "http://mosmusic-club.ru", "Веб-сайт 2": null, "Широта": "59.929567", "Долгота": "30.358027" }, "geometry": { "type": "Point", "coordinates": [ 30.358027, 59.929567 ] } },
{ "type": "Feature", "properties": { "Наименование": "Soloway", "Адрес": "2-я Советская улица, 27", "Веб-сайт 1": "http://soloway.spb.ru", "Веб-сайт 2": null, "Широта": "59.929971", "Долгота": "30.372306" }, "geometry": { "type": "Point", "coordinates": [ 30.372306, 59.929971 ] } },
{ "type": "Feature", "properties": { "Наименование": "2 рояля", "Адрес": "Восстания, 4", "Веб-сайт 1": "http://rubitime.ru/2piano", "Веб-сайт 2": null, "Широта": "59.932751", "Долгота": "30.359577" }, "geometry": { "type": "Point", "coordinates": [ 30.359577, 59.932751 ] } },
{ "type": "Feature", "properties": { "Наименование": "Drumstarz", "Адрес": "Казанская, 7 лит В", "Веб-сайт 1": "http://drumstarz.ru", "Веб-сайт 2": null, "Широта": "59.932773", "Долгота": "30.320739" }, "geometry": { "type": "Point", "coordinates": [ 30.321301164357482, 59.932591062008285 ] } },
{ "type": "Feature", "properties": { "Наименование": "Ляминор", "Адрес": "Транспортный переулок, 1", "Веб-сайт 1": "http://muzdv.ru", "Веб-сайт 2": null, "Широта": "59.920772", "Долгота": "30.356362" }, "geometry": { "type": "Point", "coordinates": [ 30.356362, 59.920772 ] } },
{ "type": "Feature", "properties": { "Наименование": "J&m school", "Адрес": "Кузнечный переулок, 6", "Веб-сайт 1": "http://jm-school.ru/?utm_source=2gis&utm_medium=contecst&utm_campaign=muz_school", "Веб-сайт 2": null, "Широта": "59.927621", "Долгота": "30.350199" }, "geometry": { "type": "Point", "coordinates": [ 30.350199, 59.927621 ] } },
{ "type": "Feature", "properties": { "Наименование": "Виртуозы", "Адрес": "улица Звенигородская, 11", "Веб-сайт 1": "http://muz-school.ru", "Веб-сайт 2": null, "Широта": "59.917345", "Долгота": "30.341872" }, "geometry": { "type": "Point", "coordinates": [ 30.341872, 59.917345 ] } },
{ "type": "Feature", "properties": { "Наименование": "Ilezer Music", "Адрес": "Гороховая, 39", "Веб-сайт 1": null, "Веб-сайт 2": null, "Широта": "59.92909", "Долгота": "30.320235" }, "geometry": { "type": "Point", "coordinates": [ 30.320235, 59.92909 ] } },
{ "type": "Feature", "properties": { "Наименование": "DJostik School", "Адрес": "улица Садовая, 59", "Веб-сайт 1": "http://станьдиджеем.рф", "Веб-сайт 2": "http://jivo.chat/jaWlxjamhb", "Широта": "59.922731", "Долгота": "30.307016" }, "geometry": { "type": "Point", "coordinates": [ 30.307016, 59.922731 ] } },
{ "type": "Feature", "properties": { "Наименование": "Melody", "Адрес": "Лиговский проспект, 50 лит Д", "Веб-сайт 1": "http://melodyspb.ru", "Веб-сайт 2": null, "Широта": "59.925368", "Долгота": "30.362332" }, "geometry": { "type": "Point", "coordinates": [ 30.362332, 59.925368 ] } },
{ "type": "Feature", "properties": { "Наименование": "Romantic sound", "Адрес": "Большая Пушкарская, 20", "Веб-сайт 1": "http://romantic-sound.ru/spb/", "Веб-сайт 2": null, "Широта": "59.958081", "Долгота": "30.30105" }, "geometry": { "type": "Point", "coordinates": [ 30.30105, 59.958081 ] } },
{ "type": "Feature", "properties": { "Наименование": "Дано", "Адрес": "набережная реки Фонтанки, 84", "Веб-сайт 1": null, "Веб-сайт 2": null, "Широта": "59.926229", "Долгота": "30.331581" }, "geometry": { "type": "Point", "coordinates": [ 30.331581, 59.926229 ] } },
{ "type": "Feature", "properties": { "Наименование": "Popsonica", "Адрес": "Каменноостровский проспект, 42", "Веб-сайт 1": "http://www.popsonica.ru", "Веб-сайт 2": null, "Широта": "59.966786", "Долгота": "30.309879" }, "geometry": { "type": "Point", "coordinates": [ 30.309879, 59.966786 ] } },
{ "type": "Feature", "properties": { "Наименование": "Лиса", "Адрес": "Тамбовская улица, 11", "Веб-сайт 1": "http://lisa-school.ru", "Веб-сайт 2": null, "Широта": "59.913364", "Долгота": "30.354018" }, "geometry": { "type": "Point", "coordinates": [ 30.354018, 59.913364 ] } },
{ "type": "Feature", "properties": { "Наименование": "Topdjschool", "Адрес": "Лиговский проспект, 53", "Веб-сайт 1": "http://topdjschool.ru", "Веб-сайт 2": null, "Широта": "59.929074", "Долгота": "30.359313" }, "geometry": { "type": "Point", "coordinates": [ 30.359313, 59.929074 ] } },
{ "type": "Feature", "properties": { "Наименование": "Точка опоры", "Адрес": "Сапёрный переулок, 5а", "Веб-сайт 1": "http://muse-point.ru", "Веб-сайт 2": null, "Широта": "59.940337", "Долгота": "30.356861" }, "geometry": { "type": "Point", "coordinates": [ 30.356861, 59.940337 ] } },
{ "type": "Feature", "properties": { "Наименование": "Репетиторий №1", "Адрес": "Прилукская, 21-23 лит В", "Веб-сайт 1": "http://repetitoriy1.ru", "Веб-сайт 2": null, "Широта": "59.909399", "Долгота": "30.348211" }, "geometry": { "type": "Point", "coordinates": [ 30.348211, 59.909399 ] } },
{ "type": "Feature", "properties": { "Наименование": "Rock Yroki", "Адрес": "Большой проспект П.С., 106", "Веб-сайт 1": "http://rockyroki.ru", "Веб-сайт 2": null, "Широта": "59.967581", "Долгота": "30.312919" }, "geometry": { "type": "Point", "coordinates": [ 30.312919, 59.967581 ] } },
{ "type": "Feature", "properties": { "Наименование": "Factory music school", "Адрес": "Лермонтовский проспект, 7а", "Веб-сайт 1": "http://www.factorymusic.ru", "Веб-сайт 2": null, "Широта": "59.923118", "Долгота": "30.291448" }, "geometry": { "type": "Point", "coordinates": [ 30.291448, 59.923118 ] } },
{ "type": "Feature", "properties": { "Наименование": "Saint-p music", "Адрес": "5-я линия В.О., 36", "Веб-сайт 1": "http://spmuz.ru", "Веб-сайт 2": null, "Широта": "59.942673", "Долгота": "30.281497" }, "geometry": { "type": "Point", "coordinates": [ 30.281497, 59.942673 ] } },
{ "type": "Feature", "properties": { "Наименование": "Громкое место", "Адрес": "Измайловский проспект, 2", "Веб-сайт 1": null, "Веб-сайт 2": null, "Широта": "59.919148", "Долгота": "30.30961" }, "geometry": { "type": "Point", "coordinates": [ 30.30961, 59.919148 ] } },
{ "type": "Feature", "properties": { "Наименование": "HighSkill", "Адрес": "Невский проспект, 72", "Веб-сайт 1": "http://highskill.studio/?utm_source=2gis&utm_medium=organic&utm_campaign=site", "Веб-сайт 2": null, "Широта": "59.933347", "Долгота": "30.346446" }, "geometry": { "type": "Point", "coordinates": [ 30.346446, 59.933347 ] } },
{ "type": "Feature", "properties": { "Наименование": "Доминанта", "Адрес": "Верейская, 16", "Веб-сайт 1": "http://msdominanta.ru", "Веб-сайт 2": "http://jivo.chat/smLyG1RXw2", "Широта": "59.916646", "Долгота": "30.325372" }, "geometry": { "type": "Point", "coordinates": [ 30.325372, 59.916646 ] } },
{ "type": "Feature", "properties": { "Наименование": "Recroom", "Адрес": "Ждановская набережная, 7", "Веб-сайт 1": "http://podarok.rec24.ru", "Веб-сайт 2": "http://gift.rec24.ru", "Широта": "59.953465", "Долгота": "30.288178" }, "geometry": { "type": "Point", "coordinates": [ 30.288178, 59.953465 ] } },
{ "type": "Feature", "properties": { "Наименование": "All Bright", "Адрес": "18-я линия В.О., 45", "Веб-сайт 1": "http://taplink.cc/allbright.studio", "Веб-сайт 2": null, "Широта": "59.940712", "Долгота": "30.262141" }, "geometry": { "type": "Point", "coordinates": [ 30.262141, 59.940712 ] } },
{ "type": "Feature", "properties": { "Наименование": "Saint-p music", "Адрес": "Маяковского, 42", "Веб-сайт 1": "http://spmuz.ru", "Веб-сайт 2": null, "Широта": "59.941262", "Долгота": "30.354527" }, "geometry": { "type": "Point", "coordinates": [ 30.354527, 59.941262 ] } },
{ "type": "Feature", "properties": { "Наименование": "Voice", "Адрес": "Лиговский проспект, 50 к9", "Веб-сайт 1": "http://t.me/voicebyshmidt", "Веб-сайт 2": null, "Широта": "59.924775", "Долгота": "30.361801" }, "geometry": { "type": "Point", "coordinates": [ 30.361801, 59.924775 ] } },
{ "type": "Feature", "properties": { "Наименование": "Saint-p music", "Адрес": "набережная реки Фонтанки, 38", "Веб-сайт 1": "http://spmuz.ru", "Веб-сайт 2": null, "Широта": "59.93416", "Долгота": "30.344946" }, "geometry": { "type": "Point", "coordinates": [ 30.344946, 59.93416 ] } },
{ "type": "Feature", "properties": { "Наименование": "Шум", "Адрес": "Казанская, 5а", "Веб-сайт 1": "http://shumusic.ru", "Веб-сайт 2": "http://drumscool.ru", "Широта": "59.93306", "Долгота": "30.321467" }, "geometry": { "type": "Point", "coordinates": [ 30.321467, 59.93306 ] } },
{ "type": "Feature", "properties": { "Наименование": "Appartement musical", "Адрес": "10-я линия В.О., 45", "Веб-сайт 1": null, "Веб-сайт 2": null, "Широта": "59.944777", "Долгота": "30.271274" }, "geometry": { "type": "Point", "coordinates": [ 30.271274, 59.944777 ] } },
{ "type": "Feature", "properties": { "Наименование": "Great People", "Адрес": "5-я линия В.О., 32", "Веб-сайт 1": "http://greatpeople-school.business.site", "Веб-сайт 2": null, "Широта": "59.942234", "Долгота": "30.282489" }, "geometry": { "type": "Point", "coordinates": [ 30.282489, 59.942234 ] } },
{ "type": "Feature", "properties": { "Наименование": "Шесть восьмых", "Адрес": "Галерная, 20Б", "Веб-сайт 1": null, "Веб-сайт 2": null, "Широта": "59.933906", "Долгота": "30.297341" }, "geometry": { "type": "Point", "coordinates": [ 30.297341, 59.933906 ] } },
{ "type": "Feature", "properties": { "Наименование": "Кружок", "Адрес": "Ефимова, 1/4", "Веб-сайт 1": "http://vocal-kruzhok.ru", "Веб-сайт 2": null, "Широта": "59.926263", "Долгота": "30.319478" }, "geometry": { "type": "Point", "coordinates": [ 30.319478, 59.926263 ] } },
{ "type": "Feature", "properties": { "Наименование": "Школа рока", "Адрес": "13-я линия В.О., 72", "Веб-сайт 1": "http://rokshkola.ru", "Веб-сайт 2": null, "Широта": "59.945528", "Долгота": "30.265301" }, "geometry": { "type": "Point", "coordinates": [ 30.265301, 59.945528 ] } },
{ "type": "Feature", "properties": { "Наименование": "Сосед сверху", "Адрес": "6-я линия В.О., 55", "Веб-сайт 1": "http://sosedsverhy.ru", "Веб-сайт 2": null, "Широта": "59.947921", "Долгота": "30.274215" }, "geometry": { "type": "Point", "coordinates": [ 30.274215, 59.947921 ] } },
{ "type": "Feature", "properties": { "Наименование": "Muze family", "Адрес": "Чапыгина, 6", "Веб-сайт 1": null, "Веб-сайт 2": null, "Широта": "59.973453", "Долгота": "30.309057" }, "geometry": { "type": "Point", "coordinates": [ 30.309057, 59.973453 ] } },
{ "type": "Feature", "properties": { "Наименование": "Saint-p music", "Адрес": "улица Торжковская, 7", "Веб-сайт 1": "http://spmuz.ru", "Веб-сайт 2": null, "Широта": "59.988798", "Долгота": "30.311167" }, "geometry": { "type": "Point", "coordinates": [ 30.311167, 59.988798 ] } },
{ "type": "Feature", "properties": { "Наименование": "Ok! Play", "Адрес": null, "Веб-сайт 1": null, "Веб-сайт 2": null, "Широта": null, "Долгота": null }, "geometry": { "type": "Point", "coordinates": [ 30.347244708384881, 59.944116620310488 ] } },
{ "type": "Feature", "properties": { "Наименование": "Детская музыкальная школа им. В.В. Андреева", "Адрес": null, "Веб-сайт 1": null, "Веб-сайт 2": null, "Широта": null, "Долгота": null }, "geometry": { "type": "Point", "coordinates": [ 30.319977709012754, 59.893646730710699 ] } },
{ "type": "Feature", "properties": { "Наименование": "Recroom", "Адрес": "Большая Пушкарская, 45", "Веб-сайт 1": "http://rec24.ru", "Веб-сайт 2": null, "Широта": "59.963596", "Долгота": "30.31191" }, "geometry": { "type": "Point", "coordinates": [ 30.31191, 59.963596 ] } },
{ "type": "Feature", "properties": { "Наименование": "Sugar drums", "Адрес": "Цветочная, 6 лит А", "Веб-сайт 1": "http://sugardrums.ru/?utm_source=2gis&utm_medium=info&utm_campaign=organic", "Веб-сайт 2": null, "Широта": "59.893356", "Долгота": "30.330801" }, "geometry": { "type": "Point", "coordinates": [ 30.330801, 59.893356 ] } },
{ "type": "Feature", "properties": { "Наименование": "Вокально-бокальная мастерская", "Адрес": "Восстания, 4", "Веб-сайт 1": null, "Веб-сайт 2": null, "Широта": "59.932751", "Долгота": "30.359577" }, "geometry": { "type": "Point", "coordinates": [ 30.359577, 59.932751 ] } },
{ "type": "Feature", "properties": { "Наименование": "Black&White music", "Адрес": "Малый проспект П.С., 76", "Веб-сайт 1": null, "Веб-сайт 2": null, "Широта": "59.96468", "Долгота": "30.3037" }, "geometry": { "type": "Point", "coordinates": [ 30.3037, 59.96468 ] } },
{ "type": "Feature", "properties": { "Наименование": "Джазарт", "Адрес": "Воронежская, 37", "Веб-сайт 1": "http://jazzartvocal.ru", "Веб-сайт 2": null, "Широта": "59.913532", "Долгота": "30.345741" }, "geometry": { "type": "Point", "coordinates": [ 30.345741, 59.913532 ] } },
{ "type": "Feature", "properties": { "Наименование": "Creativita", "Адрес": "Казанская, 7 лит В", "Веб-сайт 1": "http://taplink.cc/creativita_one", "Веб-сайт 2": null, "Широта": "59.932773", "Долгота": "30.320739" }, "geometry": { "type": "Point", "coordinates": [ 30.321021828030776, 59.932489596170512 ] } },
{ "type": "Feature", "properties": { "Наименование": "Новый звук", "Адрес": null, "Веб-сайт 1": null, "Веб-сайт 2": null, "Широта": null, "Долгота": null }, "geometry": { "type": "Point", "coordinates": [ 30.353296416710204, 59.936335956749545 ] } },
{ "type": "Feature", "properties": { "Наименование": "Star Mix", "Адрес": "Пушкинская улица, 9", "Веб-сайт 1": null, "Веб-сайт 2": null, "Широта": "59.929856", "Долгота": "30.356227" }, "geometry": { "type": "Point", "coordinates": [ 30.356227, 59.929856 ] } },
{ "type": "Feature", "properties": { "Наименование": "IF", "Адрес": "набережная Обводного канала, 136", "Веб-сайт 1": null, "Веб-сайт 2": null, "Широта": "59.908528", "Долгота": "30.285081" }, "geometry": { "type": "Point", "coordinates": [ 30.285081, 59.908528 ] } },
{ "type": "Feature", "properties": { "Наименование": "1961 Studio", "Адрес": "Большая Пушкарская, 20", "Веб-сайт 1": "http://1961studio.ru", "Веб-сайт 2": null, "Широта": "59.958081", "Долгота": "30.30105" }, "geometry": { "type": "Point", "coordinates": [ 30.30105, 59.958081 ] } },
{ "type": "Feature", "properties": { "Наименование": "1961 Studio", "Адрес": "Моховая, 40", "Веб-сайт 1": "http://1961studio.ru", "Веб-сайт 2": null, "Широта": "59.93958", "Долгота": "30.345321" }, "geometry": { "type": "Point", "coordinates": [ 30.345321, 59.93958 ] } },
{ "type": "Feature", "properties": { "Наименование": "Кисс", "Адрес": "Малая Митрофаньевская, 5 к1 ст1", "Веб-сайт 1": "http://kiss-spb.art", "Веб-сайт 2": null, "Широта": "59.897982", "Долгота": "30.307437" }, "geometry": { "type": "Point", "coordinates": [ 30.307437, 59.897982 ] } },
{ "type": "Feature", "properties": { "Наименование": "Clubmasters DJ", "Адрес": "Гончарная, 13", "Веб-сайт 1": "http://clubmasters.ru", "Веб-сайт 2": null, "Широта": "59.929373", "Долгота": "30.365376" }, "geometry": { "type": "Point", "coordinates": [ 30.365376, 59.929373 ] } },
{ "type": "Feature", "properties": { "Наименование": "Скородум", "Адрес": "набережная реки Смоленки, 3 к1", "Веб-сайт 1": "http://podzontikom.skorodum.com", "Веб-сайт 2": null, "Широта": "59.949779", "Долгота": "30.263852" }, "geometry": { "type": "Point", "coordinates": [ 30.263852, 59.949779 ] } },
{ "type": "Feature", "properties": { "Наименование": "Impulse", "Адрес": "Мельничная, 4", "Веб-сайт 1": "http://impulsemusic.ru", "Веб-сайт 2": null, "Широта": "59.916761", "Долгота": "30.39534" }, "geometry": { "type": "Point", "coordinates": [ 30.39534, 59.916761 ] } },
{ "type": "Feature", "properties": { "Наименование": "Северный удар", "Адрес": "Большая Пушкарская, 10 лит Б", "Веб-сайт 1": null, "Веб-сайт 2": null, "Широта": "59.955333", "Долгота": "30.297779" }, "geometry": { "type": "Point", "coordinates": [ 30.297779, 59.955333 ] } },
{ "type": "Feature", "properties": { "Наименование": "Талантида", "Адрес": "Восстания, 4", "Веб-сайт 1": "http://talantida.com", "Веб-сайт 2": null, "Широта": "59.932985", "Долгота": "30.359273" }, "geometry": { "type": "Point", "coordinates": [ 30.359273, 59.932985 ] } },
{ "type": "Feature", "properties": { "Наименование": "Konserva", "Адрес": "Гороховая, 4", "Веб-сайт 1": "http://konserva-music.ru", "Веб-сайт 2": null, "Широта": "59.936377", "Долгота": "30.311704" }, "geometry": { "type": "Point", "coordinates": [ 30.311704, 59.936377 ] } },
{ "type": "Feature", "properties": { "Наименование": "Твоя группа", "Адрес": "Ленина, 49", "Веб-сайт 1": null, "Веб-сайт 2": null, "Широта": "59.965767", "Долгота": "30.296345" }, "geometry": { "type": "Point", "coordinates": [ 30.296345, 59.965767 ] } },
{ "type": "Feature", "properties": { "Наименование": "Семейная музыкальная студия", "Адрес": "Левашовский проспект, 11", "Веб-сайт 1": null, "Веб-сайт 2": null, "Широта": "59.966502", "Долгота": "30.289986" }, "geometry": { "type": "Point", "coordinates": [ 30.289986, 59.966502 ] } },
{ "type": "Feature", "properties": { "Наименование": "Теремок", "Адрес": "улица Кирочная, 31", "Веб-сайт 1": "http://teremok-school.ru", "Веб-сайт 2": null, "Широта": "59.943619", "Долгота": "30.365482" }, "geometry": { "type": "Point", "coordinates": [ 30.365482, 59.943619 ] } },
{ "type": "Feature", "properties": { "Наименование": "Патриот", "Адрес": "улица Еремеева, 1", "Веб-сайт 1": "http://centernevskiy.ru", "Веб-сайт 2": null, "Широта": "59.9173", "Долгота": "30.42997" }, "geometry": { "type": "Point", "coordinates": [ 30.42997, 59.9173 ] } },
{ "type": "Feature", "properties": { "Наименование": "Хот Гитар", "Адрес": "Гончарная, 11", "Веб-сайт 1": "http://хотгитар.рф", "Веб-сайт 2": null, "Широта": "59.92941", "Долгота": "30.36477" }, "geometry": { "type": "Point", "coordinates": [ 30.36477, 59.92941 ] } },
{ "type": "Feature", "properties": { "Наименование": "Scratch Dj school", "Адрес": "Казанская, 7а лит А", "Веб-сайт 1": "http://scratchdj.ru/spb", "Веб-сайт 2": null, "Широта": "59.932094", "Долгота": "30.321186" }, "geometry": { "type": "Point", "coordinates": [ 30.321158066367335, 59.932087002223852 ] } },
{ "type": "Feature", "properties": { "Наименование": "GIRstudio", "Адрес": "Большой Сампсониевский проспект, 18 лит Г", "Веб-сайт 1": "http://girstudio.com", "Веб-сайт 2": null, "Широта": "59.959612", "Долгота": "30.344782" }, "geometry": { "type": "Point", "coordinates": [ 30.344782, 59.959612 ] } },
{ "type": "Feature", "properties": { "Наименование": "Гитарная школа №1", "Адрес": "Парфёновская, 11 к1 ст1", "Веб-сайт 1": "http://guitarschool-1.tilda.ws", "Веб-сайт 2": null, "Широта": "59.898904", "Долгота": "30.31097" }, "geometry": { "type": "Point", "coordinates": [ 30.31097, 59.898904 ] } },
{ "type": "Feature", "properties": { "Наименование": "Гитарная школа №1", "Адрес": "проспект КИМа, 26в", "Веб-сайт 1": "http://guitarschool-1.tilda.ws", "Веб-сайт 2": null, "Широта": "59.953051", "Долгота": "30.24314" }, "geometry": { "type": "Point", "coordinates": [ 30.24314, 59.953051 ] } },
{ "type": "Feature", "properties": { "Наименование": "Вайс", "Адрес": "Заозёрная, 6", "Веб-сайт 1": "http://n891290.yclients.com/", "Веб-сайт 2": null, "Широта": "59.907586", "Долгота": "30.322856" }, "geometry": { "type": "Point", "coordinates": [ 30.322856, 59.907586 ] } },
{ "type": "Feature", "properties": { "Наименование": "Музыкальная студия Аси Легостаевой", "Адрес": "Жуковского, 28", "Веб-сайт 1": "http://asyaluk.ru", "Веб-сайт 2": "http://t.me/legosmusic", "Широта": "59.936113", "Долгота": "30.359842" }, "geometry": { "type": "Point", "coordinates": [ 30.359842, 59.936113 ] } },
{ "type": "Feature", "properties": { "Наименование": "Abc-guitar", "Адрес": "Троицкий проспект, 6", "Веб-сайт 1": null, "Веб-сайт 2": null, "Широта": "59.915689", "Долгота": "30.301802" }, "geometry": { "type": "Point", "coordinates": [ 30.301802, 59.915689 ] } },
{ "type": "Feature", "properties": { "Наименование": "Piano Prokofieva class", "Адрес": "Кожевенная линия, 36", "Веб-сайт 1": "http://ppclass.cliens.site", "Веб-сайт 2": null, "Широта": "59.92396", "Долгота": "30.243376" }, "geometry": { "type": "Point", "coordinates": [ 30.243376, 59.92396 ] } },
{ "type": "Feature", "properties": { "Наименование": "Перспектива", "Адрес": "улица Садовая, 125", "Веб-сайт 1": "http://admiralteisky.spb.ru/клубы/пмк-перспектива/", "Веб-сайт 2": null, "Широта": "59.917377", "Долгота": "30.283761" }, "geometry": { "type": "Point", "coordinates": [ 30.283761, 59.917377 ] } },
{ "type": "Feature", "properties": { "Наименование": "Lava", "Адрес": "Маяковского, 50", "Веб-сайт 1": null, "Веб-сайт 2": null, "Широта": "59.942696", "Долгота": "30.354863" }, "geometry": { "type": "Point", "coordinates": [ 30.354863, 59.942696 ] } },
{ "type": "Feature", "properties": { "Наименование": "Music Power", "Адрес": "набережная Обводного канала, 80", "Веб-сайт 1": "http://www.musicpowerschool.ru", "Веб-сайт 2": null, "Широта": "59.909723", "Долгота": "30.324712" }, "geometry": { "type": "Point", "coordinates": [ 30.324712, 59.909723 ] } },
{ "type": "Feature", "properties": { "Наименование": "Empathy Studio", "Адрес": "набережная Обводного канала, 64 к2 лит А", "Веб-сайт 1": "http://studio.empathypro.com", "Веб-сайт 2": null, "Широта": "59.91448", "Долгота": "30.337876" }, "geometry": { "type": "Point", "coordinates": [ 30.337876, 59.91448 ] } },
{ "type": "Feature", "properties": { "Наименование": "Граноты", "Адрес": "проспект Чернышевского, 17", "Веб-сайт 1": "http://jazzmarin.ru", "Веб-сайт 2": null, "Широта": "59.944192", "Долгота": "30.358285" }, "geometry": { "type": "Point", "coordinates": [ 30.358285, 59.944192 ] } },
{ "type": "Feature", "properties": { "Наименование": "SolokhinVoice", "Адрес": "Ораниенбаумская, 27", "Веб-сайт 1": "http://solokhinvoice.tilda.ws/solokhinvoice", "Веб-сайт 2": null, "Широта": "59.961833", "Долгота": "30.295125" }, "geometry": { "type": "Point", "coordinates": [ 30.295125, 59.961833 ] } },
{ "type": "Feature", "properties": { "Наименование": "Маэстро", "Адрес": "Кузнечный переулок, 3", "Веб-сайт 1": null, "Веб-сайт 2": null, "Широта": "59.9274", "Долгота": "30.350305" }, "geometry": { "type": "Point", "coordinates": [ 30.350305, 59.9274 ] } },
{ "type": "Feature", "properties": { "Наименование": "Современник", "Адрес": "Малоохтинский проспект, 92", "Веб-сайт 1": "http://www.pmcohta.ru", "Веб-сайт 2": null, "Широта": "59.923091", "Долгота": "30.405661" }, "geometry": { "type": "Point", "coordinates": [ 30.405661, 59.923091 ] } },
{ "type": "Feature", "properties": { "Наименование": "#Пойиграй", "Адрес": "Казанская, 7 лит В", "Веб-сайт 1": null, "Веб-сайт 2": null, "Широта": "59.932773", "Долгота": "30.320739" }, "geometry": { "type": "Point", "coordinates": [ 30.321220855163556, 59.932435364291074 ] } },
{ "type": "Feature", "properties": { "Наименование": "Bodhi", "Адрес": "проспект Стачек, 72", "Веб-сайт 1": "http://yourbodhi.ru", "Веб-сайт 2": null, "Широта": "59.879312", "Долгота": "30.263218" }, "geometry": { "type": "Point", "coordinates": [ 30.263218, 59.879312 ] } },
{ "type": "Feature", "properties": { "Наименование": "SoundScape", "Адрес": "Восстания, 24а", "Веб-сайт 1": "http://soundscapespb.ru/mainpage", "Веб-сайт 2": "http://t.me/soundscapechannel", "Широта": "59.938134", "Долгота": "30.358923" }, "geometry": { "type": "Point", "coordinates": [ 30.358923, 59.938134 ] } },
{ "type": "Feature", "properties": { "Наименование": "Новая музыкальная школа", "Адрес": "проспект КИМа, 6", "Веб-сайт 1": null, "Веб-сайт 2": null, "Широта": "59.950922", "Долгота": "30.245631" }, "geometry": { "type": "Point", "coordinates": [ 30.245631, 59.950922 ] } },
{ "type": "Feature", "properties": { "Наименование": "Campanella", "Адрес": "проспект КИМа, 6", "Веб-сайт 1": null, "Веб-сайт 2": null, "Широта": "59.950922", "Долгота": "30.245631" }, "geometry": { "type": "Point", "coordinates": [ 30.245631, 59.950922 ] } },
{ "type": "Feature", "properties": { "Наименование": "Barcelona", "Адрес": "улица Бухарестская, 32", "Веб-сайт 1": "http://barcelonavoice.ru", "Веб-сайт 2": null, "Широта": "59.8822", "Долгота": "30.370188" }, "geometry": { "type": "Point", "coordinates": [ 30.370188, 59.8822 ] } },
{ "type": "Feature", "properties": { "Наименование": "Гитарная школа №1", "Адрес": "Кушелевская дорога, 3 к12", "Веб-сайт 1": "http://guitarschool-1.tilda.ws", "Веб-сайт 2": null, "Широта": "59.985624", "Долгота": "30.375093" }, "geometry": { "type": "Point", "coordinates": [ 30.375093, 59.985624 ] } },
{ "type": "Feature", "properties": { "Наименование": "Heart Beat", "Адрес": "Большой проспект В.О., 83 лит Б", "Веб-сайт 1": null, "Веб-сайт 2": null, "Широта": "59.934079", "Долгота": "30.252795" }, "geometry": { "type": "Point", "coordinates": [ 30.252795, 59.934079 ] } },
{ "type": "Feature", "properties": { "Наименование": "Эмоция", "Адрес": "улица Кораблестроителей, 12 к2", "Веб-сайт 1": "http://spb-emotion-club.ru", "Веб-сайт 2": "http://t.me/emotionclub_spb", "Широта": "59.937089", "Долгота": "30.218381" }, "geometry": { "type": "Point", "coordinates": [ 30.218381, 59.937089 ] } },
{ "type": "Feature", "properties": { "Наименование": "Яркий мир", "Адрес": "Тельмана, 41 к1", "Веб-сайт 1": null, "Веб-сайт 2": null, "Широта": "59.891869", "Долгота": "30.482256" }, "geometry": { "type": "Point", "coordinates": [ 30.482256, 59.891869 ] } },
{ "type": "Feature", "properties": { "Наименование": "Энергия звука", "Адрес": "Малая Митрофаньевская, 5 к1 ст1", "Веб-сайт 1": "http://energia-zvuka.ru", "Веб-сайт 2": null, "Широта": "59.897767", "Долгота": "30.307714" }, "geometry": { "type": "Point", "coordinates": [ 30.307714, 59.897767 ] } },
{ "type": "Feature", "properties": { "Наименование": "Musiclife", "Адрес": "улица Ушинского, 2 к1", "Веб-сайт 1": "http://ml-profi.ru", "Веб-сайт 2": null, "Широта": "60.028452", "Долгота": "30.40177" }, "geometry": { "type": "Point", "coordinates": [ 30.40177, 60.028452 ] } },
{ "type": "Feature", "properties": { "Наименование": "Голос", "Адрес": "Ленинский проспект, 151", "Веб-сайт 1": null, "Веб-сайт 2": null, "Широта": "59.851284", "Долгота": "30.301582" }, "geometry": { "type": "Point", "coordinates": [ 30.301582, 59.851284 ] } },
{ "type": "Feature", "properties": { "Наименование": "Гитарная школа №1", "Адрес": "Балканская площадь, 5 к1", "Веб-сайт 1": "http://guitarschool-1.tilda.ws", "Веб-сайт 2": null, "Широта": "59.830723", "Долгота": "30.376621" }, "geometry": { "type": "Point", "coordinates": [ 30.376621, 59.830723 ] } },
{ "type": "Feature", "properties": { "Наименование": "Школа рока", "Адрес": "Есенина, 1 к1", "Веб-сайт 1": "http://rokshkola.ru", "Веб-сайт 2": null, "Широта": "60.029559", "Долгота": "30.331405" }, "geometry": { "type": "Point", "coordinates": [ 30.331405, 60.029559 ] } },
{ "type": "Feature", "properties": { "Наименование": "Альгамбра", "Адрес": null, "Веб-сайт 1": null, "Веб-сайт 2": null, "Широта": null, "Долгота": null }, "geometry": { "type": "Point", "coordinates": [ 30.367823814624717, 59.931788131352008 ] } },
{ "type": "Feature", "properties": { "Наименование": "Гитарная школа №1", "Адрес": "проспект Космонавтов, 65 к2", "Веб-сайт 1": "http://guitarschool-1.tilda.ws", "Веб-сайт 2": null, "Широта": "59.83626", "Долгота": "30.357799" }, "geometry": { "type": "Point", "coordinates": [ 30.357799, 59.83626 ] } },
{ "type": "Feature", "properties": { "Наименование": "Гитарная школа №1", "Адрес": "Будапештская, 46", "Веб-сайт 1": "http://guitarschool-1.tilda.ws", "Веб-сайт 2": null, "Широта": "59.857345", "Долгота": "30.379262" }, "geometry": { "type": "Point", "coordinates": [ 30.379262, 59.857345 ] } },
{ "type": "Feature", "properties": { "Наименование": "Триумф", "Адрес": null, "Веб-сайт 1": null, "Веб-сайт 2": null, "Широта": null, "Долгота": null }, "geometry": { "type": "Point", "coordinates": [ 30.371872028231987, 59.936534212881213 ] } },
{ "type": "Feature", "properties": { "Наименование": "Amdm", "Адрес": "Загребский бульвар, 9", "Веб-сайт 1": null, "Веб-сайт 2": null, "Широта": "59.844994", "Долгота": "30.396459" }, "geometry": { "type": "Point", "coordinates": [ 30.396459, 59.844994 ] } },
{ "type": "Feature", "properties": { "Наименование": "Гитарная школа №1", "Адрес": "улица Варшавская, 23 к1", "Веб-сайт 1": "http://guitarschool-1.tilda.ws", "Веб-сайт 2": null, "Широта": "59.87079", "Долгота": "30.312699" }, "geometry": { "type": "Point", "coordinates": [ 30.312699, 59.87079 ] } },
{ "type": "Feature", "properties": { "Наименование": "Школа вокала № 1", "Адрес": null, "Веб-сайт 1": null, "Веб-сайт 2": null, "Широта": null, "Долгота": null }, "geometry": { "type": "Point", "coordinates": [ 30.363734376846285, 59.929991134741719 ] } },
{ "type": "Feature", "properties": { "Наименование": "Lei`s Tutti", "Адрес": "Кржижановского, 8", "Веб-сайт 1": null, "Веб-сайт 2": null, "Широта": "59.931783", "Долгота": "30.46499" }, "geometry": { "type": "Point", "coordinates": [ 30.46499, 59.931783 ] } },
{ "type": "Feature", "properties": { "Наименование": "Гитарная школа №1", "Адрес": "Российский проспект, 8", "Веб-сайт 1": "http://guitarschool-1.tilda.ws", "Веб-сайт 2": null, "Широта": "59.926578", "Долгота": "30.4715" }, "geometry": { "type": "Point", "coordinates": [ 30.4715, 59.926578 ] } },
{ "type": "Feature", "properties": { "Наименование": "Ars Voice", "Адрес": "Искровский проспект, 22", "Веб-сайт 1": "http://arsvoice.ru", "Веб-сайт 2": null, "Широта": "59.905596", "Долгота": "30.468872" }, "geometry": { "type": "Point", "coordinates": [ 30.468872, 59.905596 ] } },
{ "type": "Feature", "properties": { "Наименование": "Animara", "Адрес": null, "Веб-сайт 1": null, "Веб-сайт 2": null, "Широта": null, "Долгота": null }, "geometry": { "type": "Point", "coordinates": [ 30.362481162043224, 59.924702855891937 ] } },
{ "type": "Feature", "properties": { "Наименование": "Школа рока", "Адрес": "Восстания, 24а", "Веб-сайт 1": "http://rokshkola.ru", "Веб-сайт 2": null, "Широта": "59.938134", "Долгота": "30.358923" }, "geometry": { "type": "Point", "coordinates": [ 30.358923, 59.938134 ] } },
{ "type": "Feature", "properties": { "Наименование": "Mv", "Адрес": "Дмитровский переулок, 13", "Веб-сайт 1": "http://mv-school.ru", "Веб-сайт 2": null, "Широта": "59.929589", "Долгота": "30.34923" }, "geometry": { "type": "Point", "coordinates": [ 30.34923, 59.929589 ] } },
{ "type": "Feature", "properties": { "Наименование": "Northern groove", "Адрес": "улица Звенигородская, 9-11", "Веб-сайт 1": "http://taplink.cc/northern_groove", "Веб-сайт 2": null, "Широта": "59.917302", "Долгота": "30.341923" }, "geometry": { "type": "Point", "coordinates": [ 30.341923, 59.917302 ] } },
{ "type": "Feature", "properties": { "Наименование": "Школа фортепиано", "Адрес": "Советский проспект, 41 к1", "Веб-сайт 1": null, "Веб-сайт 2": null, "Широта": "59.829798", "Долгота": "30.5355" }, "geometry": { "type": "Point", "coordinates": [ 30.5355, 59.829798 ] } },
{ "type": "Feature", "properties": { "Наименование": "Muz_studio29", "Адрес": "Лёни Голикова, 29 к2", "Веб-сайт 1": "http://muz-studio29.ru", "Веб-сайт 2": null, "Широта": "59.842957", "Долгота": "30.229696" }, "geometry": { "type": "Point", "coordinates": [ 30.229696, 59.842957 ] } },
{ "type": "Feature", "properties": { "Наименование": "Смена", "Адрес": "улица Солдата Корзуна, 40", "Веб-сайт 1": "http://spbgbukirovskiy.ru/клубы/смена", "Веб-сайт 2": null, "Широта": "59.831028", "Долгота": "30.221236" }, "geometry": { "type": "Point", "coordinates": [ 30.221236, 59.831028 ] } },
{ "type": "Feature", "properties": { "Наименование": "Аккорд", "Адрес": "улица Варшавская, 62", "Веб-сайт 1": null, "Веб-сайт 2": null, "Широта": "59.858572", "Долгота": "30.314977" }, "geometry": { "type": "Point", "coordinates": [ 30.314977, 59.858572 ] } },
{ "type": "Feature", "properties": { "Наименование": "Аккорд", "Адрес": "улица Варшавская, 47 к2", "Веб-сайт 1": null, "Веб-сайт 2": null, "Широта": "59.855888", "Долгота": "30.31163" }, "geometry": { "type": "Point", "coordinates": [ 30.31163, 59.855888 ] } },
{ "type": "Feature", "properties": { "Наименование": "Школа музыки Александра Фельдмана", "Адрес": "проспект Стачек, 72", "Веб-сайт 1": "http://feldmanschool.com", "Веб-сайт 2": null, "Широта": "59.87775", "Долгота": "30.261396" }, "geometry": { "type": "Point", "coordinates": [ 30.261396, 59.87775 ] } },
{ "type": "Feature", "properties": { "Наименование": "Гитарная школа №1", "Адрес": "Передовиков, 9 к2", "Веб-сайт 1": "http://guitarschool-1.tilda.ws", "Веб-сайт 2": null, "Широта": "59.939286", "Долгота": "30.470868" }, "geometry": { "type": "Point", "coordinates": [ 30.470868, 59.939286 ] } },
{ "type": "Feature", "properties": { "Наименование": "Студия вокала", "Адрес": "проспект Энгельса, 34", "Веб-сайт 1": null, "Веб-сайт 2": null, "Широта": "60.008554", "Долгота": "30.32521" }, "geometry": { "type": "Point", "coordinates": [ 30.32521, 60.008554 ] } },
{ "type": "Feature", "properties": { "Наименование": "Mydrums", "Адрес": "Урюпин переулок, 18", "Веб-сайт 1": "http://mydrums.ru", "Веб-сайт 2": null, "Широта": "59.899231", "Долгота": "30.291658" }, "geometry": { "type": "Point", "coordinates": [ 30.291658, 59.899231 ] } },
{ "type": "Feature", "properties": { "Наименование": "Гитарная школа №1", "Адрес": "проспект Художников, 10 к1", "Веб-сайт 1": "http://guitarschool-1.tilda.ws", "Веб-сайт 2": null, "Широта": "60.0359", "Долгота": "30.342055" }, "geometry": { "type": "Point", "coordinates": [ 30.342055, 60.0359 ] } },
{ "type": "Feature", "properties": { "Наименование": "D.c.sound", "Адрес": "Большеохтинский проспект, 11 к2", "Веб-сайт 1": null, "Веб-сайт 2": null, "Широта": "59.949494", "Долгота": "30.411467" }, "geometry": { "type": "Point", "coordinates": [ 30.411467, 59.949494 ] } },
{ "type": "Feature", "properties": { "Наименование": "Rock Yroki", "Адрес": "проспект Просвещения, 25 ст2", "Веб-сайт 1": "http://rockuroki.ru", "Веб-сайт 2": null, "Широта": "60.051185", "Долгота": "30.338717" }, "geometry": { "type": "Point", "coordinates": [ 30.338717, 60.051185 ] } },
{ "type": "Feature", "properties": { "Наименование": "Saber", "Адрес": "проспект Науки, 63 лит А", "Веб-сайт 1": "http://saber.tilda.ws", "Веб-сайт 2": null, "Широта": "60.006124", "Долгота": "30.41963" }, "geometry": { "type": "Point", "coordinates": [ 30.41963, 60.006124 ] } },
{ "type": "Feature", "properties": { "Наименование": "Musiclife", "Адрес": "Балтийский бульвар, 4 ст1", "Веб-сайт 1": "http://ml-profi.ru", "Веб-сайт 2": null, "Широта": "59.86871", "Долгота": "30.155535" }, "geometry": { "type": "Point", "coordinates": [ 30.155535, 59.86871 ] } },
{ "type": "Feature", "properties": { "Наименование": "Гитарная школа №1", "Адрес": "проспект Королёва, 63 к2", "Веб-сайт 1": "http://guitarschool-1.tilda.ws", "Веб-сайт 2": null, "Широта": "60.033563", "Долгота": "30.244278" }, "geometry": { "type": "Point", "coordinates": [ 30.244278, 60.033563 ] } },
{ "type": "Feature", "properties": { "Наименование": "Smartvoice", "Адрес": "Казанская, 7 лит В", "Веб-сайт 1": null, "Веб-сайт 2": null, "Широта": "59.932773", "Долгота": "30.320739" }, "geometry": { "type": "Point", "coordinates": [ 30.321304656061571, 59.932484347936715 ] } },
{ "type": "Feature", "properties": { "Наименование": "Детская школа искусств им. П. А. Серебрякова", "Адрес": null, "Веб-сайт 1": null, "Веб-сайт 2": null, "Широта": null, "Долгота": null }, "geometry": { "type": "Point", "coordinates": [ 30.339774888571863, 59.925727525757885 ] } },
{ "type": "Feature", "properties": { "Наименование": "Шум", "Адрес": "улица Савушкина, 85", "Веб-сайт 1": "http://shumusic.ru", "Веб-сайт 2": "http://drumscool.ru", "Широта": "59.986731", "Долгота": "30.249891" }, "geometry": { "type": "Point", "coordinates": [ 30.249891, 59.986731 ] } },
{ "type": "Feature", "properties": { "Наименование": "ГБУ ДО Санкт-Петербургская детская музыкальная школа имени Г.А. Портнова", "Адрес": null, "Веб-сайт 1": null, "Веб-сайт 2": null, "Широта": null, "Долгота": null }, "geometry": { "type": "Point", "coordinates": [ 30.322460736687376, 59.910965919533609 ] } },
{ "type": "Feature", "properties": { "Наименование": "Школа пианистов №1", "Адрес": "улица Бабушкина, 84 к1", "Веб-сайт 1": "http://piano-school-1.tilda.ws", "Веб-сайт 2": null, "Широта": "59.862697", "Долгота": "30.464608" }, "geometry": { "type": "Point", "coordinates": [ 30.464608, 59.862697 ] } },
{ "type": "Feature", "properties": { "Наименование": "Студия обучения игре на дхоле", "Адрес": "Невский проспект, 42", "Веб-сайт 1": null, "Веб-сайт 2": null, "Широта": "59.934805", "Долгота": "30.332577" }, "geometry": { "type": "Point", "coordinates": [ 30.332577, 59.934805 ] } },
{ "type": "Feature", "properties": { "Наименование": "Студия обучения игре на дудке", "Адрес": "Невский проспект, 42", "Веб-сайт 1": null, "Веб-сайт 2": null, "Широта": "59.934805", "Долгота": "30.332577" }, "geometry": { "type": "Point", "coordinates": [ 30.332577, 59.934805 ] } },
{ "type": "Feature", "properties": { "Наименование": "А на вокал?", "Адрес": "13-я линия В.О., 11а", "Веб-сайт 1": "http://mssg.me/ehvamusic", "Веб-сайт 2": null, "Широта": "59.935714", "Долгота": "30.27609" }, "geometry": { "type": "Point", "coordinates": [ 30.27609, 59.935714 ] } },
{ "type": "Feature", "properties": { "Наименование": "Школа музыки", "Адрес": "Невский проспект, 100 лит И", "Веб-сайт 1": "http://www.musicschooltroyan.ru", "Веб-сайт 2": null, "Широта": "59.93234", "Долгота": "30.355749" }, "geometry": { "type": "Point", "coordinates": [ 30.355749, 59.93234 ] } },
{ "type": "Feature", "properties": { "Наименование": "Гитарная школа №1", "Адрес": "улица Бабушкина, 84 к1", "Веб-сайт 1": "http://guitarschool-1.tilda.ws", "Веб-сайт 2": null, "Широта": "59.862352", "Долгота": "30.464225" }, "geometry": { "type": "Point", "coordinates": [ 30.464225, 59.862352 ] } },
{ "type": "Feature", "properties": { "Наименование": "Гитарная школа №1", "Адрес": "проспект Большевиков, 27", "Веб-сайт 1": "http://guitarschool-1.tilda.ws", "Веб-сайт 2": null, "Широта": "59.90064", "Долгота": "30.48685" }, "geometry": { "type": "Point", "coordinates": [ 30.48685, 59.90064 ] } },
{ "type": "Feature", "properties": { "Наименование": "Гитарная школа №1", "Адрес": "Туристская улица, 4 к1", "Веб-сайт 1": "http://guitarschool-1.tilda.ws", "Веб-сайт 2": null, "Широта": "59.986055", "Долгота": "30.200802" }, "geometry": { "type": "Point", "coordinates": [ 30.200802, 59.986055 ] } },
{ "type": "Feature", "properties": { "Наименование": "Open music", "Адрес": "Морская набережная, 17 к1", "Веб-сайт 1": null, "Веб-сайт 2": null, "Широта": "59.942405", "Долгота": "30.208483" }, "geometry": { "type": "Point", "coordinates": [ 30.208483, 59.942405 ] } },
{ "type": "Feature", "properties": { "Наименование": "Студия современной музыки", "Адрес": "Передовиков, 16 к2", "Веб-сайт 1": null, "Веб-сайт 2": null, "Широта": "59.945376", "Долгота": "30.459131" }, "geometry": { "type": "Point", "coordinates": [ 30.459131, 59.945376 ] } },
{ "type": "Feature", "properties": { "Наименование": "Sforzando", "Адрес": "Афанасьевская, 1", "Веб-сайт 1": "http://sf-studio.ru", "Веб-сайт 2": null, "Широта": "60.033724", "Долгота": "30.29598" }, "geometry": { "type": "Point", "coordinates": [ 30.29598, 60.033724 ] } },
{ "type": "Feature", "properties": { "Наименование": "Open music", "Адрес": "улица Оптиков, 51 к1", "Веб-сайт 1": null, "Веб-сайт 2": null, "Широта": "60.004294", "Долгота": "30.196885" }, "geometry": { "type": "Point", "coordinates": [ 30.196885, 60.004294 ] } },
{ "type": "Feature", "properties": { "Наименование": "Первый детский эстрадный центр", "Адрес": null, "Веб-сайт 1": null, "Веб-сайт 2": null, "Широта": null, "Долгота": null }, "geometry": { "type": "Point", "coordinates": [ 30.31607099015859, 59.910540165574204 ] } },
{ "type": "Feature", "properties": { "Наименование": "Вдохновение", "Адрес": "проспект Пятилеток, 6 к3 лит А", "Веб-сайт 1": null, "Веб-сайт 2": null, "Широта": "59.920294", "Долгота": "30.459218" }, "geometry": { "type": "Point", "coordinates": [ 30.459218, 59.920294 ] } },
{ "type": "Feature", "properties": { "Наименование": "Гитарная школа №1", "Адрес": "проспект Косыгина, 31 к1", "Веб-сайт 1": "http://guitarschool-1.tilda.ws", "Веб-сайт 2": null, "Широта": "59.944939", "Долгота": "30.497881" }, "geometry": { "type": "Point", "coordinates": [ 30.497881, 59.944939 ] } },
{ "type": "Feature", "properties": { "Наименование": "Music Space", "Адрес": "Конюшенная площадь, 2 лит В", "Веб-сайт 1": null, "Веб-сайт 2": null, "Широта": "59.9401", "Долгота": "30.325398" }, "geometry": { "type": "Point", "coordinates": [ 30.325398, 59.9401 ] } },
{ "type": "Feature", "properties": { "Наименование": "Basic drum school", "Адрес": "улица Савушкина, 85", "Веб-сайт 1": "http://basic-drum-school.clients.site", "Веб-сайт 2": null, "Широта": "59.986912", "Долгота": "30.249878" }, "geometry": { "type": "Point", "coordinates": [ 30.249878, 59.986912 ] } },
{ "type": "Feature", "properties": { "Наименование": "Клаасье", "Адрес": null, "Веб-сайт 1": null, "Веб-сайт 2": null, "Широта": null, "Долгота": null }, "geometry": { "type": "Point", "coordinates": [ 30.315056875548201, 59.910511230582131 ] } },
{ "type": "Feature", "properties": { "Наименование": "Kustanovich", "Адрес": "Гражданская, 13-15", "Веб-сайт 1": null, "Веб-сайт 2": null, "Широта": "59.928202", "Долгота": "30.312311" }, "geometry": { "type": "Point", "coordinates": [ 30.312311, 59.928202 ] } },
{ "type": "Feature", "properties": { "Наименование": "Музыкальная Нешкола", "Адрес": "улица Кораблестроителей, 30", "Веб-сайт 1": null, "Веб-сайт 2": null, "Широта": "59.952877", "Долгота": "30.212407" }, "geometry": { "type": "Point", "coordinates": [ 30.212407, 59.952877 ] } },
{ "type": "Feature", "properties": { "Наименование": "Санкт-Петербургская детская школа искусств имени М. Л. Ростроповича", "Адрес": null, "Веб-сайт 1": null, "Веб-сайт 2": null, "Широта": null, "Долгота": null }, "geometry": { "type": "Point", "coordinates": [ 30.308395049489793, 59.914148567831326 ] } },
{ "type": "Feature", "properties": { "Наименование": "Гитарная школа №1", "Адрес": "улица Солдата Корзуна, 1 к2", "Веб-сайт 1": "http://guitarschool-1.tilda.ws", "Веб-сайт 2": null, "Широта": "59.833847", "Долгота": "30.21614" }, "geometry": { "type": "Point", "coordinates": [ 30.21614, 59.833847 ] } },
{ "type": "Feature", "properties": { "Наименование": "Музыкальная лаборатория", "Адрес": "улица Оптиков, 37 ст1", "Веб-сайт 1": null, "Веб-сайт 2": null, "Широта": "60.001506", "Долгота": "30.21145" }, "geometry": { "type": "Point", "coordinates": [ 30.21145, 60.001506 ] } },
{ "type": "Feature", "properties": { "Наименование": "Смайлики", "Адрес": "проспект Маршала Блюхера, 7 к1 ст1", "Веб-сайт 1": null, "Веб-сайт 2": null, "Широта": "59.981252", "Долгота": "30.373584" }, "geometry": { "type": "Point", "coordinates": [ 30.373584, 59.981252 ] } },
{ "type": "Feature", "properties": { "Наименование": "Гитарная школа №1", "Адрес": "проспект Славы, 52 к1", "Веб-сайт 1": "http://guitarschool-1.tilda.ws", "Веб-сайт 2": null, "Широта": "59.865212", "Долгота": "30.410845" }, "geometry": { "type": "Point", "coordinates": [ 30.410845, 59.865212 ] } },
{ "type": "Feature", "properties": { "Наименование": "Гитарная школа №1", "Адрес": "улица Михаила Дудина, 25 к2", "Веб-сайт 1": "http://guitarschool-1.tilda.ws", "Веб-сайт 2": null, "Широта": "60.072513", "Долгота": "30.328926" }, "geometry": { "type": "Point", "coordinates": [ 30.328926, 60.072513 ] } },
{ "type": "Feature", "properties": { "Наименование": "Арт Нова", "Адрес": "проспект Стачек, 72", "Веб-сайт 1": "http://www.artnova-spb.ru", "Веб-сайт 2": null, "Широта": "59.878166", "Долгота": "30.263053" }, "geometry": { "type": "Point", "coordinates": [ 30.263053, 59.878166 ] } },
{ "type": "Feature", "properties": { "Наименование": "VoxStage", "Адрес": "Красноармейская 10-я, 15-17", "Веб-сайт 1": null, "Веб-сайт 2": null, "Широта": "59.912921", "Долгота": "30.294685" }, "geometry": { "type": "Point", "coordinates": [ 30.294825162181922, 59.912945799580491 ] } },
{ "type": "Feature", "properties": { "Наименование": "Art Muse", "Адрес": null, "Веб-сайт 1": null, "Веб-сайт 2": null, "Широта": null, "Долгота": null }, "geometry": { "type": "Point", "coordinates": [ 30.294382953714692, 59.913290936148734 ] } },
{ "type": "Feature", "properties": { "Наименование": "Мастерская Максима Леонидова", "Адрес": "проспект Энгельса, 154", "Веб-сайт 1": "http://mss-studio.ru", "Веб-сайт 2": null, "Широта": "60.058424", "Долгота": "30.333437" }, "geometry": { "type": "Point", "coordinates": [ 30.333437, 60.058424 ] } },
{ "type": "Feature", "properties": { "Наименование": "Музыкальная мастерская для детей и взрослых", "Адрес": "проспект Энгельса, 154 лит А", "Веб-сайт 1": null, "Веб-сайт 2": null, "Широта": "60.058939", "Долгота": "30.332512" }, "geometry": { "type": "Point", "coordinates": [ 30.332512, 60.058939 ] } },
{ "type": "Feature", "properties": { "Наименование": "Модерн вокал", "Адрес": null, "Веб-сайт 1": null, "Веб-сайт 2": null, "Широта": null, "Долгота": null }, "geometry": { "type": "Point", "coordinates": [ 30.307896237018813, 59.925576719477284 ] } },
{ "type": "Feature", "properties": { "Наименование": "Вокальная мастерская Екатерины Квернадзе", "Адрес": "Казанская, 7а лит А", "Веб-сайт 1": "http://voice-bvd.ru", "Веб-сайт 2": null, "Широта": "59.932395", "Долгота": "30.32146" }, "geometry": { "type": "Point", "coordinates": [ 30.32146, 59.932398498827354 ] } },
{ "type": "Feature", "properties": { "Наименование": "Нота", "Адрес": "Ленинский проспект, 114", "Веб-сайт 1": null, "Веб-сайт 2": null, "Широта": "59.852417", "Долгота": "30.243827" }, "geometry": { "type": "Point", "coordinates": [ 30.243827, 59.852417 ] } },
{ "type": "Feature", "properties": { "Наименование": "Не школа гитары", "Адрес": "набережная реки Мойки, 90", "Веб-сайт 1": "http://ne-shkola.com", "Веб-сайт 2": null, "Широта": "59.930188", "Долгота": "30.300571" }, "geometry": { "type": "Point", "coordinates": [ 30.300571, 59.930188 ] } },
{ "type": "Feature", "properties": { "Наименование": "Гитарная школа №1", "Адрес": "проспект Космонавтов, 61 к1", "Веб-сайт 1": "http://guitarschool-1.tilda.ws", "Веб-сайт 2": null, "Широта": "59.840208", "Долгота": "30.355798" }, "geometry": { "type": "Point", "coordinates": [ 30.355798, 59.840208 ] } },
{ "type": "Feature", "properties": { "Наименование": "Арлекин", "Адрес": "проспект Просвещения, 87 к1", "Веб-сайт 1": "http://studii-arlekin.ru", "Веб-сайт 2": null, "Широта": "60.036538", "Долгота": "30.412899" }, "geometry": { "type": "Point", "coordinates": [ 30.412899, 60.036538 ] } },
{ "type": "Feature", "properties": { "Наименование": "Аквариум", "Адрес": "проспект Просвещения, 87", "Веб-сайт 1": null, "Веб-сайт 2": null, "Широта": "60.036538", "Долгота": "30.412899" }, "geometry": { "type": "Point", "coordinates": [ 30.412899, 60.036538 ] } },
{ "type": "Feature", "properties": { "Наименование": "Дом музыканта", "Адрес": null, "Веб-сайт 1": null, "Веб-сайт 2": null, "Широта": null, "Долгота": null }, "geometry": { "type": "Point", "coordinates": [ 30.322225758911767, 59.925791566573821 ] } },
{ "type": "Feature", "properties": { "Наименование": "Нева", "Адрес": "улица Савушкина, 37", "Веб-сайт 1": null, "Веб-сайт 2": null, "Широта": "59.985051", "Долгота": "30.278552" }, "geometry": { "type": "Point", "coordinates": [ 30.278552, 59.985051 ] } },
{ "type": "Feature", "properties": { "Наименование": "Гитарная школа №1", "Адрес": "проспект Энгельса, 154 лит А", "Веб-сайт 1": "http://guitarschool-1.tilda.ws", "Веб-сайт 2": null, "Широта": "60.057963", "Долгота": "30.334138" }, "geometry": { "type": "Point", "coordinates": [ 30.334138, 60.057963 ] } },
{ "type": "Feature", "properties": { "Наименование": "Школа пианистов №1", "Адрес": "улица Долгоозёрная, 12 к1", "Веб-сайт 1": "http://piano-school-1.tilda.ws", "Веб-сайт 2": null, "Широта": "60.01695", "Долгота": "30.244724" }, "geometry": { "type": "Point", "coordinates": [ 30.244724, 60.01695 ] } },
{ "type": "Feature", "properties": { "Наименование": "Радуга", "Адрес": "проспект Народного Ополчения, 115", "Веб-сайт 1": null, "Веб-сайт 2": null, "Широта": "59.838505", "Долгота": "30.269415" }, "geometry": { "type": "Point", "coordinates": [ 30.269415, 59.838505 ] } },
{ "type": "Feature", "properties": { "Наименование": "Гитара для души", "Адрес": "Магазейная, 42 лит А", "Веб-сайт 1": "http://pushkindm.ru", "Веб-сайт 2": null, "Широта": "59.722569", "Долгота": "30.409534" }, "geometry": { "type": "Point", "coordinates": [ 30.409534, 59.722569 ] } },
{ "type": "Feature", "properties": { "Наименование": "Санкт-Петербургская городская детская музыкальная школа им. С. С. Ляховицкой", "Адрес": null, "Веб-сайт 1": null, "Веб-сайт 2": null, "Широта": null, "Долгота": null }, "geometry": { "type": "Point", "coordinates": [ 30.323396525372516, 59.92901410607891 ] } },
{ "type": "Feature", "properties": { "Наименование": "Ассорти", "Адрес": "Асафьева, 5 к1", "Веб-сайт 1": "http://assorti-studia.ru", "Веб-сайт 2": null, "Широта": "60.048207", "Долгота": "30.323459" }, "geometry": { "type": "Point", "coordinates": [ 30.323459, 60.048207 ] } },
{ "type": "Feature", "properties": { "Наименование": "Международная академия музыки Елены Образцовой", "Адрес": null, "Веб-сайт 1": null, "Веб-сайт 2": null, "Широта": null, "Долгота": null }, "geometry": { "type": "Point", "coordinates": [ 30.331443483581687, 59.934004293105396 ] } },
{ "type": "Feature", "properties": { "Наименование": "Санкт-Петербургская музыкальная школа имени Н. А. Римского-Корсакова", "Адрес": null, "Веб-сайт 1": null, "Веб-сайт 2": null, "Широта": null, "Долгота": null }, "geometry": { "type": "Point", "coordinates": [ 30.327848735857106, 59.93332686142341 ] } },
{ "type": "Feature", "properties": { "Наименование": "Студия Рондо", "Адрес": "проспект Культуры, 31 к1", "Веб-сайт 1": "http://rondospb.ru", "Веб-сайт 2": "http://3d-tour.github.io/Rondo", "Широта": "60.050872", "Долгота": "30.382028" }, "geometry": { "type": "Point", "coordinates": [ 30.382028, 60.050872 ] } },
{ "type": "Feature", "properties": { "Наименование": "Голос", "Адрес": "проспект Луначарского, 72/1", "Веб-сайт 1": null, "Веб-сайт 2": null, "Широта": "60.038385", "Долгота": "30.357857" }, "geometry": { "type": "Point", "coordinates": [ 30.357857, 60.038385 ] } },
{ "type": "Feature", "properties": { "Наименование": "Гитарная школа №1", "Адрес": "Муринская дорога, 68 к2", "Веб-сайт 1": "http://guitarschool-1.tilda.ws", "Веб-сайт 2": null, "Широта": "60.032002", "Долгота": "30.455915" }, "geometry": { "type": "Point", "coordinates": [ 30.455915, 60.032002 ] } },
{ "type": "Feature", "properties": { "Наименование": "GIRstudio", "Адрес": "Демьяна Бедного, 26 к1 лит В", "Веб-сайт 1": "http://girstudio.com", "Веб-сайт 2": null, "Широта": "60.046869", "Долгота": "30.387936" }, "geometry": { "type": "Point", "coordinates": [ 30.387936, 60.046869 ] } },
{ "type": "Feature", "properties": { "Наименование": "Стерео панда", "Адрес": null, "Веб-сайт 1": null, "Веб-сайт 2": null, "Широта": null, "Долгота": null }, "geometry": { "type": "Point", "coordinates": [ 30.309223260434837, 59.928321580428495 ] } },
{ "type": "Feature", "properties": { "Наименование": "Барабанная школа", "Адрес": "проспект Большевиков, 6 к2", "Веб-сайт 1": null, "Веб-сайт 2": null, "Широта": "59.916818", "Долгота": "30.476353" }, "geometry": { "type": "Point", "coordinates": [ 30.476353, 59.916818 ] } },
{ "type": "Feature", "properties": { "Наименование": "Гитарная школа №1", "Адрес": "Шлиссельбургский проспект, 37", "Веб-сайт 1": "http://guitarschool-1.tilda.ws", "Веб-сайт 2": null, "Широта": "59.834717", "Долгота": "30.51003" }, "geometry": { "type": "Point", "coordinates": [ 30.51003, 59.834717 ] } },
{ "type": "Feature", "properties": { "Наименование": "Хоровое училище имени М. И. Глинки", "Адрес": null, "Веб-сайт 1": null, "Веб-сайт 2": null, "Широта": null, "Долгота": null }, "geometry": { "type": "Point", "coordinates": [ 30.288021633238372, 59.923954207388576 ] } },
{ "type": "Feature", "properties": { "Наименование": "Гитарная школа №1", "Адрес": "Володарского, 4/2", "Веб-сайт 1": "http://guitarschool-1.tilda.ws", "Веб-сайт 2": null, "Широта": "60.096356", "Долгота": "29.971903" }, "geometry": { "type": "Point", "coordinates": [ 29.971903, 60.096356 ] } },
{ "type": "Feature", "properties": { "Наименование": "Гитарная школа №1", "Адрес": "Первомайская, 19 к1", "Веб-сайт 1": "http://guitarschool-1.tilda.ws", "Веб-сайт 2": null, "Широта": "59.80655", "Долгота": "30.375293" }, "geometry": { "type": "Point", "coordinates": [ 30.375293, 59.80655 ] } },
{ "type": "Feature", "properties": { "Наименование": "Нафаня", "Адрес": "улица Турку, 25", "Веб-сайт 1": null, "Веб-сайт 2": null, "Широта": "59.866515", "Долгота": "30.401513" }, "geometry": { "type": "Point", "coordinates": [ 30.401513, 59.866515 ] } },
{ "type": "Feature", "properties": { "Наименование": "Триумф", "Адрес": "Ленинский проспект, 114", "Веб-сайт 1": "http://uroki-vokala-spb.ru", "Веб-сайт 2": "http://triumphvoice.ru/", "Широта": "59.852462", "Долгота": "30.244005" }, "geometry": { "type": "Point", "coordinates": [ 30.244005, 59.852462 ] } },
{ "type": "Feature", "properties": { "Наименование": "Санкт-Петербургское музыкальное училище им. Н. А. Римского-Корсакова", "Адрес": null, "Веб-сайт 1": null, "Веб-сайт 2": null, "Широта": null, "Долгота": null }, "geometry": { "type": "Point", "coordinates": [ 30.292253578587864, 59.927201795992751 ] } },
{ "type": "Feature", "properties": { "Наименование": "Гитарная школа №1", "Адрес": "улица Пионерстроя, 27", "Веб-сайт 1": "http://guitarschool-1.tilda.ws", "Веб-сайт 2": null, "Широта": "59.837526", "Долгота": "30.126967" }, "geometry": { "type": "Point", "coordinates": [ 30.126967, 59.837526 ] } },
{ "type": "Feature", "properties": { "Наименование": "Creativita", "Адрес": "проспект Королёва, 63 к1", "Веб-сайт 1": null, "Веб-сайт 2": null, "Широта": "60.032146", "Долгота": "30.243791" }, "geometry": { "type": "Point", "coordinates": [ 30.243791, 60.032146 ] } },
{ "type": "Feature", "properties": { "Наименование": "New Voices Studio", "Адрес": "проспект КИМа, 6", "Веб-сайт 1": "http://newvoices.studio", "Веб-сайт 2": null, "Широта": "59.950922", "Долгота": "30.245631" }, "geometry": { "type": "Point", "coordinates": [ 30.245631, 59.950922 ] } },
{ "type": "Feature", "properties": { "Наименование": "Amdm", "Адрес": "улица Купчинская, 23 к1 лит Г", "Веб-сайт 1": null, "Веб-сайт 2": null, "Широта": "59.833641", "Долгота": "30.389636" }, "geometry": { "type": "Point", "coordinates": [ 30.389636, 59.833641 ] } },
{ "type": "Feature", "properties": { "Наименование": "Musicsteps", "Адрес": "улица Кораблестроителей, 34", "Веб-сайт 1": "http://musicsteps.spb.ru", "Веб-сайт 2": null, "Широта": "59.954404", "Долгота": "30.216579" }, "geometry": { "type": "Point", "coordinates": [ 30.216579, 59.954404 ] } },
{ "type": "Feature", "properties": { "Наименование": "Гитарная школа №1", "Адрес": "улица Оптиков, 45 к1", "Веб-сайт 1": "http://guitarschool-1.tilda.ws", "Веб-сайт 2": null, "Широта": "60.002958", "Долгота": "30.203926" }, "geometry": { "type": "Point", "coordinates": [ 30.203926, 60.002958 ] } },
{ "type": "Feature", "properties": { "Наименование": "Magic Music", "Адрес": "Богатырский проспект, 66 к1", "Веб-сайт 1": "http://magic-music.ru", "Веб-сайт 2": null, "Широта": "60.00657", "Долгота": "30.198566" }, "geometry": { "type": "Point", "coordinates": [ 30.198566, 60.00657 ] } },
{ "type": "Feature", "properties": { "Наименование": "Районы кварталы", "Адрес": null, "Веб-сайт 1": null, "Веб-сайт 2": null, "Широта": null, "Долгота": null }, "geometry": { "type": "Point", "coordinates": [ 30.449945918417701, 59.869243409595164 ] } },
{ "type": "Feature", "properties": { "Наименование": "Оливер", "Адрес": "Новгородский проспект, 6", "Веб-сайт 1": "http://oliver-spb.ru", "Веб-сайт 2": null, "Широта": "59.810079", "Долгота": "30.367883" }, "geometry": { "type": "Point", "coordinates": [ 30.367883, 59.810079 ] } },
{ "type": "Feature", "properties": { "Наименование": "Шушары", "Адрес": "Валдайская, 9", "Веб-сайт 1": "http://gu111.site.gov.spb.ru", "Веб-сайт 2": null, "Широта": "59.80415", "Долгота": "30.378133" }, "geometry": { "type": "Point", "coordinates": [ 30.378133, 59.80415 ] } },
{ "type": "Feature", "properties": { "Наименование": "Undergrond mix Academy", "Адрес": "Гостиная, 1", "Веб-сайт 1": null, "Веб-сайт 2": null, "Широта": "60.201265", "Долгота": "29.704224" }, "geometry": { "type": "Point", "coordinates": [ 29.704224, 60.201265 ] } },
{ "type": "Feature", "properties": { "Наименование": "FreedomVoice", "Адрес": "Радищева, 22 лит А", "Веб-сайт 1": null, "Веб-сайт 2": null, "Широта": "59.706127", "Долгота": "30.410774" }, "geometry": { "type": "Point", "coordinates": [ 30.410774, 59.706127 ] } },
{ "type": "Feature", "properties": { "Наименование": "Октава", "Адрес": null, "Веб-сайт 1": null, "Веб-сайт 2": null, "Широта": null, "Долгота": null }, "geometry": { "type": "Point", "coordinates": [ 30.284432161440265, 59.906619028093409 ] } },
{ "type": "Feature", "properties": { "Наименование": "Санкт-Петербургская детская музыкальная школа № 9", "Адрес": null, "Веб-сайт 1": null, "Веб-сайт 2": null, "Широта": null, "Долгота": null }, "geometry": { "type": "Point", "coordinates": [ 30.274655390005794, 59.89758378408338 ] } },
{ "type": "Feature", "properties": { "Наименование": "R Team", "Адрес": null, "Веб-сайт 1": null, "Веб-сайт 2": null, "Широта": null, "Долгота": null }, "geometry": { "type": "Point", "coordinates": [ 30.27085641596268, 59.899250936508615 ] } },
{ "type": "Feature", "properties": { "Наименование": "Войс доминатор", "Адрес": null, "Веб-сайт 1": null, "Веб-сайт 2": null, "Широта": null, "Долгота": null }, "geometry": { "type": "Point", "coordinates": [ 30.271415088616084, 59.899222917831473 ] } },
{ "type": "Feature", "properties": { "Наименование": "Школа Тайко японские барабаны", "Адрес": null, "Веб-сайт 1": null, "Веб-сайт 2": null, "Широта": null, "Долгота": null }, "geometry": { "type": "Point", "coordinates": [ 30.286108179400461, 59.895965585529034 ] } },
{ "type": "Feature", "properties": { "Наименование": "Школа вокал Юрия Мартьянова", "Адрес": null, "Веб-сайт 1": null, "Веб-сайт 2": null, "Широта": null, "Долгота": null }, "geometry": { "type": "Point", "coordinates": [ 30.321472158360585, 59.884488825164389 ] } },
{ "type": "Feature", "properties": { "Наименование": "Школа рока Юг", "Адрес": null, "Веб-сайт 1": null, "Веб-сайт 2": null, "Широта": null, "Долгота": null }, "geometry": { "type": "Point", "coordinates": [ 30.36085858042517, 59.886296783052927 ] } },
{ "type": "Feature", "properties": { "Наименование": "Анатомия звука", "Адрес": null, "Веб-сайт 1": null, "Веб-сайт 2": null, "Широта": null, "Долгота": null }, "geometry": { "type": "Point", "coordinates": [ 30.350579003602626, 59.91355838722486 ] } },
{ "type": "Feature", "properties": { "Наименование": "Santa Monica", "Адрес": null, "Веб-сайт 1": null, "Веб-сайт 2": null, "Широта": null, "Долгота": null }, "geometry": { "type": "Point", "coordinates": [ 30.354433844911078, 59.911324786128226 ] } },
{ "type": "Feature", "properties": { "Наименование": "Scream Soul", "Адрес": null, "Веб-сайт 1": null, "Веб-сайт 2": null, "Широта": null, "Долгота": null }, "geometry": { "type": "Point", "coordinates": [ 30.443381514740281, 59.881993962082838 ] } },
{ "type": "Feature", "properties": { "Наименование": "Music Station", "Адрес": null, "Веб-сайт 1": null, "Веб-сайт 2": null, "Широта": null, "Долгота": null }, "geometry": { "type": "Point", "coordinates": [ 30.399008939244101, 59.879540964679606 ] } },
{ "type": "Feature", "properties": { "Наименование": "Санкт-Петербургская детская музыкальная школа им. А. К. Глазунова", "Адрес": null, "Веб-сайт 1": null, "Веб-сайт 2": null, "Широта": null, "Долгота": null }, "geometry": { "type": "Point", "coordinates": [ 30.417193734112228, 59.891811147777396 ] } },
{ "type": "Feature", "properties": { "Наименование": "Ocean studio music zone", "Адрес": null, "Веб-сайт 1": null, "Веб-сайт 2": null, "Широта": null, "Долгота": null }, "geometry": { "type": "Point", "coordinates": [ 30.414107067702187, 59.89775890906963 ] } },
{ "type": "Feature", "properties": { "Наименование": "Школа диджеев MixMaster DJ", "Адрес": null, "Веб-сайт 1": null, "Веб-сайт 2": null, "Широта": null, "Долгота": null }, "geometry": { "type": "Point", "coordinates": [ 30.395321699731667, 59.916645970724325 ] } },
{ "type": "Feature", "properties": { "Наименование": "Студия RM-Sound", "Адрес": null, "Веб-сайт 1": null, "Веб-сайт 2": null, "Широта": null, "Долгота": null }, "geometry": { "type": "Point", "coordinates": [ 30.395684836956381, 59.916905006621128 ] } },
{ "type": "Feature", "properties": { "Наименование": "Элен и ребята", "Адрес": null, "Веб-сайт 1": null, "Веб-сайт 2": null, "Широта": null, "Долгота": null }, "geometry": { "type": "Point", "coordinates": [ 30.444526793679735, 59.866039231087868 ] } },
{ "type": "Feature", "properties": { "Наименование": "Голос", "Адрес": null, "Веб-сайт 1": null, "Веб-сайт 2": null, "Широта": null, "Долгота": null }, "geometry": { "type": "Point", "coordinates": [ 30.459806490750189, 59.861951176668562 ] } },
{ "type": "Feature", "properties": { "Наименование": "Ки-Ви", "Адрес": null, "Веб-сайт 1": null, "Веб-сайт 2": null, "Широта": null, "Долгота": null }, "geometry": { "type": "Point", "coordinates": [ 30.465916972896739, 59.864247701333952 ] } },
{ "type": "Feature", "properties": { "Наименование": "Волшебные клавиши", "Адрес": null, "Веб-сайт 1": null, "Веб-сайт 2": null, "Широта": null, "Долгота": null }, "geometry": { "type": "Point", "coordinates": [ 30.466000773794743, 59.864198616968842 ] } },
{ "type": "Feature", "properties": { "Наименование": "Затея", "Адрес": null, "Веб-сайт 1": null, "Веб-сайт 2": null, "Широта": null, "Долгота": null }, "geometry": { "type": "Point", "coordinates": [ 30.466084574692751, 59.864198616968842 ] } },
{ "type": "Feature", "properties": { "Наименование": "Лествица", "Адрес": null, "Веб-сайт 1": null, "Веб-сайт 2": null, "Широта": null, "Долгота": null }, "geometry": { "type": "Point", "coordinates": [ 30.46598680697841, 59.864160050631163 ] } },
{ "type": "Feature", "properties": { "Наименование": "Петербургский клуб гусляров", "Адрес": null, "Веб-сайт 1": null, "Веб-сайт 2": null, "Широта": null, "Долгота": null }, "geometry": { "type": "Point", "coordinates": [ 30.466098541509087, 59.864146026497288 ] } },
{ "type": "Feature", "properties": { "Наименование": "Отрада", "Адрес": null, "Веб-сайт 1": null, "Веб-сайт 2": null, "Широта": null, "Долгота": null }, "geometry": { "type": "Point", "coordinates": [ 30.466084574692751, 59.864100448021333 ] } },
{ "type": "Feature", "properties": { "Наименование": "Почерк", "Адрес": null, "Веб-сайт 1": null, "Веб-сайт 2": null, "Широта": null, "Долгота": null }, "geometry": { "type": "Point", "coordinates": [ 30.508103741636489, 59.83292768222379 ] } },
{ "type": "Feature", "properties": { "Наименование": "Уроки игры на гитаре", "Адрес": null, "Веб-сайт 1": null, "Веб-сайт 2": null, "Широта": null, "Долгота": null }, "geometry": { "type": "Point", "coordinates": [ 30.390964053035152, 59.827796654732673 ] } },
{ "type": "Feature", "properties": { "Наименование": "Amdm", "Адрес": null, "Веб-сайт 1": null, "Веб-сайт 2": null, "Широта": null, "Долгота": null }, "geometry": { "type": "Point", "coordinates": [ 30.400098350918217, 59.828596894355513 ] } },
{ "type": "Feature", "properties": { "Наименование": "Детская музыкальная школа № 24", "Адрес": null, "Веб-сайт 1": null, "Веб-сайт 2": null, "Широта": null, "Долгота": null }, "geometry": { "type": "Point", "coordinates": [ 30.410741064965457, 59.829677889283715 ] } },
{ "type": "Feature", "properties": { "Наименование": "Amdm", "Адрес": null, "Веб-сайт 1": null, "Веб-сайт 2": null, "Широта": null, "Долгота": null }, "geometry": { "type": "Point", "coordinates": [ 30.42345086783028, 59.833875186331383 ] } },
{ "type": "Feature", "properties": { "Наименование": "Звуки музыки", "Адрес": null, "Веб-сайт 1": null, "Веб-сайт 2": null, "Широта": null, "Долгота": null }, "geometry": { "type": "Point", "coordinates": [ 30.376522364944808, 59.845215068834193 ] } },
{ "type": "Feature", "properties": { "Наименование": "Студия гитары", "Адрес": null, "Веб-сайт 1": null, "Веб-сайт 2": null, "Широта": null, "Долгота": null }, "geometry": { "type": "Point", "coordinates": [ 30.39115958846385, 59.841622652769018 ] } },
{ "type": "Feature", "properties": { "Наименование": "Гитарная школа №1", "Адрес": null, "Веб-сайт 1": null, "Веб-сайт 2": null, "Широта": null, "Долгота": null }, "geometry": { "type": "Point", "coordinates": [ 30.399050839693096, 59.8450747473577 ] } },
{ "type": "Feature", "properties": { "Наименование": "Студия эстрадного вокала Либерканто", "Адрес": null, "Веб-сайт 1": null, "Веб-сайт 2": null, "Широта": null, "Долгота": null }, "geometry": { "type": "Point", "coordinates": [ 30.371340676084511, 59.859293321193604 ] } },
{ "type": "Feature", "properties": { "Наименование": "Юниарт Джуниор", "Адрес": null, "Веб-сайт 1": null, "Веб-сайт 2": null, "Широта": null, "Долгота": null }, "geometry": { "type": "Point", "coordinates": [ 30.370893737961786, 59.865443233857917 ] } },
{ "type": "Feature", "properties": { "Наименование": "Барселона", "Адрес": null, "Веб-сайт 1": null, "Веб-сайт 2": null, "Широта": null, "Долгота": null }, "geometry": { "type": "Point", "coordinates": [ 30.359538716281445, 59.87682843965618 ] } },
{ "type": "Feature", "properties": { "Наименование": "Гитарная школа №1", "Адрес": null, "Веб-сайт 1": null, "Веб-сайт 2": null, "Широта": null, "Долгота": null }, "geometry": { "type": "Point", "coordinates": [ 30.388617627890852, 59.865695657517918 ] } },
{ "type": "Feature", "properties": { "Наименование": "Эрмитаж", "Адрес": null, "Веб-сайт 1": null, "Веб-сайт 2": null, "Широта": null, "Долгота": null }, "geometry": { "type": "Point", "coordinates": [ 30.330040800182015, 59.874227852564104 ] } },
{ "type": "Feature", "properties": { "Наименование": "MusicLife", "Адрес": null, "Веб-сайт 1": null, "Веб-сайт 2": null, "Широта": null, "Долгота": null }, "geometry": { "type": "Point", "coordinates": [ 30.314467799968522, 59.867637853264867 ] } },
{ "type": "Feature", "properties": { "Наименование": "PianoPower", "Адрес": null, "Веб-сайт 1": null, "Веб-сайт 2": null, "Широта": null, "Долгота": null }, "geometry": { "type": "Point", "coordinates": [ 30.318294707644295, 59.855618258307594 ] } },
{ "type": "Feature", "properties": { "Наименование": "Школа акустического рока Ярослава Цесника", "Адрес": null, "Веб-сайт 1": null, "Веб-сайт 2": null, "Широта": null, "Долгота": null }, "geometry": { "type": "Point", "coordinates": [ 30.331116245039787, 59.858549925195675 ] } },
{ "type": "Feature", "properties": { "Наименование": "Birdland", "Адрес": null, "Веб-сайт 1": null, "Веб-сайт 2": null, "Широта": null, "Долгота": null }, "geometry": { "type": "Point", "coordinates": [ 30.333881674674103, 59.860050726446445 ] } },
{ "type": "Feature", "properties": { "Наименование": "Assole music", "Адрес": null, "Веб-сайт 1": null, "Веб-сайт 2": null, "Широта": null, "Долгота": null }, "geometry": { "type": "Point", "coordinates": [ 30.311241465395121, 59.845544821975544 ] } },
{ "type": "Feature", "properties": { "Наименование": "Mandarin club", "Адрес": null, "Веб-сайт 1": null, "Веб-сайт 2": null, "Широта": null, "Долгота": null }, "geometry": { "type": "Point", "coordinates": [ 30.311004029517427, 59.84543958196619 ] } },
{ "type": "Feature", "properties": { "Наименование": "Я творю!", "Адрес": null, "Веб-сайт 1": null, "Веб-сайт 2": null, "Широта": null, "Долгота": null }, "geometry": { "type": "Point", "coordinates": [ 30.339636003004099, 59.849943556736434 ] } },
{ "type": "Feature", "properties": { "Наименование": "Music Voice Elephant", "Адрес": null, "Веб-сайт 1": null, "Веб-сайт 2": null, "Широта": null, "Долгота": null }, "geometry": { "type": "Point", "coordinates": [ 30.36025102391449, 59.844246838605528 ] } },
{ "type": "Feature", "properties": { "Наименование": "El Sol", "Адрес": null, "Веб-сайт 1": null, "Веб-сайт 2": null, "Широта": null, "Долгота": null }, "geometry": { "type": "Point", "coordinates": [ 30.34851889819312, 59.838282480695391 ] } },
{ "type": "Feature", "properties": { "Наименование": "Голоса на миллион", "Адрес": null, "Веб-сайт 1": null, "Веб-сайт 2": null, "Широта": null, "Долгота": null }, "geometry": { "type": "Point", "coordinates": [ 30.36298851991614, 59.831994188851809 ] } },
{ "type": "Feature", "properties": { "Наименование": "Реп-точка", "Адрес": null, "Веб-сайт 1": null, "Веб-сайт 2": null, "Широта": null, "Долгота": null }, "geometry": { "type": "Point", "coordinates": [ 30.264298995693281, 59.855597216702471 ] } },
{ "type": "Feature", "properties": { "Наименование": "Детская школа искусств С.М. Слонимского", "Адрес": null, "Веб-сайт 1": null, "Веб-сайт 2": null, "Широта": null, "Долгота": null }, "geometry": { "type": "Point", "coordinates": [ 30.272511483698239, 59.85315630020785 ] } },
{ "type": "Feature", "properties": { "Наименование": "Артист", "Адрес": null, "Веб-сайт 1": null, "Веб-сайт 2": null, "Широта": null, "Долгота": null }, "geometry": { "type": "Point", "coordinates": [ 30.242999600782468, 59.851613099696721 ] } },
{ "type": "Feature", "properties": { "Наименование": "Пой Твори", "Адрес": null, "Веб-сайт 1": null, "Веб-сайт 2": null, "Широта": null, "Долгота": null }, "geometry": { "type": "Point", "coordinates": [ 30.248348891438763, 59.851374598687556 ] } },
{ "type": "Feature", "properties": { "Наименование": "Школа гитаристов", "Адрес": null, "Веб-сайт 1": null, "Веб-сайт 2": null, "Широта": null, "Долгота": null }, "geometry": { "type": "Point", "coordinates": [ 30.218138667706235, 59.848316022476112 ] } },
{ "type": "Feature", "properties": { "Наименование": "Гитарная школа №1", "Адрес": null, "Веб-сайт 1": null, "Веб-сайт 2": null, "Широта": null, "Долгота": null }, "geometry": { "type": "Point", "coordinates": [ 30.238250883228581, 59.842871622628181 ] } },
{ "type": "Feature", "properties": { "Наименование": "Гитарная школа №1", "Адрес": null, "Веб-сайт 1": null, "Веб-сайт 2": null, "Широта": null, "Долгота": null }, "geometry": { "type": "Point", "coordinates": [ 30.220708561911856, 59.859489687174197 ] } },
{ "type": "Feature", "properties": { "Наименование": "Гитарная школа №1", "Адрес": null, "Веб-сайт 1": null, "Веб-сайт 2": null, "Широта": null, "Долгота": null }, "geometry": { "type": "Point", "coordinates": [ 30.193780540018036, 59.853008997794063 ] } },
{ "type": "Feature", "properties": { "Наименование": "Voice Lab Kids", "Адрес": null, "Веб-сайт 1": null, "Веб-сайт 2": null, "Широта": null, "Долгота": null }, "geometry": { "type": "Point", "coordinates": [ 30.179813723683079, 59.863837494055794 ] } },
{ "type": "Feature", "properties": { "Наименование": "Mandarin club", "Адрес": null, "Веб-сайт 1": null, "Веб-сайт 2": null, "Широта": null, "Долгота": null }, "geometry": { "type": "Point", "coordinates": [ 30.167913996165684, 59.866866597772912 ] } },
{ "type": "Feature", "properties": { "Наименование": "PROмьюз", "Адрес": null, "Веб-сайт 1": null, "Веб-сайт 2": null, "Широта": null, "Долгота": null }, "geometry": { "type": "Point", "coordinates": [ 30.173612457230345, 59.866726367580007 ] } },
{ "type": "Feature", "properties": { "Наименование": "Мьюзик Соул", "Адрес": null, "Веб-сайт 1": null, "Веб-сайт 2": null, "Широта": null, "Долгота": null }, "geometry": { "type": "Point", "coordinates": [ 30.14210331957867, 59.85380863163077 ] } },
{ "type": "Feature", "properties": { "Наименование": "Гитарная школа № 1", "Адрес": null, "Веб-сайт 1": null, "Веб-сайт 2": null, "Широта": null, "Долгота": null }, "geometry": { "type": "Point", "coordinates": [ 30.138430046882572, 59.84850543788324 ] } },
{ "type": "Feature", "properties": { "Наименование": "Гитарная школа №1", "Адрес": null, "Веб-сайт 1": null, "Веб-сайт 2": null, "Широта": null, "Долгота": null }, "geometry": { "type": "Point", "coordinates": [ 30.170106786330276, 59.859524752405896 ] } },
{ "type": "Feature", "properties": { "Наименование": "Sunny voice", "Адрес": null, "Веб-сайт 1": null, "Веб-сайт 2": null, "Широта": null, "Долгота": null }, "geometry": { "type": "Point", "coordinates": [ 30.115384799929892, 59.845636029714456 ] } },
{ "type": "Feature", "properties": { "Наименование": "Sunny voice", "Адрес": null, "Веб-сайт 1": null, "Веб-сайт 2": null, "Широта": null, "Долгота": null }, "geometry": { "type": "Point", "coordinates": [ 30.084294666768269, 59.849655937937221 ] } },
{ "type": "Feature", "properties": { "Наименование": "Детская музыкальная школа № 42", "Адрес": null, "Веб-сайт 1": null, "Веб-сайт 2": null, "Широта": null, "Долгота": null }, "geometry": { "type": "Point", "coordinates": [ 30.03271521404325, 59.85408920035276 ] } },
{ "type": "Feature", "properties": { "Наименование": "Детская музыкальная школа № 17 им. А.Г. Рубинштейна", "Адрес": null, "Веб-сайт 1": null, "Веб-сайт 2": null, "Широта": null, "Долгота": null }, "geometry": { "type": "Point", "coordinates": [ 29.925924936346103, 59.876407873322528 ] } },
{ "type": "Feature", "properties": { "Наименование": "Школа Канторум", "Адрес": null, "Веб-сайт 1": null, "Веб-сайт 2": null, "Широта": null, "Долгота": null }, "geometry": { "type": "Point", "coordinates": [ 29.925058993733348, 59.862820719163068 ] } },
{ "type": "Feature", "properties": { "Наименование": "Детская музыкальная школа № 22", "Адрес": null, "Веб-сайт 1": null, "Веб-сайт 2": null, "Широта": null, "Долгота": null }, "geometry": { "type": "Point", "coordinates": [ 29.868325785780719, 59.871963563917198 ] } },
{ "type": "Feature", "properties": { "Наименование": "Василек", "Адрес": null, "Веб-сайт 1": null, "Веб-сайт 2": null, "Широта": null, "Долгота": null }, "geometry": { "type": "Point", "coordinates": [ 29.941847106967952, 59.86038033260656 ] } },
{ "type": "Feature", "properties": { "Наименование": "СПб ГБУ Детская школа искусств имени И.Ф. Стравинского", "Адрес": null, "Веб-сайт 1": null, "Веб-сайт 2": null, "Широта": null, "Долгота": null }, "geometry": { "type": "Point", "coordinates": [ 29.774524647275101, 59.894319285328663 ] } },
{ "type": "Feature", "properties": { "Наименование": "Детская школа искусств им. И.Ф. Стравинского, филиал", "Адрес": null, "Веб-сайт 1": null, "Веб-сайт 2": null, "Широта": null, "Долгота": null }, "geometry": { "type": "Point", "coordinates": [ 29.774803983601792, 59.908135167309737 ] } },
{ "type": "Feature", "properties": { "Наименование": "Детская школа искусств им. И.Ф. Стравинского, филиал", "Адрес": null, "Веб-сайт 1": null, "Веб-сайт 2": null, "Широта": null, "Долгота": null }, "geometry": { "type": "Point", "coordinates": [ 29.788107376160831, 59.987933953911465 ] } },
{ "type": "Feature", "properties": { "Наименование": "Детская музыкальная школа № 8 Кронштадского района", "Адрес": null, "Веб-сайт 1": null, "Веб-сайт 2": null, "Широта": null, "Долгота": null }, "geometry": { "type": "Point", "coordinates": [ 29.719837577915527, 60.011552022661427 ] } },
{ "type": "Feature", "properties": { "Наименование": "Санкт-Петербургская детская музыкальная школа № 34", "Адрес": null, "Веб-сайт 1": null, "Веб-сайт 2": null, "Широта": null, "Долгота": null }, "geometry": { "type": "Point", "coordinates": [ 30.089581106751005, 59.735932909199335 ] } },
{ "type": "Feature", "properties": { "Наименование": "Classicum", "Адрес": null, "Веб-сайт 1": null, "Веб-сайт 2": null, "Широта": null, "Долгота": null }, "geometry": { "type": "Point", "coordinates": [ 30.38598488301156, 59.805441846391787 ] } },
{ "type": "Feature", "properties": { "Наименование": "Юла", "Адрес": null, "Веб-сайт 1": null, "Веб-сайт 2": null, "Широта": null, "Долгота": null }, "geometry": { "type": "Point", "coordinates": [ 30.478361406251011, 59.745680614438896 ] } },
{ "type": "Feature", "properties": { "Наименование": "Music Corner", "Адрес": null, "Веб-сайт 1": null, "Веб-сайт 2": null, "Широта": null, "Долгота": null }, "geometry": { "type": "Point", "coordinates": [ 30.44058116806492, 59.731202312412918 ] } },
{ "type": "Feature", "properties": { "Наименование": "Детский вокальный ансамбль Сюрприз", "Адрес": null, "Веб-сайт 1": null, "Веб-сайт 2": null, "Широта": null, "Долгота": null }, "geometry": { "type": "Point", "coordinates": [ 30.411586057353539, 59.730808065802215 ] } },
{ "type": "Feature", "properties": { "Наименование": "СПб ГБОУ ДОД ДМШ № 45 Пушкинского района", "Адрес": null, "Веб-сайт 1": null, "Веб-сайт 2": null, "Широта": null, "Долгота": null }, "geometry": { "type": "Point", "coordinates": [ 30.412507867231653, 59.718746097677467 ] } },
{ "type": "Feature", "properties": { "Наименование": "Не школа Вокала", "Адрес": null, "Веб-сайт 1": null, "Веб-сайт 2": null, "Широта": null, "Долгота": null }, "geometry": { "type": "Point", "coordinates": [ 30.40988908916885, 59.718312968895113 ] } },
{ "type": "Feature", "properties": { "Наименование": "Царскосельская гимназия искусств имени А.А. Ахматовой, детская школа искусств", "Адрес": null, "Веб-сайт 1": null, "Веб-сайт 2": null, "Широта": null, "Долгота": null }, "geometry": { "type": "Point", "coordinates": [ 30.403925258593819, 59.719517264312515 ] } },
{ "type": "Feature", "properties": { "Наименование": "Sing Station", "Адрес": null, "Веб-сайт 1": null, "Веб-сайт 2": null, "Широта": null, "Долгота": null }, "geometry": { "type": "Point", "coordinates": [ 30.424037474116158, 59.694415294937585 ] } },
{ "type": "Feature", "properties": { "Наименование": "СПб ГБУ ДО Детская музыкальная школа № 25", "Адрес": null, "Веб-сайт 1": null, "Веб-сайт 2": null, "Широта": null, "Долгота": null }, "geometry": { "type": "Point", "coordinates": [ 30.446789417925796, 59.685132029549088 ] } },
{ "type": "Feature", "properties": { "Наименование": "Детская школа искусств им. П.И. Чайковского", "Адрес": null, "Веб-сайт 1": null, "Веб-сайт 2": null, "Широта": null, "Долгота": null }, "geometry": { "type": "Point", "coordinates": [ 30.605710837593158, 59.747580557909998 ] } },
{ "type": "Feature", "properties": { "Наименование": "Не школа Барабанов", "Адрес": null, "Веб-сайт 1": null, "Веб-сайт 2": null, "Широта": null, "Долгота": null }, "geometry": { "type": "Point", "coordinates": [ 30.605180098572404, 59.747809247658516 ] } },
{ "type": "Feature", "properties": { "Наименование": "Вокальная студия Studio-V", "Адрес": null, "Веб-сайт 1": null, "Веб-сайт 2": null, "Широта": null, "Долгота": null }, "geometry": { "type": "Point", "coordinates": [ 30.575863751085311, 59.74793942413352 ] } },
{ "type": "Feature", "properties": { "Наименование": "Vocal-Voice", "Адрес": null, "Веб-сайт 1": null, "Веб-сайт 2": null, "Широта": null, "Долгота": null }, "geometry": { "type": "Point", "coordinates": [ 30.629510292627906, 59.761253446621161 ] } },
{ "type": "Feature", "properties": { "Наименование": "СПб ГБУ ДО Детская школа искусств имени М.А.Балакирева", "Адрес": null, "Веб-сайт 1": null, "Веб-сайт 2": null, "Широта": null, "Долгота": null }, "geometry": { "type": "Point", "coordinates": [ 30.578126375331578, 59.807643935816472 ] } },
{ "type": "Feature", "properties": { "Наименование": "СПб ГБУ ДО Детская школа искусств имени М.А. Балакирева", "Адрес": null, "Веб-сайт 1": null, "Веб-сайт 2": null, "Широта": null, "Долгота": null }, "geometry": { "type": "Point", "coordinates": [ 30.563293616383845, 59.809877485582156 ] } },
{ "type": "Feature", "properties": { "Наименование": "Гитарная пристань", "Адрес": null, "Веб-сайт 1": null, "Веб-сайт 2": null, "Широта": null, "Долгота": null }, "geometry": { "type": "Point", "coordinates": [ 30.514465626476813, 59.864643879628709 ] } },
{ "type": "Feature", "properties": { "Наименование": "Dominus", "Адрес": null, "Веб-сайт 1": null, "Веб-сайт 2": null, "Широта": null, "Долгота": null }, "geometry": { "type": "Point", "coordinates": [ 30.279117787824525, 59.943102690831232 ] } },
{ "type": "Feature", "properties": { "Наименование": "Вдохновение", "Адрес": null, "Веб-сайт 1": null, "Веб-сайт 2": null, "Широта": null, "Долгота": null }, "geometry": { "type": "Point", "coordinates": [ 30.280856656458216, 59.944477261623867 ] } },
{ "type": "Feature", "properties": { "Наименование": "Гармония", "Адрес": null, "Веб-сайт 1": null, "Веб-сайт 2": null, "Широта": null, "Долгота": null }, "geometry": { "type": "Point", "coordinates": [ 30.2844251780318, 59.947376614648903 ] } },
{ "type": "Feature", "properties": { "Наименование": "Академия Игоря Крутого", "Адрес": null, "Веб-сайт 1": null, "Веб-сайт 2": null, "Широта": null, "Долгота": null }, "geometry": { "type": "Point", "coordinates": [ 30.289159928769351, 59.945690893805867 ] } },
{ "type": "Feature", "properties": { "Наименование": "Kocmoc", "Адрес": null, "Веб-сайт 1": null, "Веб-сайт 2": null, "Широта": null, "Долгота": null }, "geometry": { "type": "Point", "coordinates": [ 30.291562221178971, 59.942941795867789 ] } },
{ "type": "Feature", "properties": { "Наименование": "ДМШ №11", "Адрес": null, "Веб-сайт 1": null, "Веб-сайт 2": null, "Широта": null, "Долгота": null }, "geometry": { "type": "Point", "coordinates": [ 30.274627456372837, 59.932908802690129 ] } },
{ "type": "Feature", "properties": { "Наименование": "Вокально-инструментальный ансамбль", "Адрес": null, "Веб-сайт 1": null, "Веб-сайт 2": null, "Широта": null, "Долгота": null }, "geometry": { "type": "Point", "coordinates": [ 30.266359101102534, 59.934910046445665 ] } },
{ "type": "Feature", "properties": { "Наименование": "Бусинки", "Адрес": null, "Веб-сайт 1": null, "Веб-сайт 2": null, "Широта": null, "Долгота": null }, "geometry": { "type": "Point", "coordinates": [ 30.237629359901515, 59.930403579141569 ] } },
{ "type": "Feature", "properties": { "Наименование": "Гитарная школа №1", "Адрес": null, "Веб-сайт 1": null, "Веб-сайт 2": null, "Широта": null, "Долгота": null }, "geometry": { "type": "Point", "coordinates": [ 30.213801971234062, 59.952615092024182 ] } },
{ "type": "Feature", "properties": { "Наименование": "Центр творческого развития и гуманитарного образования детей на Васильевском", "Адрес": null, "Веб-сайт 1": null, "Веб-сайт 2": null, "Широта": null, "Долгота": null }, "geometry": { "type": "Point", "coordinates": [ 30.23324377957233, 59.95403122711722 ] } },
{ "type": "Feature", "properties": { "Наименование": "Атмосфера", "Адрес": null, "Веб-сайт 1": null, "Веб-сайт 2": null, "Широта": null, "Долгота": null }, "geometry": { "type": "Point", "coordinates": [ 30.258642435077462, 59.953660590198218 ] } },
{ "type": "Feature", "properties": { "Наименование": "Детская музыкальная школа им. Андрея Петрова", "Адрес": null, "Веб-сайт 1": null, "Веб-сайт 2": null, "Широта": null, "Долгота": null }, "geometry": { "type": "Point", "coordinates": [ 30.320054526502286, 59.957562559668681 ] } },
{ "type": "Feature", "properties": { "Наименование": "You-I-Music", "Адрес": null, "Веб-сайт 1": null, "Веб-сайт 2": null, "Широта": null, "Долгота": null }, "geometry": { "type": "Point", "coordinates": [ 30.313378388294172, 59.964204640763981 ] } },
{ "type": "Feature", "properties": { "Наименование": "Studio Partner", "Адрес": null, "Веб-сайт 1": null, "Веб-сайт 2": null, "Широта": null, "Долгота": null }, "geometry": { "type": "Point", "coordinates": [ 30.316772324663553, 59.969674618048785 ] } },
{ "type": "Feature", "properties": { "Наименование": "Школа Звучи! Юлии Бобровой", "Адрес": null, "Веб-сайт 1": null, "Веб-сайт 2": null, "Широта": null, "Долгота": null }, "geometry": { "type": "Point", "coordinates": [ 30.2887548910956, 59.961614387525508 ] } },
{ "type": "Feature", "properties": { "Наименование": "Уроки Бас-Гитары", "Адрес": null, "Веб-сайт 1": null, "Веб-сайт 2": null, "Широта": null, "Долгота": null }, "geometry": { "type": "Point", "coordinates": [ 30.286576067747344, 59.960523693993551 ] } },
{ "type": "Feature", "properties": { "Наименование": "Студия Music Classes", "Адрес": null, "Веб-сайт 1": null, "Веб-сайт 2": null, "Широта": null, "Долгота": null }, "geometry": { "type": "Point", "coordinates": [ 30.296129370120457, 59.963138501674372 ] } },
{ "type": "Feature", "properties": { "Наименование": "Гитарная школа №1", "Адрес": null, "Веб-сайт 1": null, "Веб-сайт 2": null, "Широта": null, "Долгота": null }, "geometry": { "type": "Point", "coordinates": [ 30.459541121239504, 59.906097292121082 ] } },
{ "type": "Feature", "properties": { "Наименование": "Гитарная школа №1", "Адрес": null, "Веб-сайт 1": null, "Веб-сайт 2": null, "Широта": null, "Долгота": null }, "geometry": { "type": "Point", "coordinates": [ 30.456468421645813, 59.908646367235001 ] } },
{ "type": "Feature", "properties": { "Наименование": "Школа пианистов №1", "Адрес": null, "Веб-сайт 1": null, "Веб-сайт 2": null, "Широта": null, "Долгота": null }, "geometry": { "type": "Point", "coordinates": [ 30.469820698062041, 59.911055203417959 ] } },
{ "type": "Feature", "properties": { "Наименование": "Эльстудия", "Адрес": null, "Веб-сайт 1": null, "Веб-сайт 2": null, "Широта": null, "Долгота": null }, "geometry": { "type": "Point", "coordinates": [ 30.439484772982496, 59.913547884749519 ] } },
{ "type": "Feature", "properties": { "Наименование": "Уроки гитары", "Адрес": null, "Веб-сайт 1": null, "Веб-сайт 2": null, "Широта": null, "Долгота": null }, "geometry": { "type": "Point", "coordinates": [ 30.463088692588585, 59.931775177482557 ] } },
{ "type": "Feature", "properties": { "Наименование": "Я творю!", "Адрес": null, "Веб-сайт 1": null, "Веб-сайт 2": null, "Широта": null, "Долгота": null }, "geometry": { "type": "Point", "coordinates": [ 30.490016714482397, 59.917370566055922 ] } },
{ "type": "Feature", "properties": { "Наименование": "Скворец", "Адрес": null, "Веб-сайт 1": null, "Веб-сайт 2": null, "Широта": null, "Долгота": null }, "geometry": { "type": "Point", "coordinates": [ 30.487642355705457, 59.919890774445811 ] } },
{ "type": "Feature", "properties": { "Наименование": "Гитарная пристань", "Адрес": null, "Веб-сайт 1": null, "Веб-сайт 2": null, "Широта": null, "Долгота": null }, "geometry": { "type": "Point", "coordinates": [ 30.487991526113824, 59.920009779554512 ] } },
{ "type": "Feature", "properties": { "Наименование": "Parksound", "Адрес": null, "Веб-сайт 1": null, "Веб-сайт 2": null, "Широта": null, "Долгота": null }, "geometry": { "type": "Point", "coordinates": [ 30.501301902081053, 59.926197457175817 ] } },
{ "type": "Feature", "properties": { "Наименование": "Гитарная школа №1", "Адрес": null, "Веб-сайт 1": null, "Веб-сайт 2": null, "Широта": null, "Долгота": null }, "geometry": { "type": "Point", "coordinates": [ 30.480575146639946, 59.952978747303654 ] } },
{ "type": "Feature", "properties": { "Наименование": "Охтинский центр эстетического воспитания", "Адрес": null, "Веб-сайт 1": null, "Веб-сайт 2": null, "Широта": null, "Долгота": null }, "geometry": { "type": "Point", "coordinates": [ 30.484276352968728, 59.953985771868936 ] } },
{ "type": "Feature", "properties": { "Наименование": "Школа Барабанов Мира", "Адрес": null, "Веб-сайт 1": null, "Веб-сайт 2": null, "Широта": null, "Долгота": null }, "geometry": { "type": "Point", "coordinates": [ 30.357429727014587, 59.959020435730558 ] } },
{ "type": "Feature", "properties": { "Наименование": "СПб ГБУ ДО Санкт-Петербургская детская музыкальная школа № 7", "Адрес": null, "Веб-сайт 1": null, "Веб-сайт 2": null, "Широта": null, "Долгота": null }, "geometry": { "type": "Point", "coordinates": [ 30.341353921413049, 59.968751950391855 ] } },
{ "type": "Feature", "properties": { "Наименование": "Санкт-Петербургская детская школа искусств № 3", "Адрес": null, "Веб-сайт 1": null, "Веб-сайт 2": null, "Широта": null, "Долгота": null }, "geometry": { "type": "Point", "coordinates": [ 30.396858049528188, 59.982610227878013 ] } },
{ "type": "Feature", "properties": { "Наименование": "Гитарная школа №1", "Адрес": null, "Веб-сайт 1": null, "Веб-сайт 2": null, "Широта": null, "Долгота": null }, "geometry": { "type": "Point", "coordinates": [ 30.369790359471018, 59.987989841506 ] } },
{ "type": "Feature", "properties": { "Наименование": "Гитарная пристань", "Адрес": null, "Веб-сайт 1": null, "Веб-сайт 2": null, "Широта": null, "Долгота": null }, "geometry": { "type": "Point", "coordinates": [ 30.401467098918715, 60.005087013142273 ] } },
{ "type": "Feature", "properties": { "Наименование": "Школа игры на гитаре", "Адрес": null, "Веб-сайт 1": null, "Веб-сайт 2": null, "Широта": null, "Долгота": null }, "geometry": { "type": "Point", "coordinates": [ 30.411551140312554, 60.018071605124533 ] } },
{ "type": "Feature", "properties": { "Наименование": "Санкт-Петербургская детская школа искусств им. С. С. Прокофьева", "Адрес": null, "Веб-сайт 1": null, "Веб-сайт 2": null, "Широта": null, "Долгота": null }, "geometry": { "type": "Point", "coordinates": [ 30.429372797955967, 60.013199490370141 ] } },
{ "type": "Feature", "properties": { "Наименование": "Детская Музыкальная школа № 7", "Адрес": null, "Веб-сайт 1": null, "Веб-сайт 2": null, "Широта": null, "Долгота": null }, "geometry": { "type": "Point", "coordinates": [ 30.339649969820165, 59.999291167957097 ] } },
{ "type": "Feature", "properties": { "Наименование": "Гитарная школа №1", "Адрес": null, "Веб-сайт 1": null, "Веб-сайт 2": null, "Широта": null, "Долгота": null }, "geometry": { "type": "Point", "coordinates": [ 30.387667884379759, 60.012333881978037 ] } },
{ "type": "Feature", "properties": { "Наименование": "Гитарная школа №1", "Адрес": null, "Веб-сайт 1": null, "Веб-сайт 2": null, "Широта": null, "Долгота": null }, "geometry": { "type": "Point", "coordinates": [ 30.400042483652527, 60.033548717232051 ] } },
{ "type": "Feature", "properties": { "Наименование": "Школа искусств", "Адрес": null, "Веб-сайт 1": null, "Веб-сайт 2": null, "Широта": null, "Долгота": null }, "geometry": { "type": "Point", "coordinates": [ 30.41250088382332, 60.037497080953635 ] } },
{ "type": "Feature", "properties": { "Наименование": "Глав студия", "Адрес": null, "Веб-сайт 1": null, "Веб-сайт 2": null, "Широта": null, "Долгота": null }, "geometry": { "type": "Point", "coordinates": [ 30.339342699860762, 60.04727527124075 ] } },
{ "type": "Feature", "properties": { "Наименование": "Cantanti", "Адрес": null, "Веб-сайт 1": null, "Веб-сайт 2": null, "Широта": null, "Долгота": null }, "geometry": { "type": "Point", "coordinates": [ 30.33185648630522, 60.042365614631827 ] } },
{ "type": "Feature", "properties": { "Наименование": "Детская музыкальная школа № 38", "Адрес": null, "Веб-сайт 1": null, "Веб-сайт 2": null, "Широта": null, "Долгота": null }, "geometry": { "type": "Point", "coordinates": [ 30.339454434391442, 60.04094279362652 ] } },
{ "type": "Feature", "properties": { "Наименование": "Звонкие капельки", "Адрес": null, "Веб-сайт 1": null, "Веб-сайт 2": null, "Широта": null, "Долгота": null }, "geometry": { "type": "Point", "coordinates": [ 30.336270000267071, 60.034748623263454 ] } },
{ "type": "Feature", "properties": { "Наименование": "Харизма", "Адрес": null, "Веб-сайт 1": null, "Веб-сайт 2": null, "Широта": null, "Долгота": null }, "geometry": { "type": "Point", "coordinates": [ 30.354035790645135, 60.005617666286426 ] } },
{ "type": "Feature", "properties": { "Наименование": "Super-Starr", "Адрес": null, "Веб-сайт 1": null, "Веб-сайт 2": null, "Широта": null, "Долгота": null }, "geometry": { "type": "Point", "coordinates": [ 30.321157904992635, 60.04839100048229 ] } },
{ "type": "Feature", "properties": { "Наименование": "Гитарная школа №1", "Адрес": null, "Веб-сайт 1": null, "Веб-сайт 2": null, "Широта": null, "Долгота": null }, "geometry": { "type": "Point", "coordinates": [ 30.325836788464844, 60.047874980394617 ] } },
{ "type": "Feature", "properties": { "Наименование": "Перспектива", "Адрес": null, "Веб-сайт 1": null, "Веб-сайт 2": null, "Широта": null, "Долгота": null }, "geometry": { "type": "Point", "coordinates": [ 30.313951027763782, 60.048516517662478 ] } },
{ "type": "Feature", "properties": { "Наименование": "RoX Music", "Адрес": null, "Веб-сайт 1": null, "Веб-сайт 2": null, "Широта": null, "Долгота": null }, "geometry": { "type": "Point", "coordinates": [ 30.311464934456161, 60.052992985069032 ] } },
{ "type": "Feature", "properties": { "Наименование": "Класс гитары", "Адрес": null, "Веб-сайт 1": null, "Веб-сайт 2": null, "Широта": null, "Долгота": null }, "geometry": { "type": "Point", "coordinates": [ 30.305263668003434, 60.066390868058029 ] } },
{ "type": "Feature", "properties": { "Наименование": "Мастер голос", "Адрес": null, "Веб-сайт 1": null, "Веб-сайт 2": null, "Широта": null, "Долгота": null }, "geometry": { "type": "Point", "coordinates": [ 30.343532744761234, 60.071380572360205 ] } },
{ "type": "Feature", "properties": { "Наименование": "Blue Bird", "Адрес": null, "Веб-сайт 1": null, "Веб-сайт 2": null, "Широта": null, "Долгота": null }, "geometry": { "type": "Point", "coordinates": [ 30.343560678393906, 60.07611869894194 ] } },
{ "type": "Feature", "properties": { "Наименование": "Гитарная школа №1", "Адрес": null, "Веб-сайт 1": null, "Веб-сайт 2": null, "Широта": null, "Долгота": null }, "geometry": { "type": "Point", "coordinates": [ 30.335180588592916, 60.081524905947617 ] } },
{ "type": "Feature", "properties": { "Наименование": "Лауда", "Адрес": null, "Веб-сайт 1": null, "Веб-сайт 2": null, "Широта": null, "Долгота": null }, "geometry": { "type": "Point", "coordinates": [ 30.215373238071617, 59.983350849963756 ] } },
{ "type": "Feature", "properties": { "Наименование": "Sforzando", "Адрес": null, "Веб-сайт 1": null, "Веб-сайт 2": null, "Широта": null, "Долгота": null }, "geometry": { "type": "Point", "coordinates": [ 30.219954353829486, 59.983658273132683 ] } },
{ "type": "Feature", "properties": { "Наименование": "Open music", "Адрес": null, "Веб-сайт 1": null, "Веб-сайт 2": null, "Широта": null, "Долгота": null }, "geometry": { "type": "Point", "coordinates": [ 30.197635381326208, 59.998173779836982 ] } },
{ "type": "Feature", "properties": { "Наименование": "Гитарная школа № 1", "Адрес": null, "Веб-сайт 1": null, "Веб-сайт 2": null, "Широта": null, "Долгота": null }, "geometry": { "type": "Point", "coordinates": [ 30.196685637815435, 59.999710178771785 ] } },
{ "type": "Feature", "properties": { "Наименование": "Орфей", "Адрес": null, "Веб-сайт 1": null, "Веб-сайт 2": null, "Широта": null, "Долгота": null }, "geometry": { "type": "Point", "coordinates": [ 30.22017782289084, 60.009206333776504 ] } },
{ "type": "Feature", "properties": { "Наименование": "Бюджетная школа Cheetahs Drumline", "Адрес": null, "Веб-сайт 1": null, "Веб-сайт 2": null, "Широта": null, "Долгота": null }, "geometry": { "type": "Point", "coordinates": [ 30.315571178458637, 59.991817917111049 ] } },
{ "type": "Feature", "properties": { "Наименование": "Детская школа искусств имени В.А. Гаврилина", "Адрес": null, "Веб-сайт 1": null, "Веб-сайт 2": null, "Широта": null, "Долгота": null }, "geometry": { "type": "Point", "coordinates": [ 30.317861736337573, 59.996728102955593 ] } },
{ "type": "Feature", "properties": { "Наименование": "Гармония", "Адрес": null, "Веб-сайт 1": null, "Веб-сайт 2": null, "Широта": null, "Долгота": null }, "geometry": { "type": "Point", "coordinates": [ 30.327219503282002, 60.001183657987326 ] } },
{ "type": "Feature", "properties": { "Наименование": "Sforzando", "Адрес": null, "Веб-сайт 1": null, "Веб-сайт 2": null, "Широта": null, "Долгота": null },