{
"type": "FeatureCollection",
"name": "parking",
"crs": { "type": "name", "properties": { "name": "urn:ogc:def:crs:OGC:1.3:CRS84" } },
"features": [
{ "type": "Feature", "properties": { "service_name": "Лето", "city_service_type": "Парковка ТРК", "Широта": 59.819738, "Долгота": 30.316858, "address": null }, "geometry": { "type": "Point", "coordinates": [ 30.319257079901814, 59.820206236077695 ] } },
{ "type": "Feature", "properties": { "service_name": "Кубатура", "city_service_type": "Парковка ТРК", "Широта": 59.876776, "Долгота": 30.369217, "address": null }, "geometry": { "type": "Point", "coordinates": [ 30.365886512606895, 59.874962858817142 ] } },
{ "type": "Feature", "properties": { "service_name": "Строймаркет Василеостровский", "city_service_type": "Парковка ТРК", "Широта": 59.952746, "Долгота": 30.25831, "address": null }, "geometry": { "type": "Point", "coordinates": [ 30.257759622846056, 59.952685937277586 ] } },
{ "type": "Feature", "properties": { "service_name": "Старая Деревня", "city_service_type": "Парковка ТРК", "Широта": 59.988648, "Долгота": 30.254967, "address": null }, "geometry": { "type": "Point", "coordinates": [ 30.254281339469294, 59.989076682200775 ] } },
{ "type": "Feature", "properties": { "service_name": "МебельWood", "city_service_type": "Парковка ТРК", "Широта": 59.910304, "Долгота": 30.447291, "address": null }, "geometry": { "type": "Point", "coordinates": [ 30.447869601623381, 59.909419582593621 ] } },
{ "type": "Feature", "properties": { "service_name": "Интерио", "city_service_type": "Парковка ТРК", "Широта": 59.99723, "Долгота": 30.269389, "address": null }, "geometry": { "type": "Point", "coordinates": [ 30.270274644852154, 59.99727047646688 ] } },
{ "type": "Feature", "properties": { "service_name": "Мебель дом", "city_service_type": "Парковка ТРК", "Широта": 59.831933, "Долгота": 30.507508, "address": null }, "geometry": { "type": "Point", "coordinates": [ 30.506830612733602, 59.832018103097873 ] } },
{ "type": "Feature", "properties": { "service_name": "Мебель-Сити 2", "city_service_type": "Парковка ТРК", "Широта": 59.985598, "Долгота": 30.35401, "address": null }, "geometry": { "type": "Point", "coordinates": [ 30.354781368097036, 59.98576948924314 ] } },
{ "type": "Feature", "properties": { "service_name": "Европолис", "city_service_type": "Парковка ТРК", "Широта": 59.987513, "Долгота": 30.353777, "address": null }, "geometry": { "type": "Point", "coordinates": [ 30.35522450556482, 59.988160805922533 ] } },
{ "type": "Feature", "properties": { "service_name": "Охта Молл", "city_service_type": "Парковка ТРК", "Широта": 59.93992, "Долгота": 30.418153, "address": null }, "geometry": { "type": "Point", "coordinates": [ 30.417560286141903, 59.938916197037564 ] } },
{ "type": "Feature", "properties": { "service_name": "Лондон Молл", "city_service_type": "Парковка ТРК", "Широта": 59.911697, "Долгота": 30.446795, "address": null }, "geometry": { "type": "Point", "coordinates": [ 30.444635828088362, 59.91188802300497 ] } },
{ "type": "Feature", "properties": { "service_name": "Сити Молл", "city_service_type": "Парковка ТРК", "Широта": 60.004982, "Долгота": 30.298628, "address": null }, "geometry": { "type": "Point", "coordinates": [ 30.299523167915083, 60.004363088829528 ] } },
{ "type": "Feature", "properties": { "service_name": "ПитерЛэнд", "city_service_type": "Парковка ТРК", "Широта": 59.981606, "Долгота": 30.210266, "address": null }, "geometry": { "type": "Point", "coordinates": [ 30.211732551690673, 59.982434956621731 ] } },
{ "type": "Feature", "properties": { "service_name": "Парк Хаус", "city_service_type": "Парковка ТРК", "Широта": 60.0531, "Долгота": 30.389623, "address": null }, "geometry": { "type": "Point", "coordinates": [ 30.389651569188786, 60.054450075964823 ] } },
{ "type": "Feature", "properties": { "service_name": "Июнь", "city_service_type": "Парковка ТРК", "Широта": 59.946312, "Долгота": 30.474452, "address": null }, "geometry": { "type": "Point", "coordinates": [ 30.475693876655058, 59.946396810771184 ] } },
{ "type": "Feature", "properties": { "service_name": "Меркурий", "city_service_type": "Парковка ТРК", "Широта": 59.990762, "Долгота": 30.205845, "address": null }, "geometry": { "type": "Point", "coordinates": [ 30.205845, 59.990762 ] } },
{ "type": "Feature", "properties": { "service_name": "Южный полюс", "city_service_type": "Парковка ТРК", "Широта": 59.86308, "Долгота": 30.404387, "address": null }, "geometry": { "type": "Point", "coordinates": [ 30.404387, 59.86308 ] } },
{ "type": "Feature", "properties": { "service_name": "Атмосфера", "city_service_type": "Парковка ТРК", "Широта": 60.007607, "Долгота": 30.259749, "address": null }, "geometry": { "type": "Point", "coordinates": [ 30.260406091341924, 60.008330578579226 ] } },
{ "type": "Feature", "properties": { "service_name": "Континент", "city_service_type": "Парковка ТРК", "Широта": 59.858748, "Долгота": 30.248468, "address": null }, "geometry": { "type": "Point", "coordinates": [ 30.248863142572063, 59.858336996257151 ] } },
{ "type": "Feature", "properties": { "service_name": "Капитолий", "city_service_type": "Парковка ТРК", "Широта": 60.008536, "Долгота": 30.297754, "address": null }, "geometry": { "type": "Point", "coordinates": [ 30.297477831175136, 60.00755060249395 ] } },
{ "type": "Feature", "properties": { "service_name": "Электра", "city_service_type": "Парковка ТРК", "Широта": 59.881059, "Долгота": 30.316663, "address": null }, "geometry": { "type": "Point", "coordinates": [ 30.317312162796959, 59.881880440983615 ] } },
{ "type": "Feature", "properties": { "service_name": "Озерки", "city_service_type": "Парковка ТРК", "Широта": 60.036566, "Долгота": 30.321237, "address": null }, "geometry": { "type": "Point", "coordinates": [ 30.320018047945421, 60.037564801632406 ] } },
{ "type": "Feature", "properties": { "service_name": "Космос", "city_service_type": "Парковка ТРК", "Широта": 59.853754, "Долгота": 30.349703, "address": null }, "geometry": { "type": "Point", "coordinates": [ 30.349900571286025, 59.853045263345486 ] } },
{ "type": "Feature", "properties": { "service_name": "Торговый центр Богатырский", "city_service_type": "Парковка ТРК", "Широта": 59.998782, "Долгота": 30.267046, "address": null }, "geometry": { "type": "Point", "coordinates": [ 30.266665077482944, 59.998477249344802 ] } },
{ "type": "Feature", "properties": { "service_name": "Нео", "city_service_type": "Парковка ТРК", "Широта": 59.933042, "Долгота": 30.431266, "address": null }, "geometry": { "type": "Point", "coordinates": [ 30.431294224469436, 59.932787464720015 ] } },
{ "type": "Feature", "properties": { "service_name": "Перрон", "city_service_type": "Парковка ТРК", "Широта": 59.93214, "Долгота": 30.432679, "address": null }, "geometry": { "type": "Point", "coordinates": [ 30.431211327589477, 59.931560206533902 ] } },
{ "type": "Feature", "properties": { "service_name": "Южный", "city_service_type": "Парковка ТРК", "Широта": 59.846641, "Долгота": 30.340983, "address": null }, "geometry": { "type": "Point", "coordinates": [ 30.33852747115932, 59.84635035771641 ] } },
{ "type": "Feature", "properties": { "service_name": "Мегаполис", "city_service_type": "Парковка ТРК", "Широта": 59.9985, "Долгота": 30.268877, "address": null }, "geometry": { "type": "Point", "coordinates": [ 30.268443700636848, 59.998935696869673 ] } },
{ "type": "Feature", "properties": { "service_name": "Прометей", "city_service_type": "Парковка ТРК", "Широта": 60.038939, "Долгота": 30.407171, "address": null }, "geometry": { "type": "Point", "coordinates": [ 30.407475738013645, 60.039376541791562 ] } },
{ "type": "Feature", "properties": { "service_name": "Северная галерея", "city_service_type": "Парковка ТРК", "Широта": 60.036833, "Долгота": 30.415153, "address": null }, "geometry": { "type": "Point", "coordinates": [ 30.415076815496587, 60.03675690031848 ] } },
{ "type": "Feature", "properties": { "service_name": "Рубикон", "city_service_type": "Парковка ТРК", "Широта": 60.033992, "Долгота": 30.420617, "address": null }, "geometry": { "type": "Point", "coordinates": [ 30.419931339469301, 60.034087132628834 ] } },
{ "type": "Feature", "properties": { "service_name": "Шувалово", "city_service_type": "Парковка ТРК", "Широта": 60.051552, "Долгота": 30.334973, "address": null }, "geometry": { "type": "Point", "coordinates": [ 30.334644454329041, 60.051634008284715 ] } },
{ "type": "Feature", "properties": { "service_name": "Мебельный центр", "city_service_type": "Парковка ТРК", "Широта": 60.010656, "Долгота": 30.399981, "address": null }, "geometry": { "type": "Point", "coordinates": [ 30.399333431721008, 60.010703599917136 ] } },
{ "type": "Feature", "properties": { "service_name": "Торговый центр", "city_service_type": "Парковка ТРК", "Широта": 59.969845, "Долгота": 30.385186, "address": null }, "geometry": { "type": "Point", "coordinates": [ 30.38676682844579, 59.970049931728283 ] } },
{ "type": "Feature", "properties": { "service_name": "Питер Радуга", "city_service_type": "Парковка ТРК", "Широта": 59.869182, "Долгота": 30.350765, "address": null }, "geometry": { "type": "Point", "coordinates": [ 30.347744981770649, 59.868813629898717 ] } },
{ "type": "Feature", "properties": { "service_name": "РИО", "city_service_type": "Парковка ТРК", "Широта": 59.877405, "Долгота": 30.358912, "address": null }, "geometry": { "type": "Point", "coordinates": [ 30.356766940323077, 59.876781756087468 ] } },
{ "type": "Feature", "properties": { "service_name": "Балкания Nova", "city_service_type": "Парковка ТРК", "Широта": 59.826786, "Долгота": 30.379689, "address": null }, "geometry": { "type": "Point", "coordinates": [ 30.380959101124485, 59.827310880556581 ] } },
{ "type": "Feature", "properties": { "service_name": "Невский", "city_service_type": "Парковка ТРК", "Широта": 59.90828, "Долгота": 30.482577, "address": null }, "geometry": { "type": "Point", "coordinates": [ 30.481765546503794, 59.908347218827771 ] } },
{ "type": "Feature", "properties": { "service_name": "Континент", "city_service_type": "Парковка ТРК", "Широта": 59.883336, "Долгота": 30.369813, "address": null }, "geometry": { "type": "Point", "coordinates": [ 30.368853368039268, 59.883031516186456 ] } },
{ "type": "Feature", "properties": { "service_name": "ТЦ Москвa", "city_service_type": "Парковка ТРК", "Широта": 59.924347, "Долгота": 30.385773, "address": null }, "geometry": { "type": "Point", "coordinates": [ 30.386252815980367, 59.924283349687762 ] } },
{ "type": "Feature", "properties": { "service_name": "Ржевка", "city_service_type": "Парковка ТРК", "Широта": 59.94971, "Долгота": 30.488679, "address": null }, "geometry": { "type": "Point", "coordinates": [ 30.488679, 59.94971 ] } },
{ "type": "Feature", "properties": { "service_name": "Zebra", "city_service_type": "Парковка ТРК", "Широта": 59.945732, "Долгота": 30.497728, "address": null }, "geometry": { "type": "Point", "coordinates": [ 30.498010244694335, 59.945633052054106 ] } },
{ "type": "Feature", "properties": { "service_name": "Норд", "city_service_type": "Парковка ТРК", "Широта": 60.052575, "Долгота": 30.331592, "address": null }, "geometry": { "type": "Point", "coordinates": [ 30.331791984321452, 60.053017115488785 ] } },
{ "type": "Feature", "properties": { "service_name": "Экополис premium", "city_service_type": "Парковка ТРК", "Широта": 60.048633, "Долгота": 30.314008, "address": null }, "geometry": { "type": "Point", "coordinates": [ 30.314008, 60.048633 ] } },
{ "type": "Feature", "properties": { "service_name": "Питер", "city_service_type": "Парковка ТРК", "Широта": 59.853457, "Долгота": 30.340674, "address": null }, "geometry": { "type": "Point", "coordinates": [ 30.34063871941321, 59.852925444169252 ] } },
{ "type": "Feature", "properties": { "service_name": "Ланской", "city_service_type": "Парковка ТРК", "Широта": 59.989641, "Долгота": 30.32805, "address": null }, "geometry": { "type": "Point", "coordinates": [ 30.32805, 59.989641 ] } },
{ "type": "Feature", "properties": { "service_name": "Круиз", "city_service_type": "Парковка ТРК", "Широта": 60.001611, "Долгота": 30.266722, "address": null }, "geometry": { "type": "Point", "coordinates": [ 30.266283939105385, 60.001230093866432 ] } },
{ "type": "Feature", "properties": { "service_name": "Долгоозерный", "city_service_type": "Парковка ТРК", "Широта": 60.008234, "Долгота": 30.245828, "address": null }, "geometry": { "type": "Point", "coordinates": [ 30.245923230629266, 60.008543420996958 ] } },
{ "type": "Feature", "properties": { "service_name": "Эврика", "city_service_type": "Парковка ТРК", "Широта": 59.899685, "Долгота": 30.40178, "address": null }, "geometry": { "type": "Point", "coordinates": [ 30.40178, 59.899685 ] } },
{ "type": "Feature", "properties": { "service_name": "Торговый двор", "city_service_type": "Парковка ТРК", "Широта": 59.83215, "Долгота": 30.33875, "address": null }, "geometry": { "type": "Point", "coordinates": [ 30.33522194132086, 59.831256410669617 ] } },
{ "type": "Feature", "properties": { "service_name": "Остров", "city_service_type": "Парковка ТРК", "Широта": 59.944404, "Долгота": 30.479431, "address": null }, "geometry": { "type": "Point", "coordinates": [ 30.481237366043722, 59.944460543575879 ] } },
{ "type": "Feature", "properties": { "service_name": "Сильвер", "city_service_type": "Парковка ТРК", "Широта": 60.054804, "Долгота": 30.328639, "address": null }, "geometry": { "type": "Point", "coordinates": [ 30.328505677119026, 60.05445222871159 ] } },
{ "type": "Feature", "properties": { "service_name": "Орловский", "city_service_type": "Парковка ТРК", "Широта": 59.95967, "Долгота": 30.413904, "address": null }, "geometry": { "type": "Point", "coordinates": [ 30.41328306167247, 59.959373280482176 ] } },
{ "type": "Feature", "properties": { "service_name": "Торговый центр", "city_service_type": "Парковка ТРК", "Широта": 59.959493, "Долгота": 30.439786, "address": null }, "geometry": { "type": "Point", "coordinates": [ 30.438812255804557, 59.959365834194095 ] } },
{ "type": "Feature", "properties": { "service_name": "Светлановский", "city_service_type": "Парковка ТРК", "Широта": 60.009655, "Долгота": 30.326151, "address": null }, "geometry": { "type": "Point", "coordinates": [ 30.326151, 60.009655 ] } },
{ "type": "Feature", "properties": { "service_name": "Торговый центр", "city_service_type": "Парковка ТРК", "Широта": 59.862835, "Долгота": 30.210396, "address": null }, "geometry": { "type": "Point", "coordinates": [ 30.211327407491289, 59.862920024136457 ] } },
{ "type": "Feature", "properties": { "service_name": "Космос", "city_service_type": "Парковка ТРК", "Широта": 60.011134, "Долгота": 30.246946, "address": null }, "geometry": { "type": "Point", "coordinates": [ 30.246303193252466, 60.011067360931435 ] } },
{ "type": "Feature", "properties": { "service_name": "Ладожские ряды", "city_service_type": "Парковка ТРК", "Широта": 59.931529, "Долгота": 30.436306, "address": null }, "geometry": { "type": "Point", "coordinates": [ 30.435318143569841, 59.931019904047211 ] } },
{ "type": "Feature", "properties": { "service_name": "Купеческий двор", "city_service_type": "Парковка ТРК", "Широта": 60.002325, "Долгота": 30.2994, "address": null }, "geometry": { "type": "Point", "coordinates": [ 30.2994, 60.002325 ] } },
{ "type": "Feature", "properties": { "service_name": "Торговый комплекс", "city_service_type": "Парковка ТРК", "Широта": 59.953241, "Долгота": 30.475954, "address": null }, "geometry": { "type": "Point", "coordinates": [ 30.475826989887548, 59.952809965475929 ] } },
{ "type": "Feature", "properties": { "service_name": "Звенигородский", "city_service_type": "Парковка ТРК", "Широта": 59.922324, "Долгота": 30.335761, "address": null }, "geometry": { "type": "Point", "coordinates": [ 30.33532352072379, 59.922210836931058 ] } },
{ "type": "Feature", "properties": { "service_name": "Путиловский", "city_service_type": "Парковка ТРК", "Широта": 59.852882, "Долгота": 30.282071, "address": null }, "geometry": { "type": "Point", "coordinates": [ 30.281308939325303, 59.85325763430717 ] } },
{ "type": "Feature", "properties": { "service_name": "Торговый двор", "city_service_type": "Парковка ТРК", "Широта": 59.920259, "Долгота": 30.465412, "address": null }, "geometry": { "type": "Point", "coordinates": [ 30.464198347814381, 59.920471192874565 ] } },
{ "type": "Feature", "properties": { "service_name": "Торговый центр", "city_service_type": "Парковка ТРК", "Широта": 60.015768, "Долгота": 30.285666, "address": null }, "geometry": { "type": "Point", "coordinates": [ 30.286394514313873, 60.015718027715067 ] } },
{ "type": "Feature", "properties": { "service_name": "Клондайк", "city_service_type": "Парковка ТРК", "Широта": 59.999453, "Долгота": 30.359977, "address": null }, "geometry": { "type": "Point", "coordinates": [ 30.360043661440482, 59.999086353966263 ] } },
{ "type": "Feature", "properties": { "service_name": "Новая Аура", "city_service_type": "Парковка ТРК", "Широта": 59.993468, "Долгота": 30.151417, "address": null }, "geometry": { "type": "Point", "coordinates": [ 30.151588415132675, 59.994020442080355 ] } },
{ "type": "Feature", "properties": { "service_name": "Уют", "city_service_type": "Парковка ТРК", "Широта": 59.90036, "Долгота": 30.491244, "address": null }, "geometry": { "type": "Point", "coordinates": [ 30.48976927147212, 59.900310458438106 ] } },
{ "type": "Feature", "properties": { "service_name": "Ярус", "city_service_type": "Парковка ТРК", "Широта": 60.037361, "Долгота": 30.331395, "address": null }, "geometry": { "type": "Point", "coordinates": [ 30.331395, 60.037361 ] } },
{ "type": "Feature", "properties": { "service_name": "Афонский", "city_service_type": "Парковка ТРК", "Широта": 60.026058, "Долгота": 30.303631, "address": null }, "geometry": { "type": "Point", "coordinates": [ 30.302788208931009, 60.025786805400443 ] } },
{ "type": "Feature", "properties": { "service_name": "Чёрная речка", "city_service_type": "Парковка ТРК", "Широта": 59.986464, "Долгота": 30.297657, "address": null }, "geometry": { "type": "Point", "coordinates": [ 30.297299885140255, 59.986661683831855 ] } },
{ "type": "Feature", "properties": { "service_name": "Горизонт", "city_service_type": "Парковка ТРК", "Широта": 60.009777, "Долгота": 30.245841, "address": null }, "geometry": { "type": "Point", "coordinates": [ 30.245841, 60.009777 ] } },
{ "type": "Feature", "properties": { "service_name": "Солнечный", "city_service_type": "Парковка ТРК", "Широта": 60.011937, "Долгота": 30.243362, "address": null }, "geometry": { "type": "Point", "coordinates": [ 30.24371911485974, 60.012048855405176 ] } },
{ "type": "Feature", "properties": { "service_name": "Альянс", "city_service_type": "Парковка ТРК", "Широта": 60.052908, "Долгота": 30.356687, "address": null }, "geometry": { "type": "Point", "coordinates": [ 30.356687, 60.052908 ] } },
{ "type": "Feature", "properties": { "service_name": "Ил-2", "city_service_type": "Парковка ТРК", "Широта": 60.008475, "Долгота": 30.252835, "address": null }, "geometry": { "type": "Point", "coordinates": [ 30.252163624063691, 60.008841541944847 ] } },
{ "type": "Feature", "properties": { "service_name": "Торговый центр", "city_service_type": "Парковка ТРК", "Широта": 60.039877, "Долгота": 30.348874, "address": null }, "geometry": { "type": "Point", "coordinates": [ 30.348874, 60.039877 ] } },
{ "type": "Feature", "properties": { "service_name": "Яхтенный", "city_service_type": "Парковка ТРК", "Широта": 59.999187, "Долгота": 30.21996, "address": null }, "geometry": { "type": "Point", "coordinates": [ 30.21996, 59.999187 ] } },
{ "type": "Feature", "properties": { "service_name": "Лига", "city_service_type": "Парковка ТРК", "Широта": 59.826914, "Долгота": 30.190584, "address": null }, "geometry": { "type": "Point", "coordinates": [ 30.189497357926822, 59.826857255923464 ] } },
{ "type": "Feature", "properties": { "service_name": "Комендант", "city_service_type": "Парковка ТРК", "Широта": 60.010209, "Долгота": 30.263658, "address": null }, "geometry": { "type": "Point", "coordinates": [ 30.263658, 60.010439862215243 ] } },
{ "type": "Feature", "properties": { "service_name": "Фортуна", "city_service_type": "Парковка ТРК", "Широта": 60.017141, "Долгота": 30.237425, "address": null }, "geometry": { "type": "Point", "coordinates": [ 30.237425, 60.017141 ] } },
{ "type": "Feature", "properties": { "service_name": "Торгово-бытовой комплекс", "city_service_type": "Парковка ТРК", "Широта": 59.986044, "Долгота": 30.205703, "address": null }, "geometry": { "type": "Point", "coordinates": [ 30.206521983411662, 59.985963019723165 ] } },
{ "type": "Feature", "properties": { "service_name": "Виктория", "city_service_type": "Парковка ТРК", "Широта": 59.852201, "Долгота": 30.287233, "address": null }, "geometry": { "type": "Point", "coordinates": [ 30.2866402861419, 59.852739654771838 ] } },
{ "type": "Feature", "properties": { "service_name": "Смайл", "city_service_type": "Парковка ТРК", "Широта": 59.900455, "Долгота": 30.48611, "address": null }, "geometry": { "type": "Point", "coordinates": [ 30.484515317477033, 59.900044511810798 ] } },
{ "type": "Feature", "properties": { "service_name": "Торговый центр", "city_service_type": "Парковка ТРК", "Широта": 59.945943, "Долгота": 30.48927, "address": null }, "geometry": { "type": "Point", "coordinates": [ 30.488592612733608, 59.945971270594576 ] } },
{ "type": "Feature", "properties": { "service_name": "Родео Драйв", "city_service_type": "Парковка ТРК", "Широта": 60.033609, "Долгота": 30.367756, "address": null }, "geometry": { "type": "Point", "coordinates": [ 30.36764172324488, 60.03278132461805 ] } },
{ "type": "Feature", "properties": { "service_name": "Авеню", "city_service_type": "Парковка ТРК", "Широта": 60.05303, "Долгота": 30.311158, "address": null }, "geometry": { "type": "Point", "coordinates": [ 30.310800885140253, 60.052732880156732 ] } },
{ "type": "Feature", "properties": { "service_name": "Атлантик Сити", "city_service_type": "Парковка ТРК", "Широта": 59.986609, "Долгота": 30.203952, "address": null }, "geometry": { "type": "Point", "coordinates": [ 30.202409263805926, 59.9868185914859 ] } },
{ "type": "Feature", "properties": { "service_name": "Вояж", "city_service_type": "Парковка ТРК", "Широта": 60.040526, "Долгота": 30.324584, "address": null }, "geometry": { "type": "Point", "coordinates": [ 30.324584, 60.040526 ] } },
{ "type": "Feature", "properties": { "service_name": "Аквилон МЦ", "city_service_type": "Парковка ТРК", "Широта": 59.980868, "Долгота": 30.355876, "address": null }, "geometry": { "type": "Point", "coordinates": [ 30.354961785959063, 59.980868 ] } },
{ "type": "Feature", "properties": { "service_name": "Центр торговли и услуг", "city_service_type": "Парковка ТРК", "Широта": 60.040341, "Долгота": 30.368487, "address": null }, "geometry": { "type": "Point", "coordinates": [ 30.368487, 60.040341 ] } },
{ "type": "Feature", "properties": { "service_name": "Шоколад", "city_service_type": "Парковка ТРК", "Широта": 59.979566, "Долгота": 30.377985, "address": null }, "geometry": { "type": "Point", "coordinates": [ 30.373337745291902, 59.980290191687764 ] } },
{ "type": "Feature", "properties": { "service_name": "КультПросвет", "city_service_type": "Парковка ТРК", "Широта": 60.045683, "Долгота": 30.373007, "address": null }, "geometry": { "type": "Point", "coordinates": [ 30.372140401273697, 60.045606920627172 ] } },
{ "type": "Feature", "properties": { "service_name": "Морская 9", "city_service_type": "Парковка ТРК", "Широта": 59.937419, "Долгота": 30.215414, "address": null }, "geometry": { "type": "Point", "coordinates": [ 30.215329326591693, 59.938214304669238 ] } },
{ "type": "Feature", "properties": { "service_name": "Репка", "city_service_type": "Парковка ТРК", "Широта": 60.051143, "Долгота": 30.340709, "address": null }, "geometry": { "type": "Point", "coordinates": [ 30.340709, 60.051143 ] } },
{ "type": "Feature", "properties": { "service_name": "Сосновский", "city_service_type": "Парковка ТРК", "Широта": 60.03612, "Долгота": 30.345573, "address": null }, "geometry": { "type": "Point", "coordinates": [ 30.344601647581506, 60.036274580388415 ] } },
{ "type": "Feature", "properties": { "service_name": "Ржевский", "city_service_type": "Парковка ТРК", "Широта": 59.951253, "Долгота": 30.470716, "address": null }, "geometry": { "type": "Point", "coordinates": [ 30.470518428713969, 59.951570991542191 ] } },
{ "type": "Feature", "properties": { "service_name": "Континент", "city_service_type": "Парковка ТРК", "Широта": 60.002183, "Долгота": 30.272692, "address": null }, "geometry": { "type": "Point", "coordinates": [ 30.272825322880969, 60.002906696860492 ] } },
{ "type": "Feature", "properties": { "service_name": "River House", "city_service_type": "Парковка ТРК", "Широта": 59.97808, "Долгота": 30.317511, "address": null }, "geometry": { "type": "Point", "coordinates": [ 30.317666234581889, 59.978270640716481 ] } },
{ "type": "Feature", "properties": { "service_name": "Гулливер", "city_service_type": "Парковка ТРК", "Широта": 59.990643, "Долгота": 30.256953, "address": null }, "geometry": { "type": "Point", "coordinates": [ 30.25839098250189, 59.990000005434268 ] } },
{ "type": "Feature", "properties": { "service_name": "Богатырь", "city_service_type": "Парковка ТРК", "Широта": 59.999174, "Долгота": 30.258511, "address": null }, "geometry": { "type": "Point", "coordinates": [ 30.256406403093258, 59.999240663044752 ] } },
{ "type": "Feature", "properties": { "service_name": "Орион", "city_service_type": "Парковка ТРК", "Широта": 60.008458, "Долгота": 30.262169, "address": null }, "geometry": { "type": "Point", "coordinates": [ 30.26261182242607, 60.008305669597242 ] } },
{ "type": "Feature", "properties": { "service_name": "Архимед", "city_service_type": "Парковка ТРК", "Широта": 59.918738, "Долгота": 30.463595, "address": null }, "geometry": { "type": "Point", "coordinates": [ 30.462988173907181, 59.918851174948202 ] } },
{ "type": "Feature", "properties": { "service_name": "Эврика", "city_service_type": "Парковка ТРК", "Широта": 59.830481, "Долгота": 30.506893, "address": null }, "geometry": { "type": "Point", "coordinates": [ 30.505001960547983, 59.83097745292045 ] } },
{ "type": "Feature", "properties": { "service_name": "Светлана", "city_service_type": "Парковка ТРК", "Широта": 59.842325, "Долгота": 30.362681, "address": null }, "geometry": { "type": "Point", "coordinates": [ 30.362681, 59.842722022216257 ] } },
{ "type": "Feature", "properties": { "service_name": "Мебель Холл", "city_service_type": "Парковка ТРК", "Широта": 59.935181, "Долгота": 30.439963, "address": null }, "geometry": { "type": "Point", "coordinates": [ 30.441035529838459, 59.935548634641727 ] } },
{ "type": "Feature", "properties": { "service_name": "Фиолент", "city_service_type": "Парковка ТРК", "Широта": 59.85331, "Долгота": 30.220001, "address": null }, "geometry": { "type": "Point", "coordinates": [ 30.218236970660431, 59.853164708312768 ] } },
{ "type": "Feature", "properties": { "service_name": "Лыжный", "city_service_type": "Парковка ТРК", "Широта": 59.999303, "Долгота": 30.19909, "address": null }, "geometry": { "type": "Point", "coordinates": [ 30.200385136557998, 59.998607794472498 ] } },
{ "type": "Feature", "properties": { "service_name": "Масштаб", "city_service_type": "Парковка ТРК", "Широта": 59.806967, "Долгота": 30.32048, "address": null }, "geometry": { "type": "Point", "coordinates": [ 30.318447838200814, 59.807194111489949 ] } },
{ "type": "Feature", "properties": { "service_name": "Заневский Каскад", "city_service_type": "Парковка ТРК", "Широта": 59.932882, "Долгота": 30.437771, "address": null }, "geometry": { "type": "Point", "coordinates": [ 30.436133980772876, 59.93312239376494 ] } },
{ "type": "Feature", "properties": { "service_name": "Жемчужная плаза", "city_service_type": "Парковка ТРК", "Широта": 59.849229, "Долгота": 30.144008, "address": null }, "geometry": { "type": "Point", "coordinates": [ 30.142808460049093, 59.850306397369813 ] } },
{ "type": "Feature", "properties": { "service_name": "Невский", "city_service_type": "Парковка ТРК", "Широта": 59.880888, "Долгота": 30.458506, "address": null }, "geometry": { "type": "Point", "coordinates": [ 30.459006984332436, 59.880254198914109 ] } },
{ "type": "Feature", "properties": { "service_name": "Зенитка", "city_service_type": "Парковка ТРК", "Широта": 60.010606, "Долгота": 30.290954, "address": null }, "geometry": { "type": "Point", "coordinates": [ 30.289896940015165, 60.010720239916225 ] } },
{ "type": "Feature", "properties": { "service_name": "Мануфактура Крафт", "city_service_type": "Парковка ТРК", "Широта": 59.914258, "Долгота": 30.343938, "address": null }, "geometry": { "type": "Point", "coordinates": [ 30.341934062670251, 59.914859318289196 ] } },
{ "type": "Feature", "properties": { "service_name": "СтройДом", "city_service_type": "Парковка ТРК", "Широта": 60.002539, "Долгота": 30.264924, "address": null }, "geometry": { "type": "Point", "coordinates": [ 30.263876463078091, 60.002358075081723 ] } },
{ "type": "Feature", "properties": { "service_name": "Торговый комплекс", "city_service_type": "Парковка ТРК", "Широта": 60.008461, "Долгота": 30.251127, "address": null }, "geometry": { "type": "Point", "coordinates": [ 30.251250799818045, 60.008746617572726 ] } },
{ "type": "Feature", "properties": { "service_name": "Пять Озёр", "city_service_type": "Парковка ТРК", "Широта": 60.016781, "Долгота": 30.245961, "address": null }, "geometry": { "type": "Point", "coordinates": [ 30.246513337649734, 60.016252733974731 ] } },
{ "type": "Feature", "properties": { "service_name": "Сабина", "city_service_type": "Парковка ТРК", "Широта": 60.00728, "Долгота": 30.246653, "address": null }, "geometry": { "type": "Point", "coordinates": [ 30.247271999090216, 60.007308562890024 ] } },
{ "type": "Feature", "properties": { "service_name": "Гранд-Авто", "city_service_type": "Парковка ТРК", "Широта": 59.995521, "Долгота": 30.234387, "address": null }, "geometry": { "type": "Point", "coordinates": [ 30.233729908658084, 59.995673389299178 ] } },
{ "type": "Feature", "properties": { "service_name": "Территория мебели", "city_service_type": "Парковка ТРК", "Широта": 59.988136, "Долгота": 30.227587, "address": null }, "geometry": { "type": "Point", "coordinates": [ 30.226825154965887, 59.987945469915758 ] } },
{ "type": "Feature", "properties": { "service_name": "Гарден Сити", "city_service_type": "Парковка ТРК", "Широта": 59.993998, "Долгота": 30.146529, "address": null }, "geometry": { "type": "Point", "coordinates": [ 30.148443135648211, 59.993993237604585 ] } },
{ "type": "Feature", "properties": { "service_name": "Чкаловский", "city_service_type": "Парковка ТРК", "Широта": 59.959443, "Долгота": 30.28969, "address": null }, "geometry": { "type": "Point", "coordinates": [ 30.289718224469436, 59.959089759936788 ] } },
{ "type": "Feature", "properties": { "service_name": "Французский бульвар", "city_service_type": "Парковка ТРК", "Широта": 59.851004, "Долгота": 30.268375, "address": null }, "geometry": { "type": "Point", "coordinates": [ 30.268346775530567, 59.851351303965131 ] } },
{ "type": "Feature", "properties": { "service_name": "Outlet Village Pulkovo", "city_service_type": "Парковка ТРК", "Широта": 59.793629, "Долгота": 30.331404, "address": null }, "geometry": { "type": "Point", "coordinates": [ 30.330275021222672, 59.792208952356681 ] } },
{ "type": "Feature", "properties": { "service_name": "Штрих код", "city_service_type": "Парковка ТРК", "Широта": 59.878534, "Долгота": 30.460671, "address": null }, "geometry": { "type": "Point", "coordinates": [ 30.460635719413215, 59.878958917870293 ] } },
{ "type": "Feature", "properties": { "service_name": "Континент", "city_service_type": "Парковка ТРК", "Широта": 59.831726, "Долгота": 30.348415, "address": null }, "geometry": { "type": "Point", "coordinates": [ 30.346679195129859, 59.831130268451794 ] } },
{ "type": "Feature", "properties": { "service_name": "Мебельный Континент", "city_service_type": "Парковка ТРК", "Широта": 59.881526, "Долгота": 30.310555, "address": null }, "geometry": { "type": "Point", "coordinates": [ 30.310682010112448, 59.880803691674409 ] } },
{ "type": "Feature", "properties": { "service_name": "Нарва", "city_service_type": "Парковка ТРК", "Широта": 59.853389, "Долгота": 30.268396, "address": null }, "geometry": { "type": "Point", "coordinates": [ 30.268325438826412, 59.854005594716917 ] } },
{ "type": "Feature", "properties": { "service_name": "Прибалтийский", "city_service_type": "Парковка ТРК", "Широта": 59.863678, "Долгота": 30.165457, "address": null }, "geometry": { "type": "Point", "coordinates": [ 30.166656539950907, 59.863352080322436 ] } },
{ "type": "Feature", "properties": { "service_name": "Юго-Запад", "city_service_type": "Парковка ТРК", "Широта": 59.85567, "Долгота": 30.224982, "address": null }, "geometry": { "type": "Point", "coordinates": [ 30.225292469163758, 59.855652282758221 ] } },
{ "type": "Feature", "properties": { "service_name": "Ульянка", "city_service_type": "Парковка ТРК", "Широта": 59.834127, "Долгота": 30.20473, "address": null }, "geometry": { "type": "Point", "coordinates": [ 30.204828785643016, 59.83376533303322 ] } },
{ "type": "Feature", "properties": { "service_name": "Сквер", "city_service_type": "Парковка ТРК", "Широта": 59.835945, "Долгота": 30.116847, "address": null }, "geometry": { "type": "Point", "coordinates": [ 30.116480081897375, 59.837505001119567 ] } },
{ "type": "Feature", "properties": { "service_name": "Мечта", "city_service_type": "Парковка ТРК", "Широта": 60.050472, "Долгота": 30.445569, "address": null }, "geometry": { "type": "Point", "coordinates": [ 30.444502416952243, 60.050681186987923 ] } },
{ "type": "Feature", "properties": { "service_name": "Менделеев центр", "city_service_type": "Парковка ТРК", "Широта": 60.052483, "Долгота": 30.436034, "address": null }, "geometry": { "type": "Point", "coordinates": [ 30.43540547784686, 60.052406936309588 ] } },
{ "type": "Feature", "properties": { "service_name": "Мурино", "city_service_type": "Парковка ТРК", "Широта": 60.040915, "Долгота": 30.444507, "address": null }, "geometry": { "type": "Point", "coordinates": [ 30.444354630993185, 60.041504693046647 ] } },
{ "type": "Feature", "properties": { "service_name": "Колывань", "city_service_type": "Парковка ТРК", "Широта": 59.794936, "Долгота": 30.145721, "address": null }, "geometry": { "type": "Point", "coordinates": [ 30.148486998004447, 59.795589175754131 ] } },
{ "type": "Feature", "properties": { "service_name": "Гранитная-паркинг", "city_service_type": "Многоуровневая парковка", "Широта": 59.925774, "Долгота": 30.430399, "address": "Гранитная улица" }, "geometry": { "type": "Point", "coordinates": [ 30.430399, 59.925774 ] } },
{ "type": "Feature", "properties": { "service_name": "Aero-Parkovka", "city_service_type": "Многоуровневая парковка", "Широта": 59.831881, "Долгота": 30.31348, "address": "5-й Предпортовый пр., 14, корп. 1" }, "geometry": { "type": "Point", "coordinates": [ 30.31348, 59.831881 ] } },
{ "type": "Feature", "properties": { "service_name": "Парковка", "city_service_type": "Многоуровневая парковка", "Широта": 59.847484, "Долгота": 30.245632, "address": "Дачный просп., 6, корп. 1" }, "geometry": { "type": "Point", "coordinates": [ 30.245632, 59.847484 ] } },
{ "type": "Feature", "properties": { "service_name": "Автостоянка", "city_service_type": "Многоуровневая парковка", "Широта": 59.870391, "Долгота": 30.255682, "address": "дорога на Турухтанные Острова, 3" }, "geometry": { "type": "Point", "coordinates": [ 30.255682, 59.870391 ] } },
{ "type": "Feature", "properties": { "service_name": "Горгараж К-32", "city_service_type": "Многоуровневая парковка", "Широта": 59.974671, "Долгота": 30.411188, "address": "Ключевая ул., 32" }, "geometry": { "type": "Point", "coordinates": [ 30.411188, 59.974671 ] } },
{ "type": "Feature", "properties": { "service_name": "Паркинг на Кушелевской дороге", "city_service_type": "Многоуровневая парковка", "Широта": 59.988533, "Долгота": 30.371828, "address": "Кушелевская дорога, 5, корп. 1" }, "geometry": { "type": "Point", "coordinates": [ 30.371828, 59.988533 ] } },
{ "type": "Feature", "properties": { "service_name": "Паркинг №1", "city_service_type": "Многоуровневая парковка", "Широта": 60.026545, "Долгота": 30.328714, "address": "Лиственная ул., 8" }, "geometry": { "type": "Point", "coordinates": [ 30.328714, 60.026545 ] } },
{ "type": "Feature", "properties": { "service_name": "Sys-p", "city_service_type": "Многоуровневая парковка", "Широта": 60.032643, "Долгота": 30.223421, "address": "Нижне-Каменская ул., 11" }, "geometry": { "type": "Point", "coordinates": [ 30.223421, 60.032643 ] } },
{ "type": "Feature", "properties": { "service_name": "Парковка", "city_service_type": "Многоуровневая парковка, паркинг ТРК", "Широта": 60.052708, "Долгота": 30.329134, "address": "просп. Просвещения, 19" }, "geometry": { "type": "Point", "coordinates": [ 30.329134, 60.052708 ] } },
{ "type": "Feature", "properties": { "service_name": "Автомобильный паркинг", "city_service_type": "Многоуровневая парковка", "Широта": 59.857985, "Долгота": 30.247677, "address": "просп. Стачек, 99" }, "geometry": { "type": "Point", "coordinates": [ 30.247677, 59.857985 ] } },
{ "type": "Feature", "properties": { "service_name": "Паркинг", "city_service_type": "Многоуровневая парковка", "Широта": 60.058599, "Долгота": 30.270367, "address": null }, "geometry": { "type": "Point", "coordinates": [ 30.270367, 60.058599 ] } },
{ "type": "Feature", "properties": { "service_name": "Перехватывающая парковка", "city_service_type": "Многоуровневая парковка", "Широта": 59.885959, "Долгота": 30.374762, "address": "ул. Салова, 70" }, "geometry": { "type": "Point", "coordinates": [ 30.374762, 59.885959 ] } },
{ "type": "Feature", "properties": { "service_name": "Автостоянка", "city_service_type": "Многоуровневая парковка", "Широта": 59.840335, "Долгота": 30.214497, "address": "ул. Солдата Корзуна, 14" }, "geometry": { "type": "Point", "coordinates": [ 30.214497, 59.840335 ] } },
{ "type": "Feature", "properties": { "service_name": "Паркинг № 5", "city_service_type": "Многоуровневая парковка", "Широта": 60.018763, "Долгота": 30.41594, "address": "ул. Софьи Ковалевской, 22" }, "geometry": { "type": "Point", "coordinates": [ 30.41594, 60.018763 ] } },
{ "type": "Feature", "properties": { "service_name": "Ultraparking", "city_service_type": "Многоуровневая парковка", "Широта": 59.944278, "Долгота": 30.444776, "address": "Якорная ул., 16Д" }, "geometry": { "type": "Point", "coordinates": [ 30.444776, 59.944278 ] } },
{ "type": "Feature", "properties": { "service_name": "Автомобильная парковка", "city_service_type": "Многоуровневая парковка", "Широта": 59.847964, "Долгота": 30.244531, "address": "Дачный просп., 6" }, "geometry": { "type": "Point", "coordinates": [ 30.244531, 59.847964 ] } },
{ "type": "Feature", "properties": { "service_name": "Механизированные паркинги", "city_service_type": "Многоуровневая парковка", "Широта": 59.927769, "Долгота": 30.332237, "address": "наб. реки Фонтанки, 59" }, "geometry": { "type": "Point", "coordinates": [ 30.332237, 59.927769 ] } },
{ "type": "Feature", "properties": { "service_name": "Автостоянка", "city_service_type": "Многоуровневая парковка", "Широта": 60.027452, "Долгота": 30.294931, "address": "Новоколомяжский просп., 9" }, "geometry": { "type": "Point", "coordinates": [ 30.294931, 60.027452 ] } },
{ "type": "Feature", "properties": { "service_name": "Паркинг", "city_service_type": "Многоуровневая парковка", "Широта": 59.848854, "Долгота": 30.282615, "address": "просп. Народного Ополчения, 10Б" }, "geometry": { "type": "Point", "coordinates": [ 30.282615, 59.848854 ] } },
{ "type": "Feature", "properties": { "service_name": "Арендари", "city_service_type": "Многоуровневая парковка", "Широта": 59.850835, "Долгота": 30.282574, "address": "проспект Народного Ополчения, 10" }, "geometry": { "type": "Point", "coordinates": [ 30.282574, 59.850835 ] } },
{ "type": "Feature", "properties": { "service_name": "ТЦ Olympic Plaza", "city_service_type": "Парковка ТРК", "Широта": 59.930412, "Долгота": 30.353765, "address": "Стремянная ул., 19" }, "geometry": { "type": "Point", "coordinates": [ 30.353765, 59.930412 ] } },
{ "type": "Feature", "properties": { "service_name": "Паркинг Гепард", "city_service_type": "Многоуровневая парковка", "Широта": 59.92056, "Долгота": 30.363652, "address": "Транспортный пер., 10А" }, "geometry": { "type": "Point", "coordinates": [ 30.363652, 59.92056 ] } },
{ "type": "Feature", "properties": { "service_name": "Атлант Истейт", "city_service_type": "Многоуровневая парковка", "Широта": 60.003924, "Долгота": 30.213159, "address": "Туристская ул., 23, корп. 2" }, "geometry": { "type": "Point", "coordinates": [ 30.213159, 60.003924 ] } },
{ "type": "Feature", "properties": { "service_name": "Парковка", "city_service_type": "Многоуровневая парковка", "Широта": 59.861761, "Долгота": 30.195704, "address": "ул. Маршала Казакова, 52" }, "geometry": { "type": "Point", "coordinates": [ 30.195704, 59.861761 ] } },
{ "type": "Feature", "properties": { "service_name": "Парковка", "city_service_type": "Многоуровневая парковка", "Широта": 59.862146, "Долгота": 30.193944, "address": "ул. Маршала Казакова, 54" }, "geometry": { "type": "Point", "coordinates": [ 30.193944, 59.862146 ] } },
{ "type": "Feature", "properties": { "service_name": "Парковка", "city_service_type": "Многоуровневая парковка", "Широта": 59.946944, "Долгота": 30.241645, "address": "ул. Одоевского, 28Б" }, "geometry": { "type": "Point", "coordinates": [ 30.241645, 59.946944 ] } },
{ "type": "Feature", "properties": { "service_name": "ТРК Балканский", "city_service_type": "Парковка ТРК", "Широта": 59.82649, "Долгота": 30.382266, "address": null }, "geometry": { "type": "Point", "coordinates": [ 30.382266, 59.82649 ] } },
{ "type": "Feature", "properties": { "service_name": "ТРК Континент", "city_service_type": "Многоуровневая парковка", "Широта": 59.831531, "Долгота": 30.347221, "address": null }, "geometry": { "type": "Point", "coordinates": [ 30.347221, 59.831531 ] } },
{ "type": "Feature", "properties": { "service_name": " ТЦ Июнь", "city_service_type": "Парковка ТРК", "Широта": 59.945468, "Долгота": 30.474089, "address": null }, "geometry": { "type": "Point", "coordinates": [ 30.474089, 59.945468 ] } },
{ "type": "Feature", "properties": { "service_name": "Парковка P2, 2 ярус", "city_service_type": "Многоуровневая парковка", "Широта": 59.971102, "Долгота": 30.217523, "address": null }, "geometry": { "type": "Point", "coordinates": [ 30.217523, 59.971102 ] } },
{ "type": "Feature", "properties": { "service_name": "Парковка PVIP1", "city_service_type": "Многоуровневая парковка", "Широта": 59.973037, "Долгота": 30.217992, "address": null }, "geometry": { "type": "Point", "coordinates": [ 30.217992, 59.973037 ] } },
{ "type": "Feature", "properties": { "service_name": "Парковка PVIP1", "city_service_type": "Многоуровневая парковка", "Широта": 59.973037, "Долгота": 30.217992, "address": null }, "geometry": { "type": "Point", "coordinates": [ 30.217992, 59.973037 ] } },
{ "type": "Feature", "properties": { "service_name": "Парковка Р1, 1 ярус", "city_service_type": "Многоуровневая парковка", "Широта": 59.970472, "Долгота": 30.218844, "address": null }, "geometry": { "type": "Point", "coordinates": [ 30.218844, 59.970472 ] } },
{ "type": "Feature", "properties": { "service_name": "Парковка Р1, 2 ярус", "city_service_type": "Многоуровневая парковка", "Широта": 59.970703, "Долгота": 30.218625, "address": null }, "geometry": { "type": "Point", "coordinates": [ 30.218625, 59.970703 ] } },
{ "type": "Feature", "properties": { "service_name": "Парковка Р2, 1 ярус", "city_service_type": "Многоуровневая парковка", "Широта": 59.971057, "Долгота": 30.217044, "address": null }, "geometry": { "type": "Point", "coordinates": [ 30.217044, 59.971057 ] } },
{ "type": "Feature", "properties": { "service_name": "Парковка Р4, 1 ярус", "city_service_type": "Многоуровневая парковка", "Широта": 59.971866, "Долгота": 30.216258, "address": null }, "geometry": { "type": "Point", "coordinates": [ 30.216258, 59.971866 ] } },
{ "type": "Feature", "properties": { "service_name": "Парковка Р4, 2 ярус", "city_service_type": "Многоуровневая парковка", "Широта": 59.972038, "Долгота": 30.216383, "address": null }, "geometry": { "type": "Point", "coordinates": [ 30.216383, 59.972038 ] } },
{ "type": "Feature", "properties": { "service_name": "Парковка Р5, 1 ярус", "city_service_type": "Многоуровневая парковка", "Широта": 59.972819, "Долгота": 30.215908, "address": null }, "geometry": { "type": "Point", "coordinates": [ 30.215908, 59.972819 ] } },
{ "type": "Feature", "properties": { "service_name": "Парковка Р5, 2 ярус", "city_service_type": "Многоуровневая парковка", "Широта": 59.972687, "Долгота": 30.216177, "address": null }, "geometry": { "type": "Point", "coordinates": [ 30.216177, 59.972687 ] } },
{ "type": "Feature", "properties": { "service_name": "Парковка Р6, 1 ярус", "city_service_type": "Многоуровневая парковка", "Широта": 59.973302, "Долгота": 30.215998, "address": null }, "geometry": { "type": "Point", "coordinates": [ 30.215998, 59.973302 ] } },
{ "type": "Feature", "properties": { "service_name": "Парковка Р6, 2 ярус", "city_service_type": "Многоуровневая парковка", "Широта": 59.973142, "Долгота": 30.216133, "address": null }, "geometry": { "type": "Point", "coordinates": [ 30.216133, 59.973142 ] } },
{ "type": "Feature", "properties": { "service_name": "Парковка Р7, 1 ярус", "city_service_type": "Многоуровневая парковка", "Широта": 59.973485, "Долгота": 30.216078, "address": null }, "geometry": { "type": "Point", "coordinates": [ 30.216078, 59.973485 ] } },
{ "type": "Feature", "properties": { "service_name": "Парковка Р7, 2 ярус", "city_service_type": "Многоуровневая парковка", "Широта": 59.973596, "Долгота": 30.216312, "address": null }, "geometry": { "type": "Point", "coordinates": [ 30.216312, 59.973596 ] } },
{ "type": "Feature", "properties": { "service_name": "Парковка Р8, 1 ярус", "city_service_type": "Многоуровневая парковка", "Широта": 59.974414, "Долгота": 30.216582, "address": null }, "geometry": { "type": "Point", "coordinates": [ 30.216582, 59.974414 ] } },
{ "type": "Feature", "properties": { "service_name": "Парковка Р8, 2 ярус", "city_service_type": "Многоуровневая парковка", "Широта": 59.974197, "Долгота": 30.21678, "address": null }, "geometry": { "type": "Point", "coordinates": [ 30.21678, 59.974197 ] } },
{ "type": "Feature", "properties": { "service_name": "Парковка Р9, 2 ярус", "city_service_type": "Многоуровневая парковка", "Широта": 59.974746, "Долгота": 30.217483, "address": null }, "geometry": { "type": "Point", "coordinates": [ 30.217483, 59.974746 ] } },
{ "type": "Feature", "properties": { "service_name": "ТК Парад", "city_service_type": "Парковка ТРК", "Широта": 59.831632, "Долгота": 30.50422, "address": null }, "geometry": { "type": "Point", "coordinates": [ 30.50422, 59.831632 ] } },
{ "type": "Feature", "properties": { "service_name": "ТК Питер", "city_service_type": "Парковка ТРК", "Широта": 59.852944, "Долгота": 30.340907, "address": null }, "geometry": { "type": "Point", "coordinates": [ 30.340907, 59.852944 ] } },
{ "type": "Feature", "properties": { "service_name": "ТК Призма", "city_service_type": "Парковка ТРК", "Широта": 60.011257, "Долгота": 30.403406, "address": null }, "geometry": { "type": "Point", "coordinates": [ 30.403406, 60.011257 ] } },
{ "type": "Feature", "properties": { "service_name": "ТРК Гранд Каньон", "city_service_type": "Парковка ТРК", "Широта": 60.057924, "Долгота": 30.333956, "address": null }, "geometry": { "type": "Point", "coordinates": [ 30.333956, 60.057924 ] } },
{ "type": "Feature", "properties": { "service_name": "ТРК Гулливер", "city_service_type": "Парковка ТРК", "Широта": 59.989595, "Долгота": 30.257476, "address": null }, "geometry": { "type": "Point", "coordinates": [ 30.257476, 59.989595 ] } },
{ "type": "Feature", "properties": { "service_name": "ТЦ Южный полюс", "city_service_type": "Парковка ТРК", "Широта": 59.863267, "Долгота": 30.402227, "address": null }, "geometry": { "type": "Point", "coordinates": [ 30.402227, 59.863267 ] } },
{ "type": "Feature", "properties": { "service_name": "Парковочный дом Охта Молл", "city_service_type": "Парковка ТРК", "Широта": 59.941251, "Долгота": 30.419658, "address": null }, "geometry": { "type": "Point", "coordinates": [ 30.419658, 59.941251 ] } },
{ "type": "Feature", "properties": { "service_name": " Севкабель порт", "city_service_type": "Парковка ТРК", "Широта": 59.925257, "Долгота": 30.237541, "address": null }, "geometry": { "type": "Point", "coordinates": [ 30.237541, 59.925257 ] } },
{ "type": "Feature", "properties": { "service_name": "ТРК Балканский", "city_service_type": "Парковка ТРК", "Широта": 59.827948, "Долгота": 30.382032, "address": null }, "geometry": { "type": "Point", "coordinates": [ 30.382032, 59.827948 ] } },
{ "type": "Feature", "properties": { "service_name": "Сигмар Паркинг", "city_service_type": "Многоуровневая парковка", "Широта": 59.992095, "Долгота": 30.20035, "address": null }, "geometry": { "type": "Point", "coordinates": [ 30.20035, 59.992095 ] } },
{ "type": "Feature", "properties": { "service_name": "Система Парковок", "city_service_type": "Многоуровневая парковка", "Широта": 59.918682, "Долгота": 30.445458, "address": null }, "geometry": { "type": "Point", "coordinates": [ 30.445458, 59.918682 ] } }
]
}
