{
"type": "FeatureCollection",
"name": "property_management",
"crs": { "type": "name", "properties": { "name": "urn:ogc:def:crs:OGC:1.3:CRS84" } },
"features": [
{ "type": "Feature", "properties": { "Service name": "ТСЖ Коломяжский 36/2", "Adress": "Коломяжский проспект, 36/2", "Долгота": 60.01474, "Широта": 30.292651 }, "geometry": { "type": "Point", "coordinates": [ 30.292651, 60.01474 ] } },
{ "type": "Feature", "properties": { "Service name": "ТСЖ Невский 22-24", "Adress": "Невский проспект, 22", "Долгота": 59.936616, "Широта": 30.323073 }, "geometry": { "type": "Point", "coordinates": [ 30.323073, 59.936616 ] } },
{ "type": "Feature", "properties": { "Service name": "ТСЖ Невский 136", "Adress": "Невский проспект, 136", "Долгота": 59.930299, "Широта": 30.36863 }, "geometry": { "type": "Point", "coordinates": [ 30.36863, 59.930299 ] } },
{ "type": "Feature", "properties": { "Service name": "Лиговский 123", "Adress": "Лиговский проспект, 123 лит А", "Долгота": 59.918432, "Широта": 30.352135 }, "geometry": { "type": "Point", "coordinates": [ 30.352135, 59.918432 ] } },
{ "type": "Feature", "properties": { "Service name": "ТСЖ Индустриальный-40, корпус 1", "Adress": "Индустриальный проспект, 40 к1", "Долгота": 59.954805, "Широта": 30.466827 }, "geometry": { "type": "Point", "coordinates": [ 30.466827, 59.954805 ] } },
{ "type": "Feature", "properties": { "Service name": "ТСН Коломяжский-33", "Adress": "Коломяжский проспект, 33 к2", "Долгота": 60.014284, "Широта": 30.296429 }, "geometry": { "type": "Point", "coordinates": [ 30.296429, 60.014284 ] } },
{ "type": "Feature", "properties": { "Service name": "ТСЖ Индустриальный 26/24", "Adress": "Индустриальный проспект, 26/24", "Долгота": 59.947641, "Широта": 30.473482 }, "geometry": { "type": "Point", "coordinates": [ 30.473482, 59.947641 ] } },
{ "type": "Feature", "properties": { "Service name": "ТСЖ Комендантский 21", "Adress": "Комендантский проспект, 21 к1", "Долгота": 60.013809, "Широта": 30.25438 }, "geometry": { "type": "Point", "coordinates": [ 30.25438, 60.013809 ] } },
{ "type": "Feature", "properties": { "Service name": "ТСЖ Богатырский 36/1", "Adress": "Богатырский проспект, 36 к1", "Долгота": 60.002721, "Широта": 30.239365 }, "geometry": { "type": "Point", "coordinates": [ 30.239365, 60.002721 ] } },
{ "type": "Feature", "properties": { "Service name": "ТСЖ Ржевка-Пороховые", "Adress": "проспект Косыгина, 34 к1", "Долгота": 59.946236, "Широта": 30.502808 }, "geometry": { "type": "Point", "coordinates": [ 30.502808, 59.946236 ] } },
{ "type": "Feature", "properties": { "Service name": "ТСЖ Товарищеский 32", "Adress": "Товарищеский проспект, 32 к2", "Долгота": 59.910665, "Широта": 30.49214 }, "geometry": { "type": "Point", "coordinates": [ 30.49214, 59.910665 ] } },
{ "type": "Feature", "properties": { "Service name": "ТСН ТСЖ Коллонтай 4", "Adress": "улица Коллонтай, 4", "Долгота": 59.914937, "Широта": 30.447911 }, "geometry": { "type": "Point", "coordinates": [ 30.447911, 59.914937 ] } },
{ "type": "Feature", "properties": { "Service name": "ЖКС №1 Красногвардейского района", "Adress": "Заневский проспект, 15а", "Долгота": 59.927783, "Широта": 30.410878 }, "geometry": { "type": "Point", "coordinates": [ 30.410878, 59.927783 ] } },
{ "type": "Feature", "properties": { "Service name": "Пульс", "Adress": "Октябрьская набережная, 34 к2 ст1", "Долгота": 59.905355, "Широта": 30.43913 }, "geometry": { "type": "Point", "coordinates": [ 30.43913, 59.905355 ] } },
{ "type": "Feature", "properties": { "Service name": "ТСЖ Коллонтай 17", "Adress": "улица Коллонтай, 17 к3", "Долгота": 59.91659, "Широта": 30.461775 }, "geometry": { "type": "Point", "coordinates": [ 30.461775, 59.91659 ] } },
{ "type": "Feature", "properties": { "Service name": "Жилкомсервис №3 Красногвардейского района", "Adress": "проспект Металлистов, 19/30", "Долгота": 59.954015, "Широта": 30.423462 }, "geometry": { "type": "Point", "coordinates": [ 30.423462, 59.954015 ] } },
{ "type": "Feature", "properties": { "Service name": "ТСЖ Солидарности 8 к3", "Adress": "проспект Солидарности, 8 к3", "Долгота": 59.922703, "Широта": 30.494222 }, "geometry": { "type": "Point", "coordinates": [ 30.494222, 59.922703 ] } },
{ "type": "Feature", "properties": { "Service name": "Жилкомсервис №1 Невского района", "Adress": "Подвойского, 16 к1 лит Д", "Долгота": 59.912657, "Широта": 30.46937 }, "geometry": { "type": "Point", "coordinates": [ 30.46937, 59.912657 ] } },
{ "type": "Feature", "properties": { "Service name": "ЖКС №3 Калининского района", "Adress": "Федосеенко, 31", "Долгота": 59.975164, "Широта": 30.397192 }, "geometry": { "type": "Point", "coordinates": [ 30.397192, 59.975164 ] } },
{ "type": "Feature", "properties": { "Service name": "ЖКС №1 Центрального района", "Adress": "Моховая, 8", "Долгота": 59.945296, "Широта": 30.345282 }, "geometry": { "type": "Point", "coordinates": [ 30.345282, 59.945296 ] } },
{ "type": "Feature", "properties": { "Service name": "ДомСПб", "Adress": "улица Софийская, 6 к8 ст1", "Долгота": 59.884164, "Широта": 30.389397 }, "geometry": { "type": "Point", "coordinates": [ 30.389397, 59.884164 ] } },
{ "type": "Feature", "properties": { "Service name": "ТСЖ Толстовский дом", "Adress": "Рубинштейна, 15-17 лит Ц", "Долгота": 59.929411, "Широта": 30.340703 }, "geometry": { "type": "Point", "coordinates": [ 30.340703, 59.929411 ] } },
{ "type": "Feature", "properties": { "Service name": "ТСЖ Жуковского 28", "Adress": "Жуковского, 28", "Долгота": 59.93614, "Широта": 30.359353 }, "geometry": { "type": "Point", "coordinates": [ 30.359353, 59.93614 ] } },
{ "type": "Feature", "properties": { "Service name": "Диспетчерская", "Adress": "Невский проспект, 137", "Долгота": 59.926746, "Широта": 30.376017 }, "geometry": { "type": "Point", "coordinates": [ 30.376017, 59.926746 ] } },
{ "type": "Feature", "properties": { "Service name": "ТСЖ Кирочная-30", "Adress": "улица Кирочная, 30", "Долгота": 59.94421, "Широта": 30.362291 }, "geometry": { "type": "Point", "coordinates": [ 30.362291, 59.94421 ] } },
{ "type": "Feature", "properties": { "Service name": "Жилкомсервис № 2 Красногвардейского Района", "Adress": "проспект Ударников, 39 к1", "Долгота": 59.954285, "Широта": 30.485024 }, "geometry": { "type": "Point", "coordinates": [ 30.485024, 59.954285 ] } },
{ "type": "Feature", "properties": { "Service name": "Сервис-Недвижимость", "Adress": "Кременчугская улица, 13 к2", "Долгота": 59.921689, "Широта": 30.369682 }, "geometry": { "type": "Point", "coordinates": [ 30.369682, 59.921689 ] } },
{ "type": "Feature", "properties": { "Service name": "ТСЖ Кирочная 64", "Adress": "улица Кирочная, 64", "Долгота": 59.940517, "Широта": 30.387267 }, "geometry": { "type": "Point", "coordinates": [ 30.387267, 59.940517 ] } },
{ "type": "Feature", "properties": { "Service name": "Жилкомсервис №1 Невского района", "Adress": "улица Дыбенко, 25 к1 лит ЭА", "Долгота": 59.904608, "Широта": 30.478023 }, "geometry": { "type": "Point", "coordinates": [ 30.478023, 59.904608 ] } },
{ "type": "Feature", "properties": { "Service name": "ТСЖ Гороховая 17/56", "Adress": "Гороховая, 17/56", "Долгота": 59.932146, "Широта": 30.316057 }, "geometry": { "type": "Point", "coordinates": [ 30.316057, 59.932146 ] } },
{ "type": "Feature", "properties": { "Service name": "Жилкомсервис №2 Центрального района", "Adress": "улица Марата, 14", "Долгота": 59.929342, "Широта": 30.355698 }, "geometry": { "type": "Point", "coordinates": [ 30.355698, 59.929342 ] } },
{ "type": "Feature", "properties": { "Service name": "ТСЖ Восстания-8А", "Adress": "Восстания, 8а", "Долгота": 59.935054, "Широта": 30.359966 }, "geometry": { "type": "Point", "coordinates": [ 30.359966, 59.935054 ] } },
{ "type": "Feature", "properties": { "Service name": "ТСЖ Антонова-Овсеенко 5", "Adress": "Антонова-Овсеенко, 5 к1", "Долгота": 59.906062, "Широта": 30.46035 }, "geometry": { "type": "Point", "coordinates": [ 30.46035, 59.906062 ] } },
{ "type": "Feature", "properties": { "Service name": "Жилищное агентство Невского района", "Adress": "проспект Обуховской Обороны, 54", "Долгота": 59.902316, "Широта": 30.424914 }, "geometry": { "type": "Point", "coordinates": [ 30.424914, 59.902316 ] } },
{ "type": "Feature", "properties": { "Service name": "ЖКС №3 Центрального района", "Adress": "Дегтярный переулок, 1", "Долгота": 59.938117, "Широта": 30.378844 }, "geometry": { "type": "Point", "coordinates": [ 30.378844, 59.938117 ] } },
{ "type": "Feature", "properties": { "Service name": "ТСЖ Подвойского, 26", "Adress": "Подвойского, 26 к2", "Долгота": 59.91576, "Широта": 30.478152 }, "geometry": { "type": "Point", "coordinates": [ 30.478152, 59.91576 ] } },
{ "type": "Feature", "properties": { "Service name": "ТСЖ Добролюбова, 19", "Adress": "проспект Добролюбова, 19", "Долгота": 59.949955, "Широта": 30.299024 }, "geometry": { "type": "Point", "coordinates": [ 30.299024, 59.949955 ] } },
{ "type": "Feature", "properties": { "Service name": "ЖКС №3 Центрального района", "Adress": "Одесская, 1", "Долгота": 59.945908, "Широта": 30.387433 }, "geometry": { "type": "Point", "coordinates": [ 30.387433, 59.945908 ] } },
{ "type": "Feature", "properties": { "Service name": "Cosmoservice", "Adress": "Перевозный переулок, 4", "Долгота": 59.931104, "Широта": 30.403445 }, "geometry": { "type": "Point", "coordinates": [ 30.403445, 59.931104 ] } },
{ "type": "Feature", "properties": { "Service name": "ТСЖ Шпалерная 34", "Adress": "Воскресенская набережная, 22", "Долгота": 59.949393, "Широта": 30.357265 }, "geometry": { "type": "Point", "coordinates": [ 30.357265, 59.949393 ] } },
{ "type": "Feature", "properties": { "Service name": "ЖКС №3 Калининского района", "Adress": "проспект Металлистов, 98", "Долгота": 59.968989, "Широта": 30.404822 }, "geometry": { "type": "Point", "coordinates": [ 30.404822, 59.968989 ] } },
{ "type": "Feature", "properties": { "Service name": "Жилкомсервис №1 Адмиралтейского района", "Adress": "набережная канала Грибоедова, 83", "Долгота": 59.926966, "Широта": 30.306076 }, "geometry": { "type": "Point", "coordinates": [ 30.306076, 59.926966 ] } },
{ "type": "Feature", "properties": { "Service name": "ТСЖ 16 Линия, 37", "Adress": "16-я линия В.О., 37", "Долгота": 59.939055, "Широта": 30.266773 }, "geometry": { "type": "Point", "coordinates": [ 30.266773, 59.939055 ] } },
{ "type": "Feature", "properties": { "Service name": "ТСЖ Шпалерная 60", "Adress": "Шпалерная, 60", "Долгота": 59.948938, "Широта": 30.379868 }, "geometry": { "type": "Point", "coordinates": [ 30.379868, 59.948938 ] } },
{ "type": "Feature", "properties": { "Service name": "ЖКС №3 Центрального района", "Adress": "Греческий проспект, 12", "Долгота": 59.939355, "Широта": 30.368635 }, "geometry": { "type": "Point", "coordinates": [ 30.368635, 59.939355 ] } },
{ "type": "Feature", "properties": { "Service name": "Жилкомсервис №2 Петроградского района", "Adress": "Гатчинская, 16", "Долгота": 59.96177, "Широта": 30.299915 }, "geometry": { "type": "Point", "coordinates": [ 30.299915, 59.96177 ] } },
{ "type": "Feature", "properties": { "Service name": "ТСЖ Гражданский 24", "Adress": "Гражданский проспект, 24", "Долгота": 60.005396, "Широта": 30.388804 }, "geometry": { "type": "Point", "coordinates": [ 30.388804, 60.005396 ] } },
{ "type": "Feature", "properties": { "Service name": "Участок №4", "Adress": "Митавский переулок, 6", "Долгота": 59.940376, "Широта": 30.358867 }, "geometry": { "type": "Point", "coordinates": [ 30.358867, 59.940376 ] } },
{ "type": "Feature", "properties": { "Service name": "ТСЖ Петровский-14", "Adress": "Петровский проспект, 14", "Долгота": 59.958002, "Широта": 30.272657 }, "geometry": { "type": "Point", "coordinates": [ 30.272657, 59.958002 ] } },
{ "type": "Feature", "properties": { "Service name": "ТСЖ Бадаева 14", "Adress": "улица Бадаева, 14 к2", "Долгота": 59.918314, "Широта": 30.442967 }, "geometry": { "type": "Point", "coordinates": [ 30.442967, 59.918314 ] } },
{ "type": "Feature", "properties": { "Service name": "Аврора-Восток", "Adress": "улица Коллонтай, 5/1", "Долгота": 59.914146, "Широта": 30.451819 }, "geometry": { "type": "Point", "coordinates": [ 30.451819, 59.914146 ] } },
{ "type": "Feature", "properties": { "Service name": "ТСЖ Бадаева 14", "Adress": "улица Бадаева, 14 к4", "Долгота": 59.918536, "Широта": 30.441902 }, "geometry": { "type": "Point", "coordinates": [ 30.441902, 59.918536 ] } },
{ "type": "Feature", "properties": { "Service name": "ТСЖ Подвойского 13/2", "Adress": "Подвойского, 13 к2", "Долгота": 59.91085, "Широта": 30.469405 }, "geometry": { "type": "Point", "coordinates": [ 30.469405, 59.91085 ] } },
{ "type": "Feature", "properties": { "Service name": "ТСЖ Коллонтай 30 Корпус 2", "Adress": "улица Коллонтай, 30 к2", "Долгота": 59.924308, "Широта": 30.482238 }, "geometry": { "type": "Point", "coordinates": [ 30.482238, 59.924308 ] } },
{ "type": "Feature", "properties": { "Service name": "ТСЖ Джона Рида 7 к1", "Adress": "Джона Рида, 7 к1", "Долгота": 59.920671, "Широта": 30.455012 }, "geometry": { "type": "Point", "coordinates": [ 30.455012, 59.920671 ] } },
{ "type": "Feature", "properties": { "Service name": "ТСЖ Коллонтай 47-6", "Adress": "улица Коллонтай, 47 к6", "Долгота": 59.924024, "Широта": 30.501115 }, "geometry": { "type": "Point", "coordinates": [ 30.501115, 59.924024 ] } },
{ "type": "Feature", "properties": { "Service name": "ТСЖ Ударников 27 корпус 1", "Adress": "проспект Ударников, 27 к1", "Долгота": 59.951179, "Широта": 30.474706 }, "geometry": { "type": "Point", "coordinates": [ 30.474706, 59.951179 ] } },
{ "type": "Feature", "properties": { "Service name": "Жилкомсервис №1 Невского района", "Adress": "улица Коллонтай, 32 к3", "Долгота": 59.924822, "Широта": 30.486617 }, "geometry": { "type": "Point", "coordinates": [ 30.486617, 59.924822 ] } },
{ "type": "Feature", "properties": { "Service name": "ТСЖ Октябрьская набережная-70/1", "Adress": "Октябрьская набережная, 70 к1", "Долгота": 59.876205, "Широта": 30.458589 }, "geometry": { "type": "Point", "coordinates": [ 30.458589, 59.876205 ] } },
{ "type": "Feature", "properties": { "Service name": "ЦДС", "Adress": "Белоостровская, 10 к1 ст1", "Долгота": 59.984792, "Широта": 30.323614 }, "geometry": { "type": "Point", "coordinates": [ 30.323614, 59.984792 ] } },
{ "type": "Feature", "properties": { "Service name": "ТСН Тореза 112", "Adress": "проспект Тореза, 112 к1", "Долгота": 60.02224, "Широта": 30.327282 }, "geometry": { "type": "Point", "coordinates": [ 30.327282, 60.02224 ] } },
{ "type": "Feature", "properties": { "Service name": "ТСЖ Куйбышева-26", "Adress": "улица Куйбышева, 26 к2", "Долгота": 59.957336, "Широта": 30.329357 }, "geometry": { "type": "Point", "coordinates": [ 30.329357, 59.957336 ] } },
{ "type": "Feature", "properties": { "Service name": "Жилкомсервис №2 Петроградского района", "Adress": "Чкаловский проспект, 56", "Долгота": 59.968373, "Широта": 30.301548 }, "geometry": { "type": "Point", "coordinates": [ 30.301548, 59.968373 ] } },
{ "type": "Feature", "properties": { "Service name": "Управляющая компания", "Adress": "15-я линия В.О., 76", "Долгота": 59.945485, "Широта": 30.261111 }, "geometry": { "type": "Point", "coordinates": [ 30.261111, 59.945485 ] } },
{ "type": "Feature", "properties": { "Service name": "ТСЖ Монетный двор", "Adress": "проспект Добролюбова, 2", "Долгота": 59.949201, "Широта": 30.305726 }, "geometry": { "type": "Point", "coordinates": [ 30.305726, 59.949201 ] } },
{ "type": "Feature", "properties": { "Service name": "ЖСК 1058", "Adress": "Композиторов, 1 к1 лит А", "Долгота": 60.046843, "Широта": 30.320101 }, "geometry": { "type": "Point", "coordinates": [ 30.320101, 60.046843 ] } },
{ "type": "Feature", "properties": { "Service name": "ТСЖ КУЛЬТУРЫ 21-1", "Adress": "проспект Культуры, 21 к1", "Долгота": 60.046629, "Широта": 30.378035 }, "geometry": { "type": "Point", "coordinates": [ 30.378035, 60.046629 ] } },
{ "type": "Feature", "properties": { "Service name": "Участок №3", "Adress": "Земский переулок, 7", "Долгота": 60.024793, "Широта": 30.291005 }, "geometry": { "type": "Point", "coordinates": [ 30.291005, 60.024793 ] } },
{ "type": "Feature", "properties": { "Service name": "Комендантский 31/2", "Adress": "Комендантский проспект, 31 к2", "Долгота": 60.021332, "Широта": 30.246571 }, "geometry": { "type": "Point", "coordinates": [ 30.246571, 60.021332 ] } },
{ "type": "Feature", "properties": { "Service name": "УК Парнас Парголово", "Adress": "4-й Верхний переулок, 19", "Долгота": 60.073272, "Широта": 30.341416 }, "geometry": { "type": "Point", "coordinates": [ 30.341416, 60.073272 ] } },
{ "type": "Feature", "properties": { "Service name": "Сервис-недвижимость, аварийно-диспетчерская служба", "Adress": null, "Долгота": null, "Широта": null }, "geometry": { "type": "Point", "coordinates": [ 30.215848603163408, 59.953307154740472 ] } },
{ "type": "Feature", "properties": { "Service name": "ТСН ТСЖ Королёва 39", "Adress": "проспект Королёва, 39 к1", "Долгота": 60.020187, "Широта": 30.256308 }, "geometry": { "type": "Point", "coordinates": [ 30.256308, 60.020187 ] } },
{ "type": "Feature", "properties": { "Service name": "Жилкомсервис №4 Приморского района", "Adress": "Ольховая, 18", "Долгота": 60.01657, "Широта": 30.254882 }, "geometry": { "type": "Point", "coordinates": [ 30.254882, 60.01657 ] } },
{ "type": "Feature", "properties": { "Service name": "ТСЖ Долгоозерная 33 к1", "Adress": "улица Парашютная, 31 к2", "Долгота": 60.020521, "Широта": 30.26788 }, "geometry": { "type": "Point", "coordinates": [ 30.26788, 60.020521 ] } },
{ "type": "Feature", "properties": { "Service name": "ТСЖ ЖК на Королева, 68", "Adress": "проспект Королёва, 68 ст1", "Долгота": 60.035693, "Широта": 30.235584 }, "geometry": { "type": "Point", "coordinates": [ 30.235584, 60.035693 ] } },
{ "type": "Feature", "properties": { "Service name": "ТСЖ Афанасьевская 6/1", "Adress": "Афанасьевская, 6 к1", "Долгота": 60.032752, "Широта": 30.298272 }, "geometry": { "type": "Point", "coordinates": [ 30.298272, 60.032752 ] } },
{ "type": "Feature", "properties": { "Service name": "ТСЖ Тимуровское", "Adress": "Ольги Форш, 19 к1", "Долгота": 60.044878, "Широта": 30.395423 }, "geometry": { "type": "Point", "coordinates": [ 30.395423, 60.044878 ] } },
{ "type": "Feature", "properties": { "Service name": "Эксплуатация главстрой-СПб", "Adress": "улица Фёдора Абрамова, 21 к3 ст1", "Долгота": 60.079032, "Широта": 30.348051 }, "geometry": { "type": "Point", "coordinates": [ 30.348051, 60.079032 ] } },
{ "type": "Feature", "properties": { "Service name": "Жилищное агентство Выборгского района", "Adress": "проспект Пархоменко, 24/9", "Долгота": 60.00026, "Широта": 30.340664 }, "geometry": { "type": "Point", "coordinates": [ 30.340664, 60.00026 ] } },
{ "type": "Feature", "properties": { "Service name": "ТСН Шведская крона", "Adress": "Фермское шоссе, 12 лит А", "Долгота": 60.012253, "Широта": 30.310794 }, "geometry": { "type": "Point", "coordinates": [ 30.310794, 60.012253 ] } },
{ "type": "Feature", "properties": { "Service name": "ЖСК №1", "Adress": null, "Долгота": null, "Широта": null }, "geometry": { "type": "Point", "coordinates": [ 30.224653295390631, 59.94259273071669 ] } },
{ "type": "Feature", "properties": { "Service name": "Жилкомсервис №1", "Adress": null, "Долгота": null, "Широта": null }, "geometry": { "type": "Point", "coordinates": [ 30.241906694984181, 59.930106044098785 ] } },
{ "type": "Feature", "properties": { "Service name": "ЖСК №922", "Adress": "проспект Просвещения, 52 к2", "Долгота": 60.04926, "Широта": 30.357891 }, "geometry": { "type": "Point", "coordinates": [ 30.357891, 60.04926 ] } },
{ "type": "Feature", "properties": { "Service name": "ЖКС №1 Выборгского района", "Adress": "проспект Просвещения, 30 к3", "Долгота": 60.056475, "Широта": 30.327754 }, "geometry": { "type": "Point", "coordinates": [ 30.327754, 60.056475 ] } },
{ "type": "Feature", "properties": { "Service name": "ТСЖ Город солнца", "Adress": "Композиторов, 10", "Долгота": 60.050473, "Широта": 30.314642 }, "geometry": { "type": "Point", "coordinates": [ 30.314642, 60.050473 ] } },
{ "type": "Feature", "properties": { "Service name": "ТСЖ Ярославский 66-1", "Adress": "Ярославский проспект, 66 к1", "Долгота": 60.024802, "Широта": 30.315961 }, "geometry": { "type": "Point", "coordinates": [ 30.315961, 60.024802 ] } },
{ "type": "Feature", "properties": { "Service name": "ТСЖ Новый город-2", "Adress": "Новочеркасский проспект, 33 к3", "Долгота": 59.931417, "Широта": 30.40779 }, "geometry": { "type": "Point", "coordinates": [ 30.40779, 59.931417 ] } },
{ "type": "Feature", "properties": { "Service name": "Жилкомсервис № 1 Василеостровского района", "Adress": null, "Долгота": null, "Широта": null }, "geometry": { "type": "Point", "coordinates": [ 30.245656402186068, 59.928497973407538 ] } },
{ "type": "Feature", "properties": { "Service name": "Управление комфортом", "Adress": "Пискарёвский проспект, 1", "Долгота": 59.957501, "Широта": 30.407 }, "geometry": { "type": "Point", "coordinates": [ 30.407, 59.957501 ] } },
{ "type": "Feature", "properties": { "Service name": "ТСЖ Искровский 3-2", "Adress": "Искровский проспект, 3 к2", "Долгота": 59.913424, "Широта": 30.457161 }, "geometry": { "type": "Point", "coordinates": [ 30.457161, 59.913424 ] } },
{ "type": "Feature", "properties": { "Service name": "Евро Сити", "Adress": "проспект Металлистов, 15", "Долгота": 59.952124, "Широта": 30.422784 }, "geometry": { "type": "Point", "coordinates": [ 30.422784, 59.952124 ] } },
{ "type": "Feature", "properties": { "Service name": "Перспектива", "Adress": "Кржижановского, 8 лит А", "Долгота": 59.931876, "Широта": 30.465079 }, "geometry": { "type": "Point", "coordinates": [ 30.465079, 59.931876 ] } },
{ "type": "Feature", "properties": { "Service name": "ТСЖ Заневка", "Adress": "улица Коллонтай, 28 к1", "Долгота": 59.923411, "Широта": 30.481789 }, "geometry": { "type": "Point", "coordinates": [ 30.481789, 59.923411 ] } },
{ "type": "Feature", "properties": { "Service name": "ТСЖ Солидарности 8 к4", "Adress": "проспект Солидарности, 8 к4", "Долгота": 59.922498, "Широта": 30.495641 }, "geometry": { "type": "Point", "coordinates": [ 30.495641, 59.922498 ] } },
{ "type": "Feature", "properties": { "Service name": "ЖКС №1 Красногвардейского района", "Adress": "Новочеркасский проспект, 11 к1", "Долгота": 59.93712, "Широта": 30.407689 }, "geometry": { "type": "Point", "coordinates": [ 30.407689, 59.93712 ] } },
{ "type": "Feature", "properties": { "Service name": "Возрождение", "Adress": null, "Долгота": null, "Широта": null }, "geometry": { "type": "Point", "coordinates": [ 30.272699385455415, 59.934944673920931 ] } },
{ "type": "Feature", "properties": { "Service name": "ЖСК №374", "Adress": "проспект Маршала Блюхера, 67 к1", "Долгота": 59.973847, "Широта": 30.43272 }, "geometry": { "type": "Point", "coordinates": [ 30.43272, 59.973847 ] } },
{ "type": "Feature", "properties": { "Service name": "Жилищное агентство Центрального района", "Adress": "Невский проспект, 176", "Долгота": 59.925603, "Широта": 30.380878 }, "geometry": { "type": "Point", "coordinates": [ 30.380878, 59.925603 ] } },
{ "type": "Feature", "properties": { "Service name": "ТСЖ Энтузиаст", "Adress": "проспект Энтузиастов, 20 к1", "Долгота": 59.946286, "Широта": 30.468777 }, "geometry": { "type": "Point", "coordinates": [ 30.468777, 59.946286 ] } },
{ "type": "Feature", "properties": { "Service name": "Альтернатива", "Adress": "проспект Наставников, 49", "Долгота": 59.958648, "Широта": 30.479738 }, "geometry": { "type": "Point", "coordinates": [ 30.479738, 59.958648 ] } },
{ "type": "Feature", "properties": { "Service name": "ТСЖ Соратник", "Adress": "проспект Наставников, 19", "Долгота": 59.944257, "Широта": 30.491976 }, "geometry": { "type": "Point", "coordinates": [ 30.491976, 59.944257 ] } },
{ "type": "Feature", "properties": { "Service name": "ТСЖ Таврическая 35", "Adress": "Таврическая, 35", "Долгота": 59.946799, "Широта": 30.37912 }, "geometry": { "type": "Point", "coordinates": [ 30.37912, 59.946799 ] } },
{ "type": "Feature", "properties": { "Service name": "ЖилСтрой-10", "Adress": "Миронова, 6", "Долгота": 59.953091, "Широта": 30.411599 }, "geometry": { "type": "Point", "coordinates": [ 30.411599, 59.953091 ] } },
{ "type": "Feature", "properties": { "Service name": "Жилкомсервис № 2 Красногвардейского Района", "Adress": "проспект Энтузиастов, 18 к3", "Долгота": 59.945961, "Широта": 30.465633 }, "geometry": { "type": "Point", "coordinates": [ 30.465633, 59.945961 ] } },
{ "type": "Feature", "properties": { "Service name": "Мида", "Adress": "Кондратьевский проспект, 68 к4 ст1", "Долгота": 59.984781, "Широта": 30.39347 }, "geometry": { "type": "Point", "coordinates": [ 30.39347, 59.984781 ] } },
{ "type": "Feature", "properties": { "Service name": "Жилкомсервис №1 Невского района", "Adress": "Ворошилова, 5 к3", "Долгота": 59.922, "Широта": 30.44398 }, "geometry": { "type": "Point", "coordinates": [ 30.44398, 59.922 ] } },
{ "type": "Feature", "properties": { "Service name": "Жилкомсервис №2 Центрального района", "Adress": "Достоевского, 5", "Долгота": 59.926571, "Широта": 30.349246 }, "geometry": { "type": "Point", "coordinates": [ 30.349246, 59.926571 ] } },
{ "type": "Feature", "properties": { "Service name": "Жилкомсервис № 2", "Adress": null, "Долгота": null, "Широта": null }, "geometry": { "type": "Point", "coordinates": [ 30.305390661851707, 59.95256320978676 ] } },
{ "type": "Feature", "properties": { "Service name": "Пороховые", "Adress": "Индустриальный проспект, 40 к1", "Долгота": 59.954453, "Широта": 30.466482 }, "geometry": { "type": "Point", "coordinates": [ 30.466482, 59.954453 ] } },
{ "type": "Feature", "properties": { "Service name": "Пороховые", "Adress": "проспект Косыгина, 17 к1", "Долгота": 59.943757, "Широта": 30.476332 }, "geometry": { "type": "Point", "coordinates": [ 30.476332, 59.943757 ] } },
{ "type": "Feature", "properties": { "Service name": "ТСЖ Коллонтай 45 к2", "Adress": "улица Коллонтай, 45 к2", "Долгота": 59.924021, "Широта": 30.49912 }, "geometry": { "type": "Point", "coordinates": [ 30.49912, 59.924021 ] } },
{ "type": "Feature", "properties": { "Service name": "ТСЖ Ударник", "Adress": "проспект Наставников, 36 к2", "Долгота": 59.952478, "Широта": 30.482039 }, "geometry": { "type": "Point", "coordinates": [ 30.482039, 59.952478 ] } },
{ "type": "Feature", "properties": { "Service name": "Северная Пальмира", "Adress": "улица Коммуны, 61", "Долгота": 59.964607, "Широта": 30.488331 }, "geometry": { "type": "Point", "coordinates": [ 30.488331, 59.964607 ] } },
{ "type": "Feature", "properties": { "Service name": "ЖКС №1 Красногвардейского района", "Adress": "Синявинская, 26", "Долгота": 59.957554, "Широта": 30.419982 }, "geometry": { "type": "Point", "coordinates": [ 30.419982, 59.957554 ] } },
{ "type": "Feature", "properties": { "Service name": "Совет МКД Гатчинская ул., д. 1/56", "Adress": null, "Долгота": null, "Широта": null }, "geometry": { "type": "Point", "coordinates": [ 30.300811287858608, 59.959817378052634 ] } },
{ "type": "Feature", "properties": { "Service name": "ТСЖ Народная-1", "Adress": "улица Народная, 1", "Долгота": 59.87768, "Широта": 30.458979 }, "geometry": { "type": "Point", "coordinates": [ 30.458979, 59.87768 ] } },
{ "type": "Feature", "properties": { "Service name": "Сервис-недвижимость", "Adress": "Бокситогорская, 33 ст1", "Долгота": 59.95805, "Широта": 30.447621 }, "geometry": { "type": "Point", "coordinates": [ 30.447621, 59.95805 ] } },
{ "type": "Feature", "properties": { "Service name": "Платинум", "Adress": "Свердловская набережная, 58 лит А", "Долгота": 59.956705, "Широта": 30.408336 }, "geometry": { "type": "Point", "coordinates": [ 30.408336, 59.956705 ] } },
{ "type": "Feature", "properties": { "Service name": "ТСЖ Яковлевский Переулок, Дом 7, Корпус 1", "Adress": "Яковлевский переулок, 7 к1", "Долгота": 59.873777, "Широта": 30.324935 }, "geometry": { "type": "Point", "coordinates": [ 30.324935, 59.873777 ] } },
{ "type": "Feature", "properties": { "Service name": "Десна проперти менеджмент", "Adress": "Владимирский проспект, 23", "Долгота": 59.92788, "Широта": 30.346023 }, "geometry": { "type": "Point", "coordinates": [ 30.346023, 59.92788 ] } },
{ "type": "Feature", "properties": { "Service name": "Евроинвест", "Adress": "Невский проспект, 98", "Долгота": 59.932194, "Широта": 30.35508 }, "geometry": { "type": "Point", "coordinates": [ 30.35508, 59.932194 ] } },
{ "type": "Feature", "properties": { "Service name": "Эко Сити", "Adress": "Лиговский проспект, 232 ст1", "Долгота": 59.905452, "Широта": 30.347864 }, "geometry": { "type": "Point", "coordinates": [ 30.347864, 59.905452 ] } },
{ "type": "Feature", "properties": { "Service name": "ЖКХ-информ", "Adress": "Малоохтинский проспект, 68", "Долгота": 59.930294, "Широта": 30.400943 }, "geometry": { "type": "Point", "coordinates": [ 30.400943, 59.930294 ] } },
{ "type": "Feature", "properties": { "Service name": "ТСЖ Чудновского 8/4", "Adress": "Чудновского, 8 к4", "Долгота": 59.926605, "Широта": 30.48008 }, "geometry": { "type": "Point", "coordinates": [ 30.48008, 59.926605 ] } },
{ "type": "Feature", "properties": { "Service name": "ТСЖ Коллонтай 2", "Adress": "улица Коллонтай, 2", "Долгота": 59.91455, "Широта": 30.4447 }, "geometry": { "type": "Point", "coordinates": [ 30.4447, 59.91455 ] } },
{ "type": "Feature", "properties": { "Service name": "Управляющая компания", "Adress": "проспект Обуховской Обороны, 70 к4 ст1", "Долгота": 59.900857, "Широта": 30.431984 }, "geometry": { "type": "Point", "coordinates": [ 30.431984, 59.900857 ] } },
{ "type": "Feature", "properties": { "Service name": "ТСЖ Московский 216", "Adress": "Московский проспект, 216", "Долгота": 59.849027, "Широта": 30.322502 }, "geometry": { "type": "Point", "coordinates": [ 30.322502, 59.849027 ] } },
{ "type": "Feature", "properties": { "Service name": "Жилкомсервис №1 Невского района", "Adress": "Октябрьская набережная, 84 к5", "Долгота": 59.872828, "Широта": 30.469163 }, "geometry": { "type": "Point", "coordinates": [ 30.469163, 59.872828 ] } },
{ "type": "Feature", "properties": { "Service name": "ТСЖ Пр. Наставников 3/1", "Adress": "проспект Наставников, 3/1", "Долгота": 59.936801, "Широта": 30.489323 }, "geometry": { "type": "Point", "coordinates": [ 30.489323, 59.936801 ] } },
{ "type": "Feature", "properties": { "Service name": "ГУП ДО Пригородное", "Adress": null, "Долгота": null, "Широта": null }, "geometry": { "type": "Point", "coordinates": [ 30.308186916370836, 59.964861056391115 ] } },
{ "type": "Feature", "properties": { "Service name": "Жилкомсервис №2 Фрунзенского района", "Adress": "улица Турку, 7", "Долгота": 59.866281, "Широта": 30.374522 }, "geometry": { "type": "Point", "coordinates": [ 30.374522, 59.866281 ] } },
{ "type": "Feature", "properties": { "Service name": "Жэк №1", "Adress": "улица Софийская, 57", "Долгота": 59.867007, "Широта": 30.410844 }, "geometry": { "type": "Point", "coordinates": [ 30.410844, 59.867007 ] } },
{ "type": "Feature", "properties": { "Service name": "Радуга", "Adress": "Малая Каштановая аллея, 9 к1", "Долгота": 59.844471, "Широта": 30.394767 }, "geometry": { "type": "Point", "coordinates": [ 30.394767, 59.844471 ] } },
{ "type": "Feature", "properties": { "Service name": "ТСЖ Альпийский 37", "Adress": "Альпийский переулок, 37 к3", "Долгота": 59.852933, "Широта": 30.38972 }, "geometry": { "type": "Point", "coordinates": [ 30.38972, 59.852933 ] } },
{ "type": "Feature", "properties": { "Service name": "Жилкомсервис №1 Московского района", "Adress": "проспект Космонавтов, 42", "Долгота": 59.852182, "Широта": 30.355396 }, "geometry": { "type": "Point", "coordinates": [ 30.355396, 59.852182 ] } },
{ "type": "Feature", "properties": { "Service name": "Содружество Регион", "Adress": "Союзный проспект, 4", "Долгота": 59.91627, "Широта": 30.440146 }, "geometry": { "type": "Point", "coordinates": [ 30.440146, 59.91627 ] } },
{ "type": "Feature", "properties": { "Service name": "Жилкомсервис №1 Московского района", "Adress": "улица Авиационная, 13", "Долгота": 59.856875, "Широта": 30.324788 }, "geometry": { "type": "Point", "coordinates": [ 30.324788, 59.856875 ] } },
{ "type": "Feature", "properties": { "Service name": "ЖСК №428", "Adress": "улица Варшавская, 122", "Долгота": 59.843647, "Широта": 30.317531 }, "geometry": { "type": "Point", "coordinates": [ 30.317531, 59.843647 ] } },
{ "type": "Feature", "properties": { "Service name": "Диспетчерская", "Adress": "Витебский проспект, 51 к1", "Долгота": 59.84936, "Широта": 30.362702 }, "geometry": { "type": "Point", "coordinates": [ 30.362702, 59.84936 ] } },
{ "type": "Feature", "properties": { "Service name": "Лст Констракшен", "Adress": "проспект Славы, 7 к2", "Долгота": 59.853364, "Широта": 30.370548 }, "geometry": { "type": "Point", "coordinates": [ 30.370548, 59.853364 ] } },
{ "type": "Feature", "properties": { "Service name": "Строитель", "Adress": "Свеаборгская, 23", "Долгота": 59.873417, "Широта": 30.332785 }, "geometry": { "type": "Point", "coordinates": [ 30.332785, 59.873417 ] } },
{ "type": "Feature", "properties": { "Service name": "ЖСК № 525", "Adress": "Будапештская, 3 к2", "Долгота": 59.871655, "Широта": 30.363578 }, "geometry": { "type": "Point", "coordinates": [ 30.363578, 59.871655 ] } },
{ "type": "Feature", "properties": { "Service name": "ТСЖ Невский Меридиан", "Adress": "проспект Юрия Гагарина, 63 к2", "Долгота": 59.843018, "Широта": 30.335913 }, "geometry": { "type": "Point", "coordinates": [ 30.335913, 59.843018 ] } },
{ "type": "Feature", "properties": { "Service name": "Ремэкспосервис", "Adress": "улица Варшавская, 120", "Долгота": 59.844198, "Широта": 30.316589 }, "geometry": { "type": "Point", "coordinates": [ 30.316589, 59.844198 ] } },
{ "type": "Feature", "properties": { "Service name": "Парковая", "Adress": "проспект Космонавтов, 23 к3 лит А", "Долгота": 59.859918, "Широта": 30.345038 }, "geometry": { "type": "Point", "coordinates": [ 30.345038, 59.859918 ] } },
{ "type": "Feature", "properties": { "Service name": "ЖСК №831", "Adress": "улица Купчинская, 25", "Долгота": 59.832319, "Широта": 30.39258 }, "geometry": { "type": "Point", "coordinates": [ 30.39258, 59.832319 ] } },
{ "type": "Feature", "properties": { "Service name": "Cosmoservice", "Adress": "Пулковская, 8 к4", "Долгота": 59.838673, "Широта": 30.354414 }, "geometry": { "type": "Point", "coordinates": [ 30.354414, 59.838673 ] } },
{ "type": "Feature", "properties": { "Service name": "ТСЖ Славбург-1", "Adress": "проспект Славы, 55", "Долгота": 59.864684, "Широта": 30.413876 }, "geometry": { "type": "Point", "coordinates": [ 30.413876, 59.864684 ] } },
{ "type": "Feature", "properties": { "Service name": "Строитель", "Adress": "улица Краснопутиловская, 4", "Долгота": 59.875368, "Широта": 30.260163 }, "geometry": { "type": "Point", "coordinates": [ 30.260163, 59.875368 ] } },
{ "type": "Feature", "properties": { "Service name": "Диспечерская", "Adress": "Дунайский проспект, 5 к5", "Долгота": 59.828994, "Широта": 30.330974 }, "geometry": { "type": "Point", "coordinates": [ 30.330974, 59.828994 ] } },
{ "type": "Feature", "properties": { "Service name": "Содружество Регион", "Adress": "Дунайский проспект, 7 к3", "Долгота": 59.828485, "Широта": 30.332578 }, "geometry": { "type": "Point", "coordinates": [ 30.332578, 59.828485 ] } },
{ "type": "Feature", "properties": { "Service name": "ЖКC №2 Кировского района", "Adress": "улица Маршала Казакова, 1 к1 лит Д", "Долгота": 59.860189, "Широта": 30.247171 }, "geometry": { "type": "Point", "coordinates": [ 30.247171, 59.860189 ] } },
{ "type": "Feature", "properties": { "Service name": "ТСЖ Автовская 15 к3", "Adress": "Автовская, 15 к3", "Долгота": 59.867036, "Широта": 30.269697 }, "geometry": { "type": "Point", "coordinates": [ 30.269697, 59.867036 ] } },
{ "type": "Feature", "properties": { "Service name": "Комфорт-Про", "Adress": "Альпийский переулок, 33 к1", "Долгота": 59.85381, "Широта": 30.38742 }, "geometry": { "type": "Point", "coordinates": [ 30.38742, 59.85381 ] } },
{ "type": "Feature", "properties": { "Service name": "Диспетчерская служба", "Adress": "проспект Космонавтов, 65 к1", "Долгота": 59.837501, "Широта": 30.357818 }, "geometry": { "type": "Point", "coordinates": [ 30.357818, 59.837501 ] } },
{ "type": "Feature", "properties": { "Service name": "Красносельский квартал", "Adress": "проспект Героев, 26 к2 лит А", "Долгота": 59.860813, "Широта": 30.165131 }, "geometry": { "type": "Point", "coordinates": [ 30.165131, 59.860813 ] } },
{ "type": "Feature", "properties": { "Service name": "Петербургский дом", "Adress": "5-я Красноармейская улица, 32", "Долгота": 59.91296, "Широта": 30.310366 }, "geometry": { "type": "Point", "coordinates": [ 30.310366, 59.91296 ] } },
{ "type": "Feature", "properties": { "Service name": "ТСЖ Московский-4", "Adress": "Московский проспект, 4а", "Долгота": 59.924349, "Широта": 30.32021 }, "geometry": { "type": "Point", "coordinates": [ 30.32021, 59.924349 ] } },
{ "type": "Feature", "properties": { "Service name": "ХЭУ Фрунзенского района", "Adress": "улица Бухарестская, 31 к1", "Долгота": 59.865604, "Широта": 30.384528 }, "geometry": { "type": "Point", "coordinates": [ 30.384528, 59.865604 ] } },
{ "type": "Feature", "properties": { "Service name": "ТСЖ Боткинская 15", "Adress": "улица Боткинская, 15 к2", "Долгота": 59.959346, "Широта": 30.350247 }, "geometry": { "type": "Point", "coordinates": [ 30.350247, 59.959346 ] } },
{ "type": "Feature", "properties": { "Service name": "Турку 25/1", "Adress": "улица Турку, 25 к1", "Долгота": 59.866659, "Широта": 30.401091 }, "geometry": { "type": "Point", "coordinates": [ 30.401091, 59.866659 ] } },
{ "type": "Feature", "properties": { "Service name": "Новое Купчино", "Adress": "Малая Бухарестская, 12 ст1", "Долгота": 59.847454, "Широта": 30.417307 }, "geometry": { "type": "Point", "coordinates": [ 30.417307, 59.847454 ] } },
{ "type": "Feature", "properties": { "Service name": "Жилкомсервис №2 Адмиралтейского района", "Adress": "Львиный переулок, 1", "Долгота": 59.927155, "Широта": 30.300433 }, "geometry": { "type": "Point", "coordinates": [ 30.300433, 59.927155 ] } },
{ "type": "Feature", "properties": { "Service name": "ТСЖ Проспект Кузнецова", "Adress": "проспект Кузнецова, 22 к1", "Долгота": 59.854645, "Широта": 30.186949 }, "geometry": { "type": "Point", "coordinates": [ 30.186949, 59.854645 ] } },
{ "type": "Feature", "properties": { "Service name": "Жилкомсервис №2", "Adress": "проспект Ветеранов, 147 лит Д", "Долгота": 59.836529, "Широта": 30.135566 }, "geometry": { "type": "Point", "coordinates": [ 30.135566, 59.836529 ] } },
{ "type": "Feature", "properties": { "Service name": "ЖКС №3 Кировского района", "Adress": "Зины Портновой, 7", "Долгота": 59.856125, "Широта": 30.255179 }, "geometry": { "type": "Point", "coordinates": [ 30.255179, 59.856125 ] } },
{ "type": "Feature", "properties": { "Service name": "ТСЖ Янтарный берег-1", "Adress": "улица Варшавская, 23 к1", "Долгота": 59.870186, "Широта": 30.313085 }, "geometry": { "type": "Point", "coordinates": [ 30.313085, 59.870186 ] } },
{ "type": "Feature", "properties": { "Service name": "Светлый мир", "Adress": "бульвар Александра Грина, 3 ст1", "Долгота": 59.936249, "Широта": 30.20086 }, "geometry": { "type": "Point", "coordinates": [ 30.20086, 59.936249 ] } },
{ "type": "Feature", "properties": { "Service name": "Юнит сервис Сервис Санкт-Петербург", "Adress": "Среднерогатская, 14 к1 ст1", "Долгота": 59.823635, "Широта": 30.338931 }, "geometry": { "type": "Point", "coordinates": [ 30.338931, 59.823635 ] } },
{ "type": "Feature", "properties": { "Service name": "Жилкомсервис №3 Московского района", "Adress": "улица Варшавская, 47 к2", "Долгота": 59.855888, "Широта": 30.31163 }, "geometry": { "type": "Point", "coordinates": [ 30.31163, 59.855888 ] } },
{ "type": "Feature", "properties": { "Service name": "Эрмитаж", "Adress": "Большая Зеленина, 8 к2 лит А", "Долгота": 59.960045, "Широта": 30.293962 }, "geometry": { "type": "Point", "coordinates": [ 30.293962, 59.960045 ] } },
{ "type": "Feature", "properties": { "Service name": "ЖКС №1 Петроградского района", "Adress": "Каменноостровский проспект, 19", "Долгота": 59.961424, "Широта": 30.31682 }, "geometry": { "type": "Point", "coordinates": [ 30.31682, 59.961424 ] } },
{ "type": "Feature", "properties": { "Service name": "ЖКC №2 Кировского района", "Adress": "проспект Маршала Жукова, 26", "Долгота": 59.859022, "Широта": 30.23337 }, "geometry": { "type": "Point", "coordinates": [ 30.23337, 59.859022 ] } },
{ "type": "Feature", "properties": { "Service name": "Жилкомсервис №2 Адмиралтейского района", "Adress": "Казначейская, 13", "Долгота": 59.926673, "Широта": 30.310815 }, "geometry": { "type": "Point", "coordinates": [ 30.310815, 59.926673 ] } },
{ "type": "Feature", "properties": { "Service name": "Инженерно-технический сервис СПб", "Adress": "1-й Предпортовый проезд, 14", "Долгота": 59.842454, "Широта": 30.306015 }, "geometry": { "type": "Point", "coordinates": [ 30.306015, 59.842454 ] } },
{ "type": "Feature", "properties": { "Service name": "ЖКC №2 Кировского района", "Adress": "Канонерский остров, 11", "Долгота": 59.899246, "Широта": 30.215961 }, "geometry": { "type": "Point", "coordinates": [ 30.215961, 59.899246 ] } },
{ "type": "Feature", "properties": { "Service name": "ТСЖ Невский проспект дом №88", "Adress": "Невский проспект, 88", "Долгота": 59.932566, "Широта": 30.351412 }, "geometry": { "type": "Point", "coordinates": [ 30.351412, 59.932566 ] } },
{ "type": "Feature", "properties": { "Service name": "Пять углов", "Adress": "Шпалерная, 44а", "Долгота": 59.949464, "Широта": 30.367037 }, "geometry": { "type": "Point", "coordinates": [ 30.367037, 59.949464 ] } },
{ "type": "Feature", "properties": { "Service name": "Жилкомсервис Адмиралтейского района", "Adress": "Клинский проспект, 17/16", "Долгота": 59.915362, "Широта": 30.322996 }, "geometry": { "type": "Point", "coordinates": [ 30.322996, 59.915362 ] } },
{ "type": "Feature", "properties": { "Service name": "Юнит сервис", "Adress": "набережная реки Смоленки, 35 к1", "Долгота": 59.948869, "Широта": 30.2523 }, "geometry": { "type": "Point", "coordinates": [ 30.2523, 59.948869 ] } },
{ "type": "Feature", "properties": { "Service name": "Жилищное агентство Петроградского района", "Adress": "Большая Монетная, 11", "Долгота": 59.961193, "Широта": 30.315608 }, "geometry": { "type": "Point", "coordinates": [ 30.315608, 59.961193 ] } },
{ "type": "Feature", "properties": { "Service name": "ТСЖ Бармалеева улица, 2", "Adress": "Бармалеева, 2", "Долгота": 59.963, "Широта": 30.308626 }, "geometry": { "type": "Point", "coordinates": [ 30.308626, 59.963 ] } },
{ "type": "Feature", "properties": { "Service name": "Мир", "Adress": "Средний проспект В.О., 28", "Долгота": 59.943399, "Широта": 30.279827 }, "geometry": { "type": "Point", "coordinates": [ 30.279827, 59.943399 ] } },
{ "type": "Feature", "properties": { "Service name": "ТСЖ Чкаловский", "Adress": "Большая Зеленина, 8 к2 лит А", "Долгота": 59.960077, "Широта": 30.29216 }, "geometry": { "type": "Point", "coordinates": [ 30.29216, 59.960077 ] } },
{ "type": "Feature", "properties": { "Service name": "ТСЖ Дома архитектора Старова И.Е.", "Adress": "Белинского, 9", "Долгота": 59.938145, "Широта": 30.346603 }, "geometry": { "type": "Point", "coordinates": [ 30.346603, 59.938145 ] } },
{ "type": "Feature", "properties": { "Service name": "Веста", "Adress": "улица Пионерская, 32", "Долгота": 59.960315, "Широта": 30.282286 }, "geometry": { "type": "Point", "coordinates": [ 30.282286, 59.960315 ] } },
{ "type": "Feature", "properties": { "Service name": "ТСЖ На Саперном 19", "Adress": "Сапёрный переулок, 19", "Долгота": 59.940844, "Широта": 30.361739 }, "geometry": { "type": "Point", "coordinates": [ 30.361739, 59.940844 ] } },
{ "type": "Feature", "properties": { "Service name": "ТСЖ Новолитовская 4", "Adress": "улица Новолитовская, 4", "Долгота": 59.980384, "Широта": 30.350243 }, "geometry": { "type": "Point", "coordinates": [ 30.350243, 59.980384 ] } },
{ "type": "Feature", "properties": { "Service name": "ТСЖ Гранвиль", "Adress": "набережная Лейтенанта Шмидта, 21", "Долгота": 59.934206, "Широта": 30.277323 }, "geometry": { "type": "Point", "coordinates": [ 30.277323, 59.934206 ] } },
{ "type": "Feature", "properties": { "Service name": "Новая земля", "Adress": "Богатырский проспект, 27 к3", "Долгота": 60.003203, "Широта": 30.250926 }, "geometry": { "type": "Point", "coordinates": [ 30.250926, 60.003203 ] } },
{ "type": "Feature", "properties": { "Service name": "ТСЖ Нежинская, 4", "Adress": "Нежинская, 4", "Долгота": 60.007732, "Широта": 30.323173 }, "geometry": { "type": "Point", "coordinates": [ 30.323173, 60.007732 ] } },
{ "type": "Feature", "properties": { "Service name": "Ракета", "Adress": "Кондратьевский проспект, 62 к3", "Долгота": 59.980194, "Широта": 30.392628 }, "geometry": { "type": "Point", "coordinates": [ 30.392628, 59.980194 ] } },
{ "type": "Feature", "properties": { "Service name": "ТСЖ Парашютная 31/2", "Adress": "улица Парашютная, 31 к2", "Долгота": 60.020521, "Широта": 30.26788 }, "geometry": { "type": "Point", "coordinates": [ 30.26788, 60.020521 ] } },
{ "type": "Feature", "properties": { "Service name": "ТСЖ Бадаева", "Adress": "Восстания, 19", "Долгота": 59.935138, "Широта": 30.360771 }, "geometry": { "type": "Point", "coordinates": [ 30.360771, 59.935138 ] } },
{ "type": "Feature", "properties": { "Service name": "Служба эксплуатации", "Adress": "Беринга, 27 к4", "Долгота": 59.946126, "Широта": 30.237736 }, "geometry": { "type": "Point", "coordinates": [ 30.237736, 59.946126 ] } },
{ "type": "Feature", "properties": { "Service name": "ТСЖ Серебряные Пруды", "Adress": "Институтский проспект, 19", "Долгота": 60.002738, "Широта": 30.349817 }, "geometry": { "type": "Point", "coordinates": [ 30.349817, 60.002738 ] } },
{ "type": "Feature", "properties": { "Service name": "ТСЖ Костромской 3", "Adress": "Костромской проспект, 3", "Долгота": 60.011521, "Широта": 30.319705 }, "geometry": { "type": "Point", "coordinates": [ 30.319705, 60.011521 ] } },
{ "type": "Feature", "properties": { "Service name": "ТСЖ Серебристый 38", "Adress": "Серебристый бульвар, 38", "Долгота": 60.015093, "Широта": 30.285676 }, "geometry": { "type": "Point", "coordinates": [ 30.285676, 60.015093 ] } },
{ "type": "Feature", "properties": { "Service name": "ЖСК №1017", "Adress": "Асафьева, 12 к1", "Долгота": 60.048379, "Широта": 30.328586 }, "geometry": { "type": "Point", "coordinates": [ 30.328586, 60.048379 ] } },
{ "type": "Feature", "properties": { "Service name": "Интехстрой", "Adress": "улица Вербная, 4", "Долгота": 60.024425, "Широта": 30.276245 }, "geometry": { "type": "Point", "coordinates": [ 30.276245, 60.024425 ] } },
{ "type": "Feature", "properties": { "Service name": "ТСЖ Выборгское шоссе. Пятый пусковой", "Adress": "Выборгское шоссе, 5 к1", "Долгота": 60.039313, "Широта": 30.32037 }, "geometry": { "type": "Point", "coordinates": [ 30.32037, 60.039313 ] } },
{ "type": "Feature", "properties": { "Service name": "ТСЖ Виват", "Adress": "Богатырский проспект, 47 к2", "Долгота": 60.005541, "Широта": 30.226883 }, "geometry": { "type": "Point", "coordinates": [ 30.226883, 60.005541 ] } },
{ "type": "Feature", "properties": { "Service name": "ТСЖ Невская волна", "Adress": "Туристская улица, 38", "Долгота": 60.00944, "Широта": 30.212832 }, "geometry": { "type": "Point", "coordinates": [ 30.212832, 60.00944 ] } },
{ "type": "Feature", "properties": { "Service name": "ТСЖ Курчатово", "Adress": "Курчатова, 6 к4", "Долгота": 60.008749, "Широта": 30.357934 }, "geometry": { "type": "Point", "coordinates": [ 30.357934, 60.008749 ] } },
{ "type": "Feature", "properties": { "Service name": "Ресурсосбережение", "Adress": "Дибуновская, 22", "Долгота": 59.985345, "Широта": 30.276445 }, "geometry": { "type": "Point", "coordinates": [ 30.276445, 59.985345 ] } },
{ "type": "Feature", "properties": { "Service name": "ТСЖ Фортис", "Adress": "Земледельческая, 5 к2", "Долгота": 59.991276, "Широта": 30.323996 }, "geometry": { "type": "Point", "coordinates": [ 30.323996, 59.991276 ] } },
{ "type": "Feature", "properties": { "Service name": "Тетраэдр", "Adress": "улица Заречная, 13 к1", "Долгота": 60.070738, "Широта": 30.310184 }, "geometry": { "type": "Point", "coordinates": [ 30.310184, 60.070738 ] } },
{ "type": "Feature", "properties": { "Service name": "ЖКС №1 Выборгского района", "Adress": "Большой Сампсониевский проспект, 70", "Долгота": 59.980815, "Широта": 30.334873 }, "geometry": { "type": "Point", "coordinates": [ 30.334873, 59.980815 ] } },
{ "type": "Feature", "properties": { "Service name": "Друза", "Adress": "Коломяжский проспект, 28 к3", "Долгота": 60.009047, "Широта": 30.294178 }, "geometry": { "type": "Point", "coordinates": [ 30.294178, 60.009047 ] } },
{ "type": "Feature", "properties": { "Service name": "Первая Эксплуатирующая Компания", "Adress": "проспект Луначарского, 13 к1", "Долгота": 60.041876, "Широта": 30.331799 }, "geometry": { "type": "Point", "coordinates": [ 30.331799, 60.041876 ] } },
{ "type": "Feature", "properties": { "Service name": "Виктория", "Adress": "проспект Испытателей, 8 к1", "Долгота": 60.003651, "Широта": 30.289617 }, "geometry": { "type": "Point", "coordinates": [ 30.289617, 60.003651 ] } },
{ "type": "Feature", "properties": { "Service name": "Наш дом-сити", "Adress": "Фермское шоссе, 22 к3", "Долгота": 60.015045, "Широта": 30.30981 }, "geometry": { "type": "Point", "coordinates": [ 30.30981, 60.015045 ] } },
{ "type": "Feature", "properties": { "Service name": "ТСЖ Коломяжская слобода", "Adress": "1-й половины 3-я линия, 53", "Долгота": 60.017658, "Широта": 30.295754 }, "geometry": { "type": "Point", "coordinates": [ 30.295754, 60.017658 ] } },
{ "type": "Feature", "properties": { "Service name": "ДомСПб", "Adress": "Актёрский проезд, 6", "Долгота": 60.043789, "Широта": 30.370384 }, "geometry": { "type": "Point", "coordinates": [ 30.370384, 60.043789 ] } },
{ "type": "Feature", "properties": { "Service name": "Ремонтно-строительная компания-5", "Adress": "проспект Художников, 5 к1", "Долгота": 60.034359, "Широта": 30.344709 }, "geometry": { "type": "Point", "coordinates": [ 30.344709, 60.034359 ] } },
{ "type": "Feature", "properties": { "Service name": "ТСЖ Улица Шамшева, дом 14", "Adress": "Шамшева, 14", "Долгота": 59.960983, "Широта": 30.298512 }, "geometry": { "type": "Point", "coordinates": [ 30.298512, 59.960983 ] } },
{ "type": "Feature", "properties": { "Service name": "№42", "Adress": "Приморский проспект, 167 к1", "Долгота": 59.987866, "Широта": 30.191904 }, "geometry": { "type": "Point", "coordinates": [ 30.191904, 59.987866 ] } },
{ "type": "Feature", "properties": { "Service name": "ТСЖ Северная жемчужина", "Adress": "Асафьева, 5 к1", "Долгота": 60.04764, "Широта": 30.323171 }, "geometry": { "type": "Point", "coordinates": [ 30.323171, 60.04764 ] } },
{ "type": "Feature", "properties": { "Service name": "ТСЖ Юнтолово I", "Adress": "проспект Авиаконструкторов, 49", "Долгота": 60.027516, "Широта": 30.224527 }, "geometry": { "type": "Point", "coordinates": [ 30.224527, 60.027516 ] } },
{ "type": "Feature", "properties": { "Service name": "Диспетчерская", "Adress": "проспект Королёва, 2", "Долгота": 60.008576, "Широта": 30.29343 }, "geometry": { "type": "Point", "coordinates": [ 30.29343, 60.008576 ] } },
{ "type": "Feature", "properties": { "Service name": "ТСЖ Камышовая 48 к1", "Adress": "улица Камышовая, 48 к1", "Долгота": 60.010327, "Широта": 30.20944 }, "geometry": { "type": "Point", "coordinates": [ 30.20944, 60.010327 ] } },
{ "type": "Feature", "properties": { "Service name": "ТСЖ Озерки-3", "Adress": "проспект Энгельса, 132 к2", "Долгота": 60.046846, "Широта": 30.327686 }, "geometry": { "type": "Point", "coordinates": [ 30.327686, 60.046846 ] } },
{ "type": "Feature", "properties": { "Service name": "Жилкомсервис № 1", "Adress": null, "Долгота": null, "Широта": null }, "geometry": { "type": "Point", "coordinates": [ 30.314686099081793, 59.960960048284704 ] } },
{ "type": "Feature", "properties": { "Service name": "Жилкомсервис № 1", "Adress": null, "Долгота": null, "Широта": null }, "geometry": { "type": "Point", "coordinates": [ 30.31990432254473, 59.958451530986792 ] } },
{ "type": "Feature", "properties": { "Service name": "Балтийский дом", "Adress": "проспект Испытателей, 8 к1", "Долгота": 60.003566, "Широта": 30.289828 }, "geometry": { "type": "Point", "coordinates": [ 30.289828, 60.003566 ] } },
{ "type": "Feature", "properties": { "Service name": "Гранд Капитал", "Adress": "Матроса Железняка, 45", "Долгота": 59.999449, "Широта": 30.315274 }, "geometry": { "type": "Point", "coordinates": [ 30.315274, 59.999449 ] } },
{ "type": "Feature", "properties": { "Service name": "Кипроко", "Adress": null, "Долгота": null, "Широта": null }, "geometry": { "type": "Point", "coordinates": [ 30.284266687886934, 59.962028307767341 ] } },
{ "type": "Feature", "properties": { "Service name": "ТСЖ Кима-4", "Adress": "проспект КИМа, 4", "Долгота": 59.948052, "Широта": 30.238576 }, "geometry": { "type": "Point", "coordinates": [ 30.238576, 59.948052 ] } },
{ "type": "Feature", "properties": { "Service name": "Строительная корпорация Возрождение Санкт-Петербурга", "Adress": "Муринская дорога, 64", "Долгота": 60.030768, "Широта": 30.459282 }, "geometry": { "type": "Point", "coordinates": [ 30.459282, 60.030768 ] } },
{ "type": "Feature", "properties": { "Service name": "ТСЖ Гражданский 114/6", "Adress": "Гражданский проспект, 114 к6", "Долгота": 60.033982, "Широта": 30.414831 }, "geometry": { "type": "Point", "coordinates": [ 30.414831, 60.033982 ] } },
{ "type": "Feature", "properties": { "Service name": "ТСЖ Приморец", "Adress": "проспект Испытателей, 31 к1", "Долгота": 60.007706, "Широта": 30.269035 }, "geometry": { "type": "Point", "coordinates": [ 30.269035, 60.007706 ] } },
{ "type": "Feature", "properties": { "Service name": "Эксплуатационный участок", "Adress": null, "Долгота": null, "Широта": null }, "geometry": { "type": "Point", "coordinates": [ 30.273818276845507, 59.986127337383415 ] } },
{ "type": "Feature", "properties": { "Service name": "Красногвардейская", "Adress": "Северный проспект, 5 к3", "Долгота": 60.030094, "Широта": 30.333955 }, "geometry": { "type": "Point", "coordinates": [ 30.333955, 60.030094 ] } },
{ "type": "Feature", "properties": { "Service name": "ТСЖ Невский-109", "Adress": "Невский проспект, 109", "Долгота": 59.928997, "Широта": 30.369888 }, "geometry": { "type": "Point", "coordinates": [ 30.369888, 59.928997 ] } },
{ "type": "Feature", "properties": { "Service name": "Альтернатива", "Adress": "проспект Просвещения, 21", "Долгота": 60.051966, "Широта": 30.335546 }, "geometry": { "type": "Point", "coordinates": [ 30.335546, 60.051966 ] } },
{ "type": "Feature", "properties": { "Service name": "Сп-Сервис", "Adress": "улица Парашютная, 44 к2 ст1", "Долгота": 60.029627, "Широта": 30.249368 }, "geometry": { "type": "Point", "coordinates": [ 30.249368, 60.029627 ] } },
{ "type": "Feature", "properties": { "Service name": "ЖКС №1 Выборгского района", "Adress": "проспект Просвещения, 41", "Долгота": 60.047339, "Широта": 30.358926 }, "geometry": { "type": "Point", "coordinates": [ 30.358926, 60.047339 ] } },
{ "type": "Feature", "properties": { "Service name": "Жилкомсервис №2 Петроградского района", "Adress": "Большая Монетная, 11", "Долгота": 59.961193, "Широта": 30.315608 }, "geometry": { "type": "Point", "coordinates": [ 30.315608, 59.961193 ] } },
{ "type": "Feature", "properties": { "Service name": "ТСЖ Композиторов, 4", "Adress": "Композиторов, 4", "Долгота": 60.04631, "Широта": 30.316998 }, "geometry": { "type": "Point", "coordinates": [ 30.316998, 60.04631 ] } },
{ "type": "Feature", "properties": { "Service name": "Легенда Комфорт", "Adress": null, "Долгота": null, "Широта": null }, "geometry": { "type": "Point", "coordinates": [ 30.21587366594882, 59.999571123667614 ] } },
{ "type": "Feature", "properties": { "Service name": "Живой ручей", "Adress": "улица Ушинского, 2 к1", "Долгота": 60.029437, "Широта": 30.402836 }, "geometry": { "type": "Point", "coordinates": [ 30.402836, 60.029437 ] } },
{ "type": "Feature", "properties": { "Service name": "Неваспецсервис", "Adress": "Лесной проспект, 67 к1", "Долгота": 59.986742, "Широта": 30.341819 }, "geometry": { "type": "Point", "coordinates": [ 30.341819, 59.986742 ] } },
{ "type": "Feature", "properties": { "Service name": "ТСЖ Пр. Науки Дом 79 Корпус 3", "Adress": "проспект Науки, 79 к3", "Долгота": 60.002158, "Широта": 30.432558 }, "geometry": { "type": "Point", "coordinates": [ 30.432558, 60.002158 ] } },
{ "type": "Feature", "properties": { "Service name": "Пик-комфорт", "Adress": "улица Кантемировская, 11 лит А стр", "Долгота": 59.981954, "Широта": 30.338732 }, "geometry": { "type": "Point", "coordinates": [ 30.338732, 59.981954 ] } },
{ "type": "Feature", "properties": { "Service name": "Водоканал Санкт-Петербурга", "Adress": "улица Бутлерова, 4 лит В", "Долгота": 59.996917, "Широта": 30.388894 }, "geometry": { "type": "Point", "coordinates": [ 30.388894, 59.996917 ] } },
{ "type": "Feature", "properties": { "Service name": "ТСЖ Практика", "Adress": "улица Веденеева, 8 к1", "Долгота": 60.020464, "Широта": 30.373987 }, "geometry": { "type": "Point", "coordinates": [ 30.373987, 60.020464 ] } },
{ "type": "Feature", "properties": { "Service name": "ТСЖ Б.Московская 1-3", "Adress": "Большая Московская, 1-3", "Долгота": 59.926948, "Широта": 30.346502 }, "geometry": { "type": "Point", "coordinates": [ 30.346502, 59.926948 ] } },
{ "type": "Feature", "properties": { "Service name": "Жилкомсервис №2 Выборгского района", "Adress": "проспект Луначарского, 60 к2", "Долгота": 60.042394, "Широта": 30.340917 }, "geometry": { "type": "Point", "coordinates": [ 30.340917, 60.042394 ] } },
{ "type": "Feature", "properties": { "Service name": "Эквида сервис", "Adress": "Учебный переулок, 10 к4", "Долгота": 60.039654, "Широта": 30.340953 }, "geometry": { "type": "Point", "coordinates": [ 30.340953, 60.039654 ] } },
{ "type": "Feature", "properties": { "Service name": "ТСЖ Шуваловский 84/1", "Adress": "Шуваловский проспект, 84 к1", "Долгота": 59.998603, "Широта": 30.194688 }, "geometry": { "type": "Point", "coordinates": [ 30.194688, 59.998603 ] } },
{ "type": "Feature", "properties": { "Service name": "ТСЖ Шуваловская башня", "Adress": "проспект Просвещения, 34", "Долгота": 60.054215, "Широта": 30.334513 }, "geometry": { "type": "Point", "coordinates": [ 30.334513, 60.054215 ] } },
{ "type": "Feature", "properties": { "Service name": "Сервис-Недвижимость", "Adress": "Шуваловский проспект, 41 к1", "Долгота": 60.030097, "Широта": 30.241445 }, "geometry": { "type": "Point", "coordinates": [ 30.241445, 60.030097 ] } },
{ "type": "Feature", "properties": { "Service name": "ТСЖ Ленинский 84", "Adress": "Ленинский проспект, 84 к2", "Долгота": 59.859249, "Широта": 30.199623 }, "geometry": { "type": "Point", "coordinates": [ 30.199623, 59.859249 ] } },
{ "type": "Feature", "properties": { "Service name": "ТСН Коломяги Парк", "Adress": "Малая Десятинная, 11 лит А", "Долгота": 60.033032, "Широта": 30.295087 }, "geometry": { "type": "Point", "coordinates": [ 30.295087, 60.033032 ] } },
{ "type": "Feature", "properties": { "Service name": "Нарвская", "Adress": "Морская набережная, 9", "Долгота": 59.938278, "Широта": 30.217959 }, "geometry": { "type": "Point", "coordinates": [ 30.217959, 59.938278 ] } },
{ "type": "Feature", "properties": { "Service name": "ТСЖ Новикова 7", "Adress": "Маршала Новикова, 7", "Долгота": 60.011536, "Широта": 30.269463 }, "geometry": { "type": "Point", "coordinates": [ 30.269463, 60.011536 ] } },
{ "type": "Feature", "properties": { "Service name": "Новгородская", "Adress": "Комендантский проспект, 60 к1", "Долгота": 60.035434, "Широта": 30.224122 }, "geometry": { "type": "Point", "coordinates": [ 30.224122, 60.035434 ] } },
{ "type": "Feature", "properties": { "Service name": "ТСЖ Сердобольская 7-2", "Adress": "улица Сердобольская, 7 к2", "Долгота": 59.993237, "Широта": 30.322613 }, "geometry": { "type": "Point", "coordinates": [ 30.322613, 59.993237 ] } },
{ "type": "Feature", "properties": { "Service name": "Ирбис", "Adress": "Фермское шоссе, 20 к1", "Долгота": 60.014437, "Широта": 30.312056 }, "geometry": { "type": "Point", "coordinates": [ 30.312056, 60.014437 ] } },
{ "type": "Feature", "properties": { "Service name": "Жилищное агентство Выборгского района", "Adress": "Гданьская, 19 к2", "Долгота": 60.015602, "Широта": 30.332677 }, "geometry": { "type": "Point", "coordinates": [ 30.332677, 60.015602 ] } },
{ "type": "Feature", "properties": { "Service name": "ЖКС №1 Адмиралтейского района", "Adress": "Лабутина, 24", "Долгота": 59.917367, "Широта": 30.29032 }, "geometry": { "type": "Point", "coordinates": [ 30.29032, 59.917367 ] } },
{ "type": "Feature", "properties": { "Service name": "ТСЖ Север 75", "Adress": "Северный проспект, 75 к1", "Долгота": 60.020164, "Широта": 30.411468 }, "geometry": { "type": "Point", "coordinates": [ 30.411468, 60.020164 ] } },
{ "type": "Feature", "properties": { "Service name": "Диспетчерская", "Adress": "Гражданский проспект, 106 к4", "Долгота": 60.030077, "Широта": 30.409263 }, "geometry": { "type": "Point", "coordinates": [ 30.409263, 60.030077 ] } },
{ "type": "Feature", "properties": { "Service name": "Кот", "Adress": "Арцеуловская аллея, 23 к1", "Долгота": 60.041993, "Широта": 30.223507 }, "geometry": { "type": "Point", "coordinates": [ 30.223507, 60.041993 ] } },
{ "type": "Feature", "properties": { "Service name": "Пик-комфорт", "Adress": "Орлово-Денисовский проспект, 19 к4 ст1", "Долгота": 60.055852, "Широта": 30.270846 }, "geometry": { "type": "Point", "coordinates": [ 30.270846, 60.055852 ] } },
{ "type": "Feature", "properties": { "Service name": "ТСЖ Сиреневый 2", "Adress": "Сиреневый бульвар, 2 к1", "Долгота": 60.055528, "Широта": 30.345934 }, "geometry": { "type": "Point", "coordinates": [ 30.345934, 60.055528 ] } },
{ "type": "Feature", "properties": { "Service name": "Экосити", "Adress": "Гражданский проспект, 107 к4", "Долгота": 60.028396, "Широта": 30.415525 }, "geometry": { "type": "Point", "coordinates": [ 30.415525, 60.028396 ] } },
{ "type": "Feature", "properties": { "Service name": "Строительная корпорация Возрождение Санкт-Петербурга", "Adress": "проспект Маршака, 20 ст1", "Долгота": 60.028554, "Широта": 30.452639 }, "geometry": { "type": "Point", "coordinates": [ 30.452639, 60.028554 ] } },
{ "type": "Feature", "properties": { "Service name": "ТСЖ Гринландия", "Adress": "Тимуровская, 23 к2", "Долгота": 60.041656, "Широта": 30.411689 }, "geometry": { "type": "Point", "coordinates": [ 30.411689, 60.041656 ] } },
{ "type": "Feature", "properties": { "Service name": "Пионер-сервис", "Adress": "Выборгское шоссе, 17 к3", "Долгота": 60.054325, "Широта": 30.311529 }, "geometry": { "type": "Point", "coordinates": [ 30.311529, 60.054325 ] } },
{ "type": "Feature", "properties": { "Service name": "Комфорт Сервис", "Adress": "проспект Медиков, 10 к1", "Долгота": 59.973558, "Широта": 30.315426 }, "geometry": { "type": "Point", "coordinates": [ 30.315426, 59.973558 ] } },
{ "type": "Feature", "properties": { "Service name": "ТСЖ", "Adress": null, "Долгота": null, "Широта": null }, "geometry": { "type": "Point", "coordinates": [ 30.212231159391209, 59.999991200568779 ] } },
{ "type": "Feature", "properties": { "Service name": "ТСЖ Яхтенная 22-2", "Adress": "Яхтенная, 22 к2 лит А", "Долгота": 59.99753, "Широта": 30.216303 }, "geometry": { "type": "Point", "coordinates": [ 30.216303, 59.99753 ] } },
{ "type": "Feature", "properties": { "Service name": "ТСЖ Приморский Бастион", "Adress": "проспект Сизова, 12 к2", "Долгота": 60.004936, "Широта": 30.269684 }, "geometry": { "type": "Point", "coordinates": [ 30.269684, 60.004936 ] } },
{ "type": "Feature", "properties": { "Service name": "Нева-Сервис", "Adress": "Туристская улица, 15 к1", "Долгота": 59.998845, "Широта": 30.209495 }, "geometry": { "type": "Point", "coordinates": [ 30.209495, 59.998845 ] } },
{ "type": "Feature", "properties": { "Service name": "Соотечественник", "Adress": "Лиственная, 18 к1", "Долгота": 60.028038, "Широта": 30.334402 }, "geometry": { "type": "Point", "coordinates": [ 30.334402, 60.028038 ] } },
{ "type": "Feature", "properties": { "Service name": "РСУ-Север Приморского района", "Adress": "улица Оптиков, 52 к2 лит Д", "Долгота": 59.999347, "Широта": 30.201043 }, "geometry": { "type": "Point", "coordinates": [ 30.201043, 59.999347 ] } },
{ "type": "Feature", "properties": { "Service name": "Золотая гавань", "Adress": "Яхтенная, 3 к2", "Долгота": 59.985176, "Широта": 30.217657 }, "geometry": { "type": "Point", "coordinates": [ 30.217657, 59.985176 ] } },
{ "type": "Feature", "properties": { "Service name": "ТСЖ Ярославский, 27", "Adress": "Ярославский проспект, 27", "Долгота": 60.013311, "Широта": 30.322029 }, "geometry": { "type": "Point", "coordinates": [ 30.322029, 60.013311 ] } },
{ "type": "Feature", "properties": { "Service name": "ТСЖ Веста-IV", "Adress": "улица Гаккелевская, 20 к1", "Долгота": 60.000078, "Широта": 30.253544 }, "geometry": { "type": "Point", "coordinates": [ 30.253544, 60.000078 ] } },
{ "type": "Feature", "properties": { "Service name": "ТСН Лыжный-7", "Adress": "Лыжный переулок, 7", "Долгота": 59.998699, "Широта": 30.201901 }, "geometry": { "type": "Point", "coordinates": [ 30.201901, 59.998699 ] } },
{ "type": "Feature", "properties": { "Service name": "ТСЖ Ильюшина 15-2", "Adress": "улица Ильюшина, 15 к2", "Долгота": 60.010836, "Широта": 30.23863 }, "geometry": { "type": "Point", "coordinates": [ 30.23863, 60.010836 ] } },
{ "type": "Feature", "properties": { "Service name": "ТСЖ Марата,47-49", "Adress": "улица Марата, 47-49", "Долгота": 59.924539, "Широта": 30.349924 }, "geometry": { "type": "Point", "coordinates": [ 30.349924, 59.924539 ] } },
{ "type": "Feature", "properties": { "Service name": "ТСЖ Пискаревский 37-2", "Adress": "Пискарёвский проспект, 37 к2", "Долгота": 59.977442, "Широта": 30.423269 }, "geometry": { "type": "Point", "coordinates": [ 30.423269, 59.977442 ] } },
{ "type": "Feature", "properties": { "Service name": "ЖКС №3 Калининского района", "Adress": "Кондратьевский проспект, 40 к12", "Долгота": 59.970606, "Широта": 30.382204 }, "geometry": { "type": "Point", "coordinates": [ 30.382204, 59.970606 ] } },
{ "type": "Feature", "properties": { "Service name": "Золотая гавань", "Adress": "Яхтенная, 1 к1", "Долгота": 59.984381, "Широта": 30.215566 }, "geometry": { "type": "Point", "coordinates": [ 30.215566, 59.984381 ] } },
{ "type": "Feature", "properties": { "Service name": "ТСЖ Парашютная 35", "Adress": "улица Парашютная, 31 к2", "Долгота": 60.020521, "Широта": 30.26788 }, "geometry": { "type": "Point", "coordinates": [ 30.26788, 60.020521 ] } },
{ "type": "Feature", "properties": { "Service name": "ТСЖ Феникс", "Adress": "Моховая, 27-29", "Долгота": 59.94151, "Широта": 30.344096 }, "geometry": { "type": "Point", "coordinates": [ 30.344096, 59.94151 ] } },
{ "type": "Feature", "properties": { "Service name": "ТСЖ Выборгское шоссе 27/3", "Adress": "Выборгское шоссе, 27 к3", "Долгота": 60.061333, "Широта": 30.307523 }, "geometry": { "type": "Point", "coordinates": [ 30.307523, 60.061333 ] } },
{ "type": "Feature", "properties": { "Service name": "ЖКС №1", "Adress": "проспект Культуры, 11 к1", "Долгота": 60.039103, "Широта": 30.371112 }, "geometry": { "type": "Point", "coordinates": [ 30.371112, 60.039103 ] } },
{ "type": "Feature", "properties": { "Service name": "ТСЖ Марата 78-Е", "Adress": "улица Марата, 78 лит Е", "Долгота": 59.919823, "Широта": 30.342313 }, "geometry": { "type": "Point", "coordinates": [ 30.342313, 59.919823 ] } },
{ "type": "Feature", "properties": { "Service name": "Комфорт Сервис", "Adress": "Лидии Зверевой, 3 к1 ст1", "Долгота": 60.038872, "Широта": 30.25189 }, "geometry": { "type": "Point", "coordinates": [ 30.25189, 60.038872 ] } },
{ "type": "Feature", "properties": { "Service name": "Жилкомсервис Адмиралтейского района", "Adress": "Клинский проспект, 26", "Долгота": 59.913898, "Широта": 30.321202 }, "geometry": { "type": "Point", "coordinates": [ 30.321202, 59.913898 ] } },
{ "type": "Feature", "properties": { "Service name": "ТСЖ Северный 24", "Adress": "Северный проспект, 24 к3", "Долгота": 60.033308, "Широта": 30.351399 }, "geometry": { "type": "Point", "coordinates": [ 30.351399, 60.033308 ] } },
{ "type": "Feature", "properties": { "Service name": "Острова", "Adress": "Севастопольская, 9", "Долгота": 59.895685, "Широта": 30.264115 }, "geometry": { "type": "Point", "coordinates": [ 30.264115, 59.895685 ] } },
{ "type": "Feature", "properties": { "Service name": "Profman", "Adress": "улица Варшавская, 6 к2", "Долгота": 59.879899, "Широта": 30.316381 }, "geometry": { "type": "Point", "coordinates": [ 30.316381, 59.879899 ] } },
{ "type": "Feature", "properties": { "Service name": "Cosmoservice", "Adress": "проспект Энергетиков, 9 к1", "Долгота": 59.937647, "Широта": 30.436394 }, "geometry": { "type": "Point", "coordinates": [ 30.436394, 59.937647 ] } },
{ "type": "Feature", "properties": { "Service name": "ТСЖ Кораблестроителей 16/3", "Adress": "улица Кораблестроителей, 16 к3", "Долгота": 59.942125, "Широта": 30.211963 }, "geometry": { "type": "Point", "coordinates": [ 30.211963, 59.942125 ] } },
{ "type": "Feature", "properties": { "Service name": "ЖКС №1 Василеостровского района", "Adress": "улица Нахимова, 8 к2", "Долгота": 59.942981, "Широта": 30.235304 }, "geometry": { "type": "Point", "coordinates": [ 30.235304, 59.942981 ] } },
{ "type": "Feature", "properties": { "Service name": "Горизонт", "Adress": "улица Двинская, 6", "Долгота": 59.908782, "Широта": 30.253027 }, "geometry": { "type": "Point", "coordinates": [ 30.253027, 59.908782 ] } },
{ "type": "Feature", "properties": { "Service name": "Жилкомсервис №2 Невского района", "Adress": "улица Шелгунова, 16", "Долгота": 59.865165, "Широта": 30.4519 }, "geometry": { "type": "Point", "coordinates": [ 30.4519, 59.865165 ] } },
{ "type": "Feature", "properties": { "Service name": "ТСЖ Рождественский", "Adress": "8-я Советская улица, 37-39", "Долгота": 59.935262, "Широта": 30.377491 }, "geometry": { "type": "Point", "coordinates": [ 30.377491, 59.935262 ] } },
{ "type": "Feature", "properties": { "Service name": "Делюкс сервис", "Adress": "улица Спортивная, 2 ст1", "Долгота": 59.965901, "Широта": 30.270943 }, "geometry": { "type": "Point", "coordinates": [ 30.270943, 59.965901 ] } },
{ "type": "Feature", "properties": { "Service name": "ТСЖ Софийская Звезда", "Adress": "улица Софийская, 37 к2", "Долгота": 59.873621, "Широта": 30.399864 }, "geometry": { "type": "Point", "coordinates": [ 30.399864, 59.873621 ] } },
{ "type": "Feature", "properties": { "Service name": "ТСЖ Каменный остров", "Adress": "аллея Берёзовая 2-я, 13/15", "Долгота": 59.980865, "Широта": 30.289683 }, "geometry": { "type": "Point", "coordinates": [ 30.289683, 59.980865 ] } },
{ "type": "Feature", "properties": { "Service name": "ТСЖ Петровское", "Adress": "Малый проспект П.С., 19", "Долгота": 59.95668, "Широта": 30.294529 }, "geometry": { "type": "Point", "coordinates": [ 30.294529, 59.95668 ] } },
{ "type": "Feature", "properties": { "Service name": "ТСЖ Перспектива", "Adress": "улица Стародеревенская, 6 к1", "Долгота": 59.98711, "Широта": 30.241332 }, "geometry": { "type": "Point", "coordinates": [ 30.241332, 59.98711 ] } },
{ "type": "Feature", "properties": { "Service name": "Норма", "Adress": "улица Ждановская, 29", "Долгота": 59.958964, "Широта": 30.279301 }, "geometry": { "type": "Point", "coordinates": [ 30.279301, 59.958964 ] } },
{ "type": "Feature", "properties": { "Service name": "Тучков мост", "Adress": "набережная Макарова, 18", "Долгота": 59.946321, "Широта": 30.28758 }, "geometry": { "type": "Point", "coordinates": [ 30.28758, 59.946321 ] } },
{ "type": "Feature", "properties": { "Service name": "Возрождение", "Adress": "улица Железноводская, 32", "Долгота": 59.951739, "Широта": 30.249585 }, "geometry": { "type": "Point", "coordinates": [ 30.249585, 59.951739 ] } },
{ "type": "Feature", "properties": { "Service name": "Возрождение", "Adress": "5-я линия В.О., 10", "Долгота": 59.938852, "Широта": 30.28668 }, "geometry": { "type": "Point", "coordinates": [ 30.28668, 59.938852 ] } },
{ "type": "Feature", "properties": { "Service name": "Инвестстрой", "Adress": "улица Савушкина, 109 к1", "Долгота": 59.985761, "Широта": 30.239351 }, "geometry": { "type": "Point", "coordinates": [ 30.239351, 59.985761 ] } },
{ "type": "Feature", "properties": { "Service name": "ТСЖ Одоевское", "Adress": "улица Одоевского, 28", "Долгота": 59.947424, "Широта": 30.241721 }, "geometry": { "type": "Point", "coordinates": [ 30.241721, 59.947424 ] } },
{ "type": "Feature", "properties": { "Service name": "Наш Дом", "Adress": "улица Ждановская, 27", "Долгота": 59.958543, "Широта": 30.279515 }, "geometry": { "type": "Point", "coordinates": [ 30.279515, 59.958543 ] } },
{ "type": "Feature", "properties": { "Service name": "ТСЖ Алмаз", "Adress": "Академика Павлова, 16Б", "Долгота": 59.975787, "Широта": 30.305463 }, "geometry": { "type": "Point", "coordinates": [ 30.305463, 59.975787 ] } },
{ "type": "Feature", "properties": { "Service name": "Домоуправление", "Adress": "улица Стародеревенская, 6 к2", "Долгота": 59.986494, "Широта": 30.240531 }, "geometry": { "type": "Point", "coordinates": [ 30.240531, 59.986494 ] } },
{ "type": "Feature", "properties": { "Service name": "Мир", "Adress": "10-я линия В.О., 39", "Долгота": 59.944113, "Широта": 30.272146 }, "geometry": { "type": "Point", "coordinates": [ 30.272146, 59.944113 ] } },
{ "type": "Feature", "properties": { "Service name": "Мир", "Adress": "3-я линия В.О., 48", "Долгота": 59.946455, "Широта": 30.28008 }, "geometry": { "type": "Point", "coordinates": [ 30.28008, 59.946455 ] } },
{ "type": "Feature", "properties": { "Service name": "Аварийная служба", "Adress": "Подрезова, 21а", "Долгота": 59.965531, "Широта": 30.301545 }, "geometry": { "type": "Point", "coordinates": [ 30.301545, 59.965531 ] } },
{ "type": "Feature", "properties": { "Service name": "ТСЖ Большой, 100", "Adress": "набережная реки Карповки, 10", "Долгота": 59.967746, "Широта": 30.312792 }, "geometry": { "type": "Point", "coordinates": [ 30.312792, 59.967746 ] } },
{ "type": "Feature", "properties": { "Service name": "Управляющая компания", "Adress": "улица Пионерская, 50 лит А", "Долгота": 59.963904, "Широта": 30.273846 }, "geometry": { "type": "Point", "coordinates": [ 30.273846, 59.963904 ] } },
{ "type": "Feature", "properties": { "Service name": "ТСЖ Центральная усадьба", "Adress": "", "Долгота": 59.804495, "Широта": 30.377277 }, "geometry": { "type": "Point", "coordinates": [ 30.377277, 59.804495 ] } },
{ "type": "Feature", "properties": { "Service name": "Эктермо", "Adress": "", "Долгота": null, "Широта": null }, "geometry": null },
{ "type": "Feature", "properties": { "Service name": "ТСЖ Васильевский-1", "Adress": "улица Кораблестроителей, 40 к5", "Долгота": 59.95818, "Широта": 30.224902 }, "geometry": { "type": "Point", "coordinates": [ 30.224902, 59.95818 ] } },
{ "type": "Feature", "properties": { "Service name": "ТСЖ Введенская 21", "Adress": "Введенская, 21", "Долгота": 59.954953, "Широта": 30.306805 }, "geometry": { "type": "Point", "coordinates": [ 30.306805, 59.954953 ] } },
{ "type": "Feature", "properties": { "Service name": "ТСН Дом на Савушкина", "Adress": "улица Савушкина, 125 к1", "Долгота": 59.987067, "Широта": 30.221024 }, "geometry": { "type": "Point", "coordinates": [ 30.221024, 59.987067 ] } },
{ "type": "Feature", "properties": { "Service name": "Комфорт Сервис", "Adress": "Приморский проспект, 62 к1", "Долгота": 59.982712, "Широта": 30.225299 }, "geometry": { "type": "Point", "coordinates": [ 30.225299, 59.982712 ] } },
{ "type": "Feature", "properties": { "Service name": "ТСЖ Уют", "Adress": "", "Долгота": 59.810889, "Широта": 30.300471 }, "geometry": { "type": "Point", "coordinates": [ 30.300471, 59.810889 ] } },
{ "type": "Feature", "properties": { "Service name": "Лофт.Сервис", "Adress": "набережная Макарова, 60 ст1", "Долгота": 59.956863, "Широта": 30.242092 }, "geometry": { "type": "Point", "coordinates": [ 30.242092, 59.956863 ] } },
{ "type": "Feature", "properties": { "Service name": "Инноватика", "Adress": "Средний проспект В.О., 85", "Долгота": 59.937143, "Широта": 30.253944 }, "geometry": { "type": "Point", "coordinates": [ 30.253944, 59.937143 ] } },
{ "type": "Feature", "properties": { "Service name": "Нарвская", "Adress": "7-я линия В.О., 28", "Долгота": 59.94034, "Широта": 30.28156 }, "geometry": { "type": "Point", "coordinates": [ 30.28156, 59.94034 ] } },
{ "type": "Feature", "properties": { "Service name": "Остров", "Adress": "Большая Зеленина, 24 лит А", "Долгота": 59.963407, "Широта": 30.287021 }, "geometry": { "type": "Point", "coordinates": [ 30.287021, 59.963407 ] } },
{ "type": "Feature", "properties": { "Service name": "Алмаз", "Adress": "Константиновский проспект, 23а", "Долгота": 59.973558, "Широта": 30.268231 }, "geometry": { "type": "Point", "coordinates": [ 30.268231, 59.973558 ] } },
{ "type": "Feature", "properties": { "Service name": "ТСЖ Приморский, 59", "Adress": "Приморский проспект, 59", "Долгота": 59.983179, "Широта": 30.272638 }, "geometry": { "type": "Point", "coordinates": [ 30.272638, 59.983179 ] } },
{ "type": "Feature", "properties": { "Service name": "ТСЖ Прибой", "Adress": "Адмиральский проезд, 6", "Долгота": 59.959702, "Широта": 30.228704 }, "geometry": { "type": "Point", "coordinates": [ 30.228704, 59.959702 ] } },
{ "type": "Feature", "properties": { "Service name": "Управляющая Компания Кристалл", "Adress": "Сестрорецкая, 8", "Долгота": 59.986078, "Широта": 30.287507 }, "geometry": { "type": "Point", "coordinates": [ 30.287507, 59.986078 ] } },
{ "type": "Feature", "properties": { "Service name": "Сервис-Недвижимость", "Adress": "Петрозаводская, 13", "Долгота": 59.965306, "Широта": 30.289525 }, "geometry": { "type": "Point", "coordinates": [ 30.289525, 59.965306 ] } },
{ "type": "Feature", "properties": { "Service name": "Сервис-Недвижимость", "Adress": "набережная реки Смоленки, 3 к1", "Долгота": 59.949053, "Широта": 30.264947 }, "geometry": { "type": "Point", "coordinates": [ 30.264947, 59.949053 ] } },
{ "type": "Feature", "properties": { "Service name": "Сервис-Недвижимость", "Adress": "набережная реки Смоленки, 3 к2", "Долгота": 59.949996, "Широта": 30.262715 }, "geometry": { "type": "Point", "coordinates": [ 30.262715, 59.949996 ] } },
{ "type": "Feature", "properties": { "Service name": "Сервис-Недвижимость", "Adress": "улица Торжковская, 1 к2", "Долгота": 59.986365, "Широта": 30.305771 }, "geometry": { "type": "Point", "coordinates": [ 30.305771, 59.986365 ] } },
{ "type": "Feature", "properties": { "Service name": "Сервис-Недвижимость", "Adress": "улица Торжковская, 1 к2", "Долгота": 59.986808, "Широта": 30.30526 }, "geometry": { "type": "Point", "coordinates": [ 30.30526, 59.986808 ] } },
{ "type": "Feature", "properties": { "Service name": "ЖСК №795", "Adress": "улица Наличная, 36 к5 лит Б", "Долгота": 59.947195, "Широта": 30.224688 }, "geometry": { "type": "Point", "coordinates": [ 30.224688, 59.947195 ] } },
{ "type": "Feature", "properties": { "Service name": "ТСЖ Графит-3", "Adress": "улица Наличная, 48 к1", "Долгота": 59.95443, "Широта": 30.23428 }, "geometry": { "type": "Point", "coordinates": [ 30.23428, 59.95443 ] } },
{ "type": "Feature", "properties": { "Service name": "ВезуГружу", "Adress": "Ленина, 25", "Долгота": 59.963232, "Широта": 30.302441 }, "geometry": { "type": "Point", "coordinates": [ 30.302441, 59.963232 ] } },
{ "type": "Feature", "properties": { "Service name": "ТСЖ Динамо 12", "Adress": "проспект Динамо, 12", "Долгота": 59.968894, "Широта": 30.275138 }, "geometry": { "type": "Point", "coordinates": [ 30.275138, 59.968894 ] } },
{ "type": "Feature", "properties": { "Service name": "Собрание", "Adress": "Большая Посадская, 12", "Долгота": 59.959511, "Широта": 30.324799 }, "geometry": { "type": "Point", "coordinates": [ 30.324799, 59.959511 ] } },
{ "type": "Feature", "properties": { "Service name": "Бета", "Adress": "Профессора Попова, 23 лит А", "Долгота": 59.971852, "Широта": 30.314552 }, "geometry": { "type": "Point", "coordinates": [ 30.314552, 59.971852 ] } },
{ "type": "Feature", "properties": { "Service name": "Сервис-недвижимость", "Adress": "Петрозаводская, 13", "Долгота": 59.965636, "Широта": 30.289074 }, "geometry": { "type": "Point", "coordinates": [ 30.289074, 59.965636 ] } },
{ "type": "Feature", "properties": { "Service name": "РСУ Приморского района", "Adress": "улица Полевая Сабировская, 3", "Долгота": 59.988223, "Широта": 30.277856 }, "geometry": { "type": "Point", "coordinates": [ 30.277856, 59.988223 ] } },
{ "type": "Feature", "properties": { "Service name": "Формула комфорта", "Adress": "Петровская коса, 1 к1", "Долгота": 59.9628, "Широта": 30.250752 }, "geometry": { "type": "Point", "coordinates": [ 30.250752, 59.9628 ] } },
{ "type": "Feature", "properties": { "Service name": "Нарвская", "Adress": "Шевченко, 21", "Долгота": 59.935792, "Широта": 30.244004 }, "geometry": { "type": "Point", "coordinates": [ 30.244004, 59.935792 ] } },
{ "type": "Feature", "properties": { "Service name": "Сервис-Недвижимость", "Adress": "Яхтенная, 1 к1", "Долгота": 59.984381, "Широта": 30.215566 }, "geometry": { "type": "Point", "coordinates": [ 30.215566, 59.984381 ] } },
{ "type": "Feature", "properties": { "Service name": "Becar", "Adress": "Средний проспект В.О., 88", "Долгота": 59.934066, "Широта": 30.248579 }, "geometry": { "type": "Point", "coordinates": [ 30.248579, 59.934066 ] } },
{ "type": "Feature", "properties": { "Service name": "ТСЖ Луначарского 62/1", "Adress": "проспект Луначарского, 62 к1", "Долгота": 60.041075, "Широта": 30.343412 }, "geometry": { "type": "Point", "coordinates": [ 30.343412, 60.041075 ] } },
{ "type": "Feature", "properties": { "Service name": "ТСН Дворик у Каменки", "Adress": "Шуваловский проспект, 55 к2", "Долгота": 60.026788, "Широта": 30.228613 }, "geometry": { "type": "Point", "coordinates": [ 30.228613, 60.026788 ] } },
{ "type": "Feature", "properties": { "Service name": "ТСЖ Балтия", "Adress": "проспект Авиаконструкторов, 32", "Долгота": 60.025598, "Широта": 30.226176 }, "geometry": { "type": "Point", "coordinates": [ 30.226176, 60.025598 ] } },
{ "type": "Feature", "properties": { "Service name": "ТСЖ Дом на Рашетова", "Adress": "Рашетова, 6", "Долгота": 60.021679, "Широта": 30.323303 }, "geometry": { "type": "Point", "coordinates": [ 30.323303, 60.021679 ] } },
{ "type": "Feature", "properties": { "Service name": "Профессионал", "Adress": "Ярославский проспект, 78", "Долгота": 60.026988, "Широта": 30.314526 }, "geometry": { "type": "Point", "coordinates": [ 30.314526, 60.026988 ] } },
{ "type": "Feature", "properties": { "Service name": "Диспетчерская", "Adress": "проспект Королёва, 7", "Долгота": 60.010734, "Широта": 30.291028 }, "geometry": { "type": "Point", "coordinates": [ 30.291028, 60.010734 ] } },
{ "type": "Feature", "properties": { "Service name": "Наш дом", "Adress": "Планерная улица, 25 к2", "Долгота": 60.006028, "Широта": 30.237176 }, "geometry": { "type": "Point", "coordinates": [ 30.237176, 60.006028 ] } },
{ "type": "Feature", "properties": { "Service name": "ТСЖ Яркое", "Adress": "Ярославский проспект, 76", "Долгота": 60.026751, "Широта": 30.315434 }, "geometry": { "type": "Point", "coordinates": [ 30.315434, 60.026751 ] } },
{ "type": "Feature", "properties": { "Service name": "Ленинградский Северный Завод", "Adress": "Комендантский проспект, 30 к1", "Долгота": 60.01472, "Широта": 30.249862 }, "geometry": { "type": "Point", "coordinates": [ 30.249862, 60.01472 ] } },
{ "type": "Feature", "properties": { "Service name": "ТСЖ Уют", "Adress": "улица Ильюшина, 11", "Долгота": 60.010579, "Широта": 30.241584 }, "geometry": { "type": "Point", "coordinates": [ 30.241584, 60.010579 ] } },
{ "type": "Feature", "properties": { "Service name": "Сервисная служба", "Adress": "Светлановский проспект, 2", "Долгота": 60.005843, "Широта": 30.331961 }, "geometry": { "type": "Point", "coordinates": [ 30.331961, 60.005843 ] } },
{ "type": "Feature", "properties": { "Service name": "ТСЖ Веста-5", "Adress": "улица Гаккелевская, 18 к3", "Долгота": 59.999627, "Широта": 30.251601 }, "geometry": { "type": "Point", "coordinates": [ 30.251601, 59.999627 ] } },
{ "type": "Feature", "properties": { "Service name": "Бухгалтерия", "Adress": "Фермское шоссе, 10", "Долгота": 60.012238, "Широта": 30.31153 }, "geometry": { "type": "Point", "coordinates": [ 30.31153, 60.012238 ] } },
{ "type": "Feature", "properties": { "Service name": "Алгоритм", "Adress": "Есенина, 1 к1", "Долгота": 60.029253, "Широта": 30.331466 }, "geometry": { "type": "Point", "coordinates": [ 30.331466, 60.029253 ] } },
{ "type": "Feature", "properties": { "Service name": "Управляющая организация", "Adress": "Рябиновая, 20", "Долгота": 60.033064, "Широта": 30.286471 }, "geometry": { "type": "Point", "coordinates": [ 30.286471, 60.033064 ] } },
{ "type": "Feature", "properties": { "Service name": "Московский квартал", "Adress": "проспект Тореза, 118 ст1", "Долгота": 60.026399, "Широта": 30.321071 }, "geometry": { "type": "Point", "coordinates": [ 30.321071, 60.026399 ] } },
{ "type": "Feature", "properties": { "Service name": "ТСЖ Орловский 3", "Adress": "Утиная 1-я, 19", "Долгота": 60.037007, "Широта": 30.299539 }, "geometry": { "type": "Point", "coordinates": [ 30.299539, 60.037007 ] } },
{ "type": "Feature", "properties": { "Service name": "ТСЖ Комендант", "Adress": "проспект Сизова, 22", "Долгота": 60.010422, "Широта": 30.27353 }, "geometry": { "type": "Point", "coordinates": [ 30.27353, 60.010422 ] } },
{ "type": "Feature", "properties": { "Service name": "Диспетчерская", "Adress": "улица Вербная, 10 к1", "Долгота": 60.023362, "Широта": 30.286192 }, "geometry": { "type": "Point", "coordinates": [ 30.286192, 60.023362 ] } },
{ "type": "Feature", "properties": { "Service name": "Сервис-Недвижимость", "Adress": "Шуваловский проспект, 37 к1", "Долгота": 60.032872, "Широта": 30.247787 }, "geometry": { "type": "Point", "coordinates": [ 30.247787, 60.032872 ] } },
{ "type": "Feature", "properties": { "Service name": "Сервис-Недвижимость", "Adress": "улица Парашютная, 52", "Долгота": 60.034141, "Широта": 30.246415 }, "geometry": { "type": "Point", "coordinates": [ 30.246415, 60.034141 ] } },
{ "type": "Feature", "properties": { "Service name": "Profman", "Adress": "проспект Королёва, 21 к1", "Долгота": 60.011939, "Широта": 30.279854 }, "geometry": { "type": "Point", "coordinates": [ 30.279854, 60.011939 ] } },
{ "type": "Feature", "properties": { "Service name": "Третий пусковой", "Adress": "Выборгское шоссе, 5 к1", "Долгота": 60.040199, "Широта": 30.319143 }, "geometry": { "type": "Point", "coordinates": [ 30.319143, 60.040199 ] } },
{ "type": "Feature", "properties": { "Service name": "Комтехсервис, Управляющая компания", "Adress": "Комендантский проспект, 32 к1", "Долгота": 60.017795, "Широта": 30.246314 }, "geometry": { "type": "Point", "coordinates": [ 30.246314, 60.017795 ] } },
{ "type": "Feature", "properties": { "Service name": "ЖСК №1302", "Adress": "Шаврова, 17", "Долгота": 60.025717, "Широта": 30.241215 }, "geometry": { "type": "Point", "coordinates": [ 30.241215, 60.025717 ] } },
{ "type": "Feature", "properties": { "Service name": "ЖСК №1312", "Adress": "проспект Авиаконструкторов, 8 к2", "Долгота": 60.012086, "Широта": 30.240049 }, "geometry": { "type": "Point", "coordinates": [ 30.240049, 60.012086 ] } },
{ "type": "Feature", "properties": { "Service name": "Соотечественник", "Adress": "Лиственная, 20 к2 ст1", "Долгота": 60.029118, "Широта": 30.337084 }, "geometry": { "type": "Point", "coordinates": [ 30.337084, 60.029118 ] } },
{ "type": "Feature", "properties": { "Service name": "ТСЖ Сикейроса 21-4", "Adress": "Сикейроса, 21 к4", "Долгота": 60.03381, "Широта": 30.339731 }, "geometry": { "type": "Point", "coordinates": [ 30.339731, 60.03381 ] } },
{ "type": "Feature", "properties": { "Service name": "Патриот-комфорт", "Adress": "улица Заречная, 19 к1", "Долгота": 60.071743, "Широта": 30.320832 }, "geometry": { "type": "Point", "coordinates": [ 30.320832, 60.071743 ] } },
{ "type": "Feature", "properties": { "Service name": "Прокси", "Adress": "Вавиловых, 8 к3", "Долгота": 60.021269, "Широта": 30.385216 }, "geometry": { "type": "Point", "coordinates": [ 30.385216, 60.021269 ] } },
{ "type": "Feature", "properties": { "Service name": "Сервис-Недвижимость", "Adress": "проспект Маршала Блюхера, 7 к3", "Долгота": 59.978794, "Широта": 30.37189 }, "geometry": { "type": "Point", "coordinates": [ 30.37189, 59.978794 ] } },
{ "type": "Feature", "properties": { "Service name": "ТСЖ Богатырское", "Adress": "Богатырский проспект, 53 к1", "Долгота": 60.006927, "Широта": 30.216027 }, "geometry": { "type": "Point", "coordinates": [ 30.216027, 60.006927 ] } },
{ "type": "Feature", "properties": { "Service name": "ЖЭУ №14", "Adress": "проспект Тореза, 34", "Долгота": 60.004618, "Широта": 30.354951 }, "geometry": { "type": "Point", "coordinates": [ 30.354951, 60.004618 ] } },
{ "type": "Feature", "properties": { "Service name": "ТСЖ Ириновский 17-1", "Adress": "", "Долгота": null, "Широта": null }, "geometry": null },
{ "type": "Feature", "properties": { "Service name": "ТСЖ Три Апельсина к.4", "Adress": "улица Заречная, 11 к4", "Долгота": 60.069646, "Широта": 30.313009 }, "geometry": { "type": "Point", "coordinates": [ 30.313009, 60.069646 ] } },
{ "type": "Feature", "properties": { "Service name": "ТСЖ Грибоедова 146", "Adress": "набережная канала Грибоедова, 146", "Долгота": 59.920718, "Широта": 30.289316 }, "geometry": { "type": "Point", "coordinates": [ 30.289316, 59.920718 ] } },
{ "type": "Feature", "properties": { "Service name": "ТСЖ Будапештская 97, корпус 2, литер А", "Adress": "Будапештская, 97 к2 лит А", "Долгота": 59.828488, "Широта": 30.406085 }, "geometry": { "type": "Point", "coordinates": [ 30.406085, 59.828488 ] } },
{ "type": "Feature", "properties": { "Service name": "ТСЖ РК101", "Adress": "проспект Римского-Корсакова, 101", "Долгота": 59.918953, "Широта": 30.28165 }, "geometry": { "type": "Point", "coordinates": [ 30.28165, 59.918953 ] } },
{ "type": "Feature", "properties": { "Service name": "ДомСПб", "Adress": "улица Кораблестроителей, 31 к2", "Долгота": 59.954176, "Широта": 30.220112 }, "geometry": { "type": "Point", "coordinates": [ 30.220112, 59.954176 ] } },
{ "type": "Feature", "properties": { "Service name": "ТСЖ Парадный квартал", "Adress": "Парадная, 3 к2", "Долгота": 59.94194, "Широта": 30.368225 }, "geometry": { "type": "Point", "coordinates": [ 30.368225, 59.94194 ] } },
{ "type": "Feature", "properties": { "Service name": "Жилищное агентство Красносельского района", "Adress": "Добровольцев, 44", "Долгота": 59.830548, "Широта": 30.168472 }, "geometry": { "type": "Point", "coordinates": [ 30.168472, 59.830548 ] } },
{ "type": "Feature", "properties": { "Service name": "Мир", "Adress": "17-я линия В.О., 42", "Долгота": 59.941291, "Широта": 30.263421 }, "geometry": { "type": "Point", "coordinates": [ 30.263421, 59.941291 ] } },
{ "type": "Feature", "properties": { "Service name": "ТСЖ Рубеж", "Adress": "Ленинский проспект, 87 к1", "Долгота": 59.855379, "Широта": 30.204066 }, "geometry": { "type": "Point", "coordinates": [ 30.204066, 59.855379 ] } },
{ "type": "Feature", "properties": { "Service name": "Возрождение Санкт-Петербурга", "Adress": "улица Маршала Казакова, 44 к1 лит А", "Долгота": 59.860254, "Широта": 30.201471 }, "geometry": { "type": "Point", "coordinates": [ 30.201471, 59.860254 ] } },
{ "type": "Feature", "properties": { "Service name": "Жилкомсервис №2 Петроградского района", "Adress": "Ленина, 49", "Долгота": 59.965754, "Широта": 30.296385 }, "geometry": { "type": "Point", "coordinates": [ 30.296385, 59.965754 ] } },
{ "type": "Feature", "properties": { "Service name": "ТСН Некст", "Adress": "Средний проспект В.О., 87 к3 ст1", "Долгота": 59.937538, "Широта": 30.248943 }, "geometry": { "type": "Point", "coordinates": [ 30.248943, 59.937538 ] } },
{ "type": "Feature", "properties": { "Service name": "Дом Сервис", "Adress": null, "Долгота": null, "Широта": null }, "geometry": { "type": "Point", "coordinates": [ 30.21549024420591, 59.996270333197316 ] } },
{ "type": "Feature", "properties": { "Service name": "ТСЖ Каменноостровский 56-62", "Adress": "Каменноостровский проспект, 56 к2", "Долгота": 59.972103, "Широта": 30.304372 }, "geometry": { "type": "Point", "coordinates": [ 30.304372, 59.972103 ] } },
{ "type": "Feature", "properties": { "Service name": "Балткомсервис", "Adress": "проспект Энергетиков, 70 лит Б", "Долгота": 59.971138, "Широта": 30.433966 }, "geometry": { "type": "Point", "coordinates": [ 30.433966, 59.971138 ] } },
{ "type": "Feature", "properties": { "Service name": "ТСЖ Галерная 51", "Adress": "Галерная, 51", "Долгота": 59.931832, "Широта": 30.288949 }, "geometry": { "type": "Point", "coordinates": [ 30.288949, 59.931832 ] } },
{ "type": "Feature", "properties": { "Service name": "ТСЖ Костюшко 2", "Adress": "Костюшко, 2 к1", "Долгота": 59.848318, "Широта": 30.297917 }, "geometry": { "type": "Point", "coordinates": [ 30.297917, 59.848318 ] } },
{ "type": "Feature", "properties": { "Service name": "ТСЖ Английский проспект", "Adress": "Английский проспект, 46", "Долгота": 59.919942, "Широта": 30.288815 }, "geometry": { "type": "Point", "coordinates": [ 30.288815, 59.919942 ] } },
{ "type": "Feature", "properties": { "Service name": "Две Столицы", "Adress": "Среднерогатская, 20 ст1", "Долгота": 59.819572, "Широта": 30.338808 }, "geometry": { "type": "Point", "coordinates": [ 30.338808, 59.819572 ] } },
{ "type": "Feature", "properties": { "Service name": "ТСЖ Октябрьская набережная 64-1", "Adress": "Октябрьская набережная, 64 к1", "Долгота": 59.88093, "Широта": 30.453948 }, "geometry": { "type": "Point", "coordinates": [ 30.453948, 59.88093 ] } },
{ "type": "Feature", "properties": { "Service name": "Жилищное агентство Красносельского района", "Adress": "проспект Ветеранов, 131", "Долгота": 59.835251, "Широта": 30.157872 }, "geometry": { "type": "Point", "coordinates": [ 30.157872, 59.835251 ] } },
{ "type": "Feature", "properties": { "Service name": "Маршал", "Adress": "проспект Металлистов, 117", "Долгота": 59.976195, "Широта": 30.387298 }, "geometry": { "type": "Point", "coordinates": [ 30.387298, 59.976195 ] } },
{ "type": "Feature", "properties": { "Service name": "Самолёт", "Adress": "Кондратьевский проспект, 15 к3", "Долгота": 59.964217, "Широта": 30.382835 }, "geometry": { "type": "Point", "coordinates": [ 30.382835, 59.964217 ] } },
{ "type": "Feature", "properties": { "Service name": "Охта-сервис", "Adress": "Пискарёвский проспект, 20", "Долгота": 59.970642, "Широта": 30.410701 }, "geometry": { "type": "Point", "coordinates": [ 30.410701, 59.970642 ] } },
{ "type": "Feature", "properties": { "Service name": "ДомСПб", "Adress": "улица Купчинская, 30 к2", "Долгота": 59.830069, "Широта": 30.397566 }, "geometry": { "type": "Point", "coordinates": [ 30.397566, 59.830069 ] } },
{ "type": "Feature", "properties": { "Service name": "Лидер", "Adress": "улица Полевая Сабировская, 45 к1 ст1", "Долгота": 59.993935, "Широта": 30.275485 }, "geometry": { "type": "Point", "coordinates": [ 30.275485, 59.993935 ] } },
{ "type": "Feature", "properties": { "Service name": "Интерус", "Adress": "проспект Обуховской Обороны, 86 лит К", "Долгота": 59.894482, "Широта": 30.439776 }, "geometry": { "type": "Point", "coordinates": [ 30.439776, 59.894482 ] } },
{ "type": "Feature", "properties": { "Service name": "Начало.Сервис", "Adress": "Варфоломеевская, 6", "Долгота": 59.879354, "Широта": 30.418666 }, "geometry": { "type": "Point", "coordinates": [ 30.418666, 59.879354 ] } },
{ "type": "Feature", "properties": { "Service name": "Экосити", "Adress": "Лиговский проспект, 271", "Долгота": 59.905274, "Широта": 30.340511 }, "geometry": { "type": "Point", "coordinates": [ 30.340511, 59.905274 ] } },
{ "type": "Feature", "properties": { "Service name": "Строительная корпорация Возрождение Санкт-Петербурга", "Adress": "Даниила Хармса, 7", "Долгота": 60.034592, "Широта": 30.453267 }, "geometry": { "type": "Point", "coordinates": [ 30.453267, 60.034592 ] } },
{ "type": "Feature", "properties": { "Service name": "ТСН Конная 13", "Adress": "Конная, 13", "Долгота": 59.92769, "Широта": 30.377732 }, "geometry": { "type": "Point", "coordinates": [ 30.377732, 59.92769 ] } },
{ "type": "Feature", "properties": { "Service name": "ТСЖ Гражданка-2", "Adress": "Софьи Ковалевской, 20 к1", "Долгота": 60.017877, "Широта": 30.414779 }, "geometry": { "type": "Point", "coordinates": [ 30.414779, 60.017877 ] } },
{ "type": "Feature", "properties": { "Service name": "ТСЖ Мегалит 2008", "Adress": "улица Латышских Стрелков, 1", "Долгота": 59.926915, "Широта": 30.470191 }, "geometry": { "type": "Point", "coordinates": [ 30.470191, 59.926915 ] } },
{ "type": "Feature", "properties": { "Service name": "ТСЖ Дом на Руднева", "Adress": "Светлановский проспект, 2", "Долгота": 60.005843, "Широта": 30.331961 }, "geometry": { "type": "Point", "coordinates": [ 30.331961, 60.005843 ] } },
{ "type": "Feature", "properties": { "Service name": "ТСЖ Садовая 8", "Adress": "Инженерная, 7", "Долгота": 59.937159, "Широта": 30.337288 }, "geometry": { "type": "Point", "coordinates": [ 30.337288, 59.937159 ] } },
{ "type": "Feature", "properties": { "Service name": "ТСЖ Чайка", "Adress": "Тверская, 39", "Долгота": 59.733122, "Широта": 30.609246 }, "geometry": { "type": "Point", "coordinates": [ 30.609246, 59.733122 ] } },
{ "type": "Feature", "properties": { "Service name": "ТСЖ Ленинградские вечера", "Adress": null, "Долгота": null, "Широта": null }, "geometry": { "type": "Point", "coordinates": [ 30.19708600054641, 59.994433750339098 ] } },
{ "type": "Feature", "properties": { "Service name": "Эксплуатационный участок", "Adress": null, "Долгота": null, "Широта": null }, "geometry": { "type": "Point", "coordinates": [ 30.266557227589239, 59.985885692253767 ] } },
{ "type": "Feature", "properties": { "Service name": "Жилкомсервис № 2 Приморского района", "Adress": null, "Долгота": null, "Широта": null }, "geometry": { "type": "Point", "coordinates": [ 30.289362185445665, 59.984178084434355 ] } },
{ "type": "Feature", "properties": { "Service name": "Релакс", "Adress": null, "Долгота": null, "Широта": null }, "geometry": { "type": "Point", "coordinates": [ 30.361098535541114, 59.955413128864052 ] } },
{ "type": "Feature", "properties": { "Service name": "СПб ГКУ Жилищное агентство Калининского района", "Adress": null, "Долгота": null, "Широта": null }, "geometry": { "type": "Point", "coordinates": [ 30.358896814048229, 59.954943837750449 ] } },
{ "type": "Feature", "properties": { "Service name": "ЖЭУ № 1 Жилкомсервиса № 3 Калининского района", "Adress": null, "Долгота": null, "Широта": null }, "geometry": { "type": "Point", "coordinates": [ 30.352098998938967, 59.95589621569237 ] } },
{ "type": "Feature", "properties": { "Service name": "Наш дом", "Adress": null, "Долгота": null, "Широта": null }, "geometry": { "type": "Point", "coordinates": [ 30.37293278856535, 59.965915223452036 ] } },
{ "type": "Feature", "properties": { "Service name": "УК Домиум", "Adress": null, "Долгота": null, "Широта": null }, "geometry": { "type": "Point", "coordinates": [ 30.374143735386429, 59.97805540017125 ] } },
{ "type": "Feature", "properties": { "Service name": "УК КапСтройСервис", "Adress": null, "Долгота": null, "Широта": null }, "geometry": { "type": "Point", "coordinates": [ 30.376785801177885, 59.980234640901237 ] } },
{ "type": "Feature", "properties": { "Service name": "Наш Дом", "Adress": null, "Долгота": null, "Широта": null },