{
"type": "FeatureCollection",
"name": "shop_car",
"crs": { "type": "name", "properties": { "name": "urn:ogc:def:crs:OGC:1.3:CRS84" } },
"features": [
{ "type": "Feature", "properties": { "service_name": "98RegionCars", "address": "проспект Энергетиков, 53 к2", "municipality": "Полюстрово", "administrative_unit": "Красногвардейский район", "Широта": 59.965626, "Долгота": 30.438235 }, "geometry": { "type": "Point", "coordinates": [ 30.438235, 59.965626 ] } },
{ "type": "Feature", "properties": { "service_name": "Afs. Taxi&Cargo", "address": "Московское шоссе, 13 к7 лит Б", "municipality": "Звездное", "administrative_unit": "Московский район", "Широта": 59.824975, "Долгота": 30.354438 }, "geometry": { "type": "Point", "coordinates": [ 30.354438, 59.824975 ] } },
{ "type": "Feature", "properties": { "service_name": "American Garage Shop", "address": "Воронежская, 5", "municipality": "Владимирский", "administrative_unit": "Центральный район", "Широта": 59.918045, "Долгота": 30.348798 }, "geometry": { "type": "Point", "coordinates": [ 30.348798, 59.918045 ] } },
{ "type": "Feature", "properties": { "service_name": "Amoto.pro", "address": "Промышленная улица, 19 лит Н", "municipality": "Нарвский", "administrative_unit": "Кировский район", "Широта": 59.896557, "Долгота": 30.258221 }, "geometry": { "type": "Point", "coordinates": [ 30.258221, 59.896557 ] } },
{ "type": "Feature", "properties": { "service_name": "Artmaxx-auto", "address": "Комендантский проспект, 44 к2 ст1", "municipality": "Юнтолово", "administrative_unit": "Приморский район", "Широта": 60.026339, "Долгота": 30.235077 }, "geometry": { "type": "Point", "coordinates": [ 30.235077, 60.026339 ] } },
{ "type": "Feature", "properties": { "service_name": "Aurore Auto - Официальный дилер Nissan", "address": "улица Исполкомская, 15", "municipality": "Смольнинское", "administrative_unit": "Центральный район", "Широта": 59.929242, "Долгота": 30.382945 }, "geometry": { "type": "Point", "coordinates": [ 30.382945, 59.929242 ] } },
{ "type": "Feature", "properties": { "service_name": "Baic Мега-Авто", "address": "улица Бухарестская, 1", "municipality": "Волковское", "administrative_unit": "Фрунзенский район", "Широта": 59.89236, "Долгота": 30.357955 }, "geometry": { "type": "Point", "coordinates": [ 30.357955, 59.89236 ] } },
{ "type": "Feature", "properties": { "service_name": "Bentley", "address": "Гельсингфорсская, 2", "municipality": "Сампсониевское", "administrative_unit": "Выборгский район", "Широта": 59.97384, "Долгота": 30.333313 }, "geometry": { "type": "Point", "coordinates": [ 30.333313, 59.97384 ] } },
{ "type": "Feature", "properties": { "service_name": "BushinuAuto", "address": "улица Стародеревенская, 11 к2 лит А", "municipality": "Муниципальный округ №65", "administrative_unit": "Приморский район", "Широта": 59.99338, "Долгота": 30.244415 }, "geometry": { "type": "Point", "coordinates": [ 30.244415, 59.99338 ] } },
{ "type": "Feature", "properties": { "service_name": "BydWorld", "address": "Большая Разночинная, 14 лит А", "municipality": "Петровский", "administrative_unit": "Петроградский район", "Широта": 59.958755, "Долгота": 30.292028 }, "geometry": { "type": "Point", "coordinates": [ 30.292028, 59.958755 ] } },
{ "type": "Feature", "properties": { "service_name": "Carnado", "address": "Богатырский проспект, 14 к2 лит А", "municipality": "Озеро Долгое", "administrative_unit": "Приморский район", "Широта": 59.998595, "Долгота": 30.268705 }, "geometry": { "type": "Point", "coordinates": [ 30.268705, 59.998595 ] } },
{ "type": "Feature", "properties": { "service_name": "Carnado", "address": "Малая Балканская, 21г", "municipality": "Балканский", "administrative_unit": "Фрунзенский район", "Широта": 59.832231, "Долгота": 30.378275 }, "geometry": { "type": "Point", "coordinates": [ 30.378275, 59.832231 ] } },
{ "type": "Feature", "properties": { "service_name": "Carnado", "address": "Планерная улица, 59", "municipality": "Юнтолово", "administrative_unit": "Приморский район", "Широта": 60.022254, "Долгота": 30.224662 }, "geometry": { "type": "Point", "coordinates": [ 30.224662, 60.022254 ] } },
{ "type": "Feature", "properties": { "service_name": "Carnado", "address": "Портовая улица, 15 лит А", "municipality": "Автово", "administrative_unit": "Кировский район", "Широта": 59.865938, "Долгота": 30.247488 }, "geometry": { "type": "Point", "coordinates": [ 30.247488, 59.865938 ] } },
{ "type": "Feature", "properties": { "service_name": "Carnado", "address": "проспект Испытателей, 1 к1", "municipality": "Комендантский аэродром", "administrative_unit": "Приморский район", "Широта": 60.00254, "Долгота": 30.306453 }, "geometry": { "type": "Point", "coordinates": [ 30.306453, 60.00254 ] } },
{ "type": "Feature", "properties": { "service_name": "Carnado", "address": "улица Оптиков, 1д", "municipality": "Муниципальный округ №65", "administrative_unit": "Приморский район", "Широта": 59.996202, "Долгота": 30.250493 }, "geometry": { "type": "Point", "coordinates": [ 30.250493, 59.996202 ] } },
{ "type": "Feature", "properties": { "service_name": "Carnado", "address": "улица Руставели, 5 к2", "municipality": "Пискарёвка", "administrative_unit": "Калининский район", "Широта": 60.000372, "Долгота": 30.438417 }, "geometry": { "type": "Point", "coordinates": [ 30.438417, 60.000372 ] } },
{ "type": "Feature", "properties": { "service_name": "Carvana", "address": "проспект Маршала Жукова, 78 лит А", "municipality": "Ульянка", "administrative_unit": "Кировский район", "Широта": 59.826434, "Долгота": 30.189753 }, "geometry": { "type": "Point", "coordinates": [ 30.189753, 59.826434 ] } },
{ "type": "Feature", "properties": { "service_name": "Changan Motors Rus", "address": "улица Софийская, 2", "municipality": "Волковское", "administrative_unit": "Фрунзенский район", "Широта": 59.888399, "Долгота": 30.382823 }, "geometry": { "type": "Point", "coordinates": [ 30.382823, 59.888399 ] } },
{ "type": "Feature", "properties": { "service_name": "Changan Элан-Моторс", "address": "улица Софийская, 2", "municipality": "Волковское", "administrative_unit": "Фрунзенский район", "Широта": 59.888399, "Долгота": 30.382823 }, "geometry": { "type": "Point", "coordinates": [ 30.382823, 59.888399 ] } },
{ "type": "Feature", "properties": { "service_name": "Chery Максимум – официальный дилер Chery ", "address": "улица Руставели, 53", "municipality": "Муниципальный округ №21", "administrative_unit": "Калининский район", "Широта": 60.024128, "Долгота": 30.433607 }, "geometry": { "type": "Point", "coordinates": [ 30.433607, 60.024128 ] } },
{ "type": "Feature", "properties": { "service_name": "Chery Максимум Обводный ", "address": "Рыбинская улица, 1 лит З", "municipality": "Московская застава", "administrative_unit": "Московский район", "Широта": 59.910575, "Долгота": 30.333111 }, "geometry": { "type": "Point", "coordinates": [ 30.333111, 59.910575 ] } },
{ "type": "Feature", "properties": { "service_name": "Chery РОЛЬФ Лахта", "address": "улица Стародеревенская, 3а", "municipality": "Муниципальный округ №65", "administrative_unit": "Приморский район", "Широта": 59.986594, "Долгота": 30.243873 }, "geometry": { "type": "Point", "coordinates": [ 30.243873, 59.986594 ] } },
{ "type": "Feature", "properties": { "service_name": "Chery Центр ИАТ Волхонский", "address": "Волхонское шоссе, 3 ст2", "municipality": null, "administrative_unit": null, "Широта": 59.797894, "Долгота": 30.166434 }, "geometry": { "type": "Point", "coordinates": [ 30.166434, 59.797894 ] } },
{ "type": "Feature", "properties": { "service_name": "Dealer-Cars", "address": "Екатерининский проспект, 5Б", "municipality": "Полюстрово", "administrative_unit": "Красногвардейский район", "Широта": 59.978613, "Долгота": 30.439304 }, "geometry": { "type": "Point", "coordinates": [ 30.439304, 59.978613 ] } },
{ "type": "Feature", "properties": { "service_name": "DM Auto", "address": "Межевая, 10", "municipality": "Колпино г.", "administrative_unit": "Колпинский район", "Широта": 59.757247, "Долгота": 30.608095 }, "geometry": { "type": "Point", "coordinates": [ 30.608095, 59.757247 ] } },
{ "type": "Feature", "properties": { "service_name": "Dongfeng центр Максимум ", "address": "Суздальский проспект, 13 ст1", "municipality": null, "administrative_unit": null, "Широта": 60.04722, "Долгота": 30.417196 }, "geometry": { "type": "Point", "coordinates": [ 30.417196, 60.04722 ] } },
{ "type": "Feature", "properties": { "service_name": "EXEED центр Автостиль ", "address": "улица Ушинского, 12", "municipality": "Прометей", "administrative_unit": "Калининский район", "Широта": 60.035041, "Долгота": 30.408515 }, "geometry": { "type": "Point", "coordinates": [ 30.408515, 60.035041 ] } },
{ "type": "Feature", "properties": { "service_name": "EXEED центр Аларм-моторс Озерки", "address": "Выборгское шоссе, 23 к1", "municipality": "Шувалово-Озерки", "administrative_unit": "Выборгский район", "Широта": 60.059601, "Долгота": 30.306503 }, "geometry": { "type": "Point", "coordinates": [ 30.306503, 60.059601 ] } },
{ "type": "Feature", "properties": { "service_name": "EXEED Центр ИАТ Волхонский", "address": "Волхонское шоссе, 3 ст3", "municipality": null, "administrative_unit": null, "Широта": 59.797908, "Долгота": 30.168428 }, "geometry": { "type": "Point", "coordinates": [ 30.168428, 59.797908 ] } },
{ "type": "Feature", "properties": { "service_name": "EXEED центр Карс Фэмили", "address": "проспект Маршала Жукова, 25 к1", "municipality": "Юго-Запад", "administrative_unit": "Красносельский район", "Широта": 59.860675, "Долгота": 30.232902 }, "geometry": { "type": "Point", "coordinates": [ 30.232902, 59.860675 ] } },
{ "type": "Feature", "properties": { "service_name": "EXEED центр Максимум Лахта", "address": "Торфяная дорога, 8 к3", "municipality": "Муниципальный округ №65", "administrative_unit": "Приморский район", "Широта": 59.991393, "Долгота": 30.255339 }, "geometry": { "type": "Point", "coordinates": [ 30.255339, 59.991393 ] } },
{ "type": "Feature", "properties": { "service_name": "Exeed Центр Рольф Витебский", "address": "Витебский проспект, 17 к6а", "municipality": "Гагаринское", "administrative_unit": "Московский район", "Широта": 59.869834, "Долгота": 30.354188 }, "geometry": { "type": "Point", "coordinates": [ 30.354188, 59.869834 ] } },
{ "type": "Feature", "properties": { "service_name": "EXEED Центр Элан-Моторс", "address": "Придорожная аллея, 10", "municipality": "Сергиевское", "administrative_unit": "Выборгский район", "Широта": 60.057824, "Долгота": 30.350527 }, "geometry": { "type": "Point", "coordinates": [ 30.350527, 60.057824 ] } },
{ "type": "Feature", "properties": { "service_name": "Fengon Максимум", "address": "проспект Непокорённых, 47а", "municipality": "Пискарёвка", "administrative_unit": "Калининский район", "Широта": 59.994074, "Долгота": 30.386098 }, "geometry": { "type": "Point", "coordinates": [ 30.386098, 59.994074 ] } },
{ "type": "Feature", "properties": { "service_name": "Foris Auto - официальный дилер Jeep", "address": "Орбели, 35 к1", "municipality": "Светлановское", "administrative_unit": "Выборгский район", "Широта": 60.006988, "Долгота": 30.340785 }, "geometry": { "type": "Point", "coordinates": [ 30.340785, 60.006988 ] } },
{ "type": "Feature", "properties": { "service_name": "Foris Auto Chrysler", "address": "Орбели, 35 к1", "municipality": "Светлановское", "administrative_unit": "Выборгский район", "Широта": 60.006988, "Долгота": 30.340785 }, "geometry": { "type": "Point", "coordinates": [ 30.340785, 60.006988 ] } },
{ "type": "Feature", "properties": { "service_name": "Foris Auto Dodge", "address": "Орбели, 35 к1", "municipality": "Светлановское", "administrative_unit": "Выборгский район", "Широта": 60.006988, "Долгота": 30.340785 }, "geometry": { "type": "Point", "coordinates": [ 30.340785, 60.006988 ] } },
{ "type": "Feature", "properties": { "service_name": "GAC EXPOCAR", "address": "Коломяжский проспект, 18", "municipality": "Комендантский аэродром", "administrative_unit": "Приморский район", "Широта": 59.996297, "Долгота": 30.299398 }, "geometry": { "type": "Point", "coordinates": [ 30.299398, 59.996297 ] } },
{ "type": "Feature", "properties": { "service_name": "Geely Карс Фэмили", "address": "проспект Маршала Жукова, 25 к1", "municipality": "Юго-Запад", "administrative_unit": "Красносельский район", "Широта": 59.860675, "Долгота": 30.232902 }, "geometry": { "type": "Point", "coordinates": [ 30.232902, 59.860675 ] } },
{ "type": "Feature", "properties": { "service_name": "Geely М₂O", "address": "Дунайский проспект, 15 к2", "municipality": "Звездное", "administrative_unit": "Московский район", "Широта": 59.829778, "Долгота": 30.341966 }, "geometry": { "type": "Point", "coordinates": [ 30.341966, 59.829778 ] } },
{ "type": "Feature", "properties": { "service_name": "Geely М₂O", "address": "улица Камчатская, 3 ст2", "municipality": "Волковское", "administrative_unit": "Фрунзенский район", "Широта": 59.905082, "Долгота": 30.353967 }, "geometry": { "type": "Point", "coordinates": [ 30.353967, 59.905082 ] } },
{ "type": "Feature", "properties": { "service_name": "Geely Максимум", "address": "улица Руставели, 53", "municipality": "Муниципальный округ №21", "administrative_unit": "Калининский район", "Широта": 60.023961, "Долгота": 30.433785 }, "geometry": { "type": "Point", "coordinates": [ 30.433785, 60.023961 ] } },
{ "type": "Feature", "properties": { "service_name": "Geely Мега-Авто", "address": "проспект Медиков, 8 к1", "municipality": "Аптекарский остров", "administrative_unit": "Петроградский район", "Широта": 59.972622, "Долгота": 30.314919 }, "geometry": { "type": "Point", "coordinates": [ 30.314919, 59.972622 ] } },
{ "type": "Feature", "properties": { "service_name": "Genesis Рольф Октябрьская", "address": "Октябрьская набережная, 8 к7", "municipality": "Невский", "administrative_unit": "Невский район", "Широта": 59.912858, "Долгота": 30.419435 }, "geometry": { "type": "Point", "coordinates": [ 30.419435, 59.912858 ] } },
{ "type": "Feature", "properties": { "service_name": "Green car", "address": "улица Софийская, 2 лит А", "municipality": "Волковское", "administrative_unit": "Фрунзенский район", "Широта": 59.888148, "Долгота": 30.383197 }, "geometry": { "type": "Point", "coordinates": [ 30.383197, 59.888148 ] } },
{ "type": "Feature", "properties": { "service_name": "Gregory`s Cars", "address": "Выборгская набережная, 55 к3", "municipality": "Сампсониевское", "administrative_unit": "Выборгский район", "Широта": 59.977454, "Долгота": 30.328442 }, "geometry": { "type": "Point", "coordinates": [ 30.328442, 59.977454 ] } },
{ "type": "Feature", "properties": { "service_name": "Hyundai РОЛЬФ Лахта", "address": "улица Савушкина, 103а", "municipality": "Муниципальный округ №65", "administrative_unit": "Приморский район", "Широта": 59.984778, "Долгота": 30.24428 }, "geometry": { "type": "Point", "coordinates": [ 30.24428, 59.984778 ] } },
{ "type": "Feature", "properties": { "service_name": "Jac Motors", "address": "улица Парашютная, 51", "municipality": "Юнтолово", "administrative_unit": "Приморский район", "Широта": 60.028378, "Долгота": 30.256622 }, "geometry": { "type": "Point", "coordinates": [ 30.256622, 60.028378 ] } },
{ "type": "Feature", "properties": { "service_name": "JAC Центр Максимум", "address": "территория Транспортная, 6", "municipality": null, "administrative_unit": null, "Широта": 60.047883, "Долгота": 30.417068 }, "geometry": { "type": "Point", "coordinates": [ 30.417068, 60.047883 ] } },
{ "type": "Feature", "properties": { "service_name": "Jaecoo Аларм-Моторс Озерки", "address": "Выборгское шоссе, 27", "municipality": "Шувалово-Озерки", "administrative_unit": "Выборгский район", "Широта": 60.060496, "Долгота": 30.306169 }, "geometry": { "type": "Point", "coordinates": [ 30.306169, 60.060496 ] } },
{ "type": "Feature", "properties": { "service_name": "Jaecoo ИАТ Приморский", "address": "улица Школьная, 98а", "municipality": "Муниципальный округ №65", "administrative_unit": "Приморский район", "Широта": 59.990129, "Долгота": 30.222422 }, "geometry": { "type": "Point", "coordinates": [ 30.222422, 59.990129 ] } },
{ "type": "Feature", "properties": { "service_name": "Jaecoo КЛЮЧАВТО", "address": "улица Руставели, 31", "municipality": "Пискарёвка", "administrative_unit": "Калининский район", "Широта": 60.008349, "Долгота": 30.435932 }, "geometry": { "type": "Point", "coordinates": [ 30.435932, 60.008349 ] } },
{ "type": "Feature", "properties": { "service_name": "Jaecoo Максимум Обводный", "address": "Рыбинская улица, 1 лит З", "municipality": "Московская застава", "administrative_unit": "Московский район", "Широта": 59.911142, "Долгота": 30.333899 }, "geometry": { "type": "Point", "coordinates": [ 30.333899, 59.911142 ] } },
{ "type": "Feature", "properties": { "service_name": "Jaecoo Рольф", "address": "Полюстровский проспект, 68а", "municipality": "Сампсониевское", "administrative_unit": "Выборгский район", "Широта": 59.981946, "Долгота": 30.363482 }, "geometry": { "type": "Point", "coordinates": [ 30.363482, 59.981946 ] } },
{ "type": "Feature", "properties": { "service_name": "Jaecoo РРТ Пулково", "address": "Пулковское шоссе, 36 к2", "municipality": "Звездное", "administrative_unit": "Московский район", "Широта": 59.822724, "Долгота": 30.32461 }, "geometry": { "type": "Point", "coordinates": [ 30.32461, 59.822724 ] } },
{ "type": "Feature", "properties": { "service_name": "JAECOO Центр Сигма", "address": "Петроградская набережная, 30 лит А", "municipality": "Посадский", "administrative_unit": "Петроградский район", "Широта": 59.961646, "Долгота": 30.334418 }, "geometry": { "type": "Point", "coordinates": [ 30.334418, 59.961646 ] } },
{ "type": "Feature", "properties": { "service_name": "Jaguar Рольф автопрайм", "address": "Полюстровский проспект, 79", "municipality": "Финляндский", "administrative_unit": "Калининский район", "Широта": 59.984794, "Долгота": 30.361366 }, "geometry": { "type": "Point", "coordinates": [ 30.361366, 59.984794 ] } },
{ "type": "Feature", "properties": { "service_name": "Jetour Карс Фэмили", "address": "проспект Маршала Жукова, 25 к1", "municipality": "Юго-Запад", "administrative_unit": "Красносельский район", "Широта": 59.86095, "Долгота": 30.233308 }, "geometry": { "type": "Point", "coordinates": [ 30.233308, 59.86095 ] } },
{ "type": "Feature", "properties": { "service_name": "Kaiyi Мега-Авто", "address": "проспект Медиков, 8 к1", "municipality": "Аптекарский остров", "administrative_unit": "Петроградский район", "Широта": 59.972946, "Долгота": 30.315241 }, "geometry": { "type": "Point", "coordinates": [ 30.315241, 59.972946 ] } },
{ "type": "Feature", "properties": { "service_name": "Kia Мотор Ленд", "address": "Ириновский проспект, 10а", "municipality": "Пороховые", "administrative_unit": "Красногвардейский район", "Широта": 59.954426, "Долгота": 30.459226 }, "geometry": { "type": "Point", "coordinates": [ 30.459226, 59.954426 ] } },
{ "type": "Feature", "properties": { "service_name": "Kia Рольф Пулково", "address": "Стартовая, 4 лит А", "municipality": "Пулковский меридиан", "administrative_unit": "Московский район", "Широта": 59.809825, "Долгота": 30.319417 }, "geometry": { "type": "Point", "coordinates": [ 30.319417, 59.809825 ] } },
{ "type": "Feature", "properties": { "service_name": "Ks AutoHouse", "address": "Невский проспект, 114-116", "municipality": "Литейный", "administrative_unit": "Центральный район", "Широта": 59.931588, "Долгота": 30.359678 }, "geometry": { "type": "Point", "coordinates": [ 30.359678, 59.931588 ] } },
{ "type": "Feature", "properties": { "service_name": "Lada Карс Фэмили", "address": "проспект Косыгина, 2 к1", "municipality": "Пороховые", "administrative_unit": "Красногвардейский район", "Широта": 59.93878, "Долгота": 30.450538 }, "geometry": { "type": "Point", "coordinates": [ 30.450538, 59.93878 ] } },
{ "type": "Feature", "properties": { "service_name": "Lapin cars", "address": "Ириновский проспект, 14 к1", "municipality": "Пороховые", "administrative_unit": "Красногвардейский район", "Широта": 59.955777, "Долгота": 30.463999 }, "geometry": { "type": "Point", "coordinates": [ 30.463999, 59.955777 ] } },
{ "type": "Feature", "properties": { "service_name": "Li Auto Стартовая", "address": "Стартовая, 10", "municipality": "Пулковский меридиан", "administrative_unit": "Московский район", "Широта": 59.807124, "Долгота": 30.312372 }, "geometry": { "type": "Point", "coordinates": [ 30.312372, 59.807124 ] } },
{ "type": "Feature", "properties": { "service_name": "Major - Официальный дилер Genesis", "address": "улица Исполкомская, 15 лит А", "municipality": "Смольнинское", "administrative_unit": "Центральный район", "Широта": 59.929242, "Долгота": 30.382945 }, "geometry": { "type": "Point", "coordinates": [ 30.382945, 59.929242 ] } },
{ "type": "Feature", "properties": { "service_name": "Major expert", "address": "Орбели, 35 к2", "municipality": "Светлановское", "administrative_unit": "Выборгский район", "Широта": 60.007909, "Долгота": 30.340862 }, "geometry": { "type": "Point", "coordinates": [ 30.340862, 60.007909 ] } },
{ "type": "Feature", "properties": { "service_name": "Major expert", "address": "улица Исполкомская, 15 лит А", "municipality": "Смольнинское", "administrative_unit": "Центральный район", "Широта": 59.929242, "Долгота": 30.382945 }, "geometry": { "type": "Point", "coordinates": [ 30.382945, 59.929242 ] } },
{ "type": "Feature", "properties": { "service_name": "Major Olimp - официальный дилер Cadillac", "address": "улица Исполкомская, 15 лит А", "municipality": "Смольнинское", "administrative_unit": "Центральный район", "Широта": 59.929242, "Долгота": 30.382945 }, "geometry": { "type": "Point", "coordinates": [ 30.382945, 59.929242 ] } },
{ "type": "Feature", "properties": { "service_name": "Mazda Рольф Лахта", "address": "улица Савушкина, 103", "municipality": "Муниципальный округ №65", "administrative_unit": "Приморский район", "Широта": 59.984786, "Долгота": 30.245348 }, "geometry": { "type": "Point", "coordinates": [ 30.245348, 59.984786 ] } },
{ "type": "Feature", "properties": { "service_name": "Mini Аксель-Моторс Север", "address": "Кушелевская дорога, 14", "municipality": "Пискарёвка", "administrative_unit": "Калининский район", "Широта": 59.989608, "Долгота": 30.370851 }, "geometry": { "type": "Point", "coordinates": [ 30.370851, 59.989608 ] } },
{ "type": "Feature", "properties": { "service_name": "Mitsubishi Максимум - официальный дилер Mitsubishi ", "address": "улица Руставели, 53", "municipality": "Муниципальный округ №21", "administrative_unit": "Калининский район", "Широта": 60.024128, "Долгота": 30.433607 }, "geometry": { "type": "Point", "coordinates": [ 30.433607, 60.024128 ] } },
{ "type": "Feature", "properties": { "service_name": "Mitsubishi РОЛЬФ Витебский", "address": "Витебский проспект, 17 к6", "municipality": "Гагаринское", "administrative_unit": "Московский район", "Широта": 59.868832, "Долгота": 30.35417 }, "geometry": { "type": "Point", "coordinates": [ 30.35417, 59.868832 ] } },
{ "type": "Feature", "properties": { "service_name": "Mitsubishi Рольф Лахта", "address": "улица Стародеревенская, 3а", "municipality": "Муниципальный округ №65", "administrative_unit": "Приморский район", "Широта": 59.986594, "Долгота": 30.243873 }, "geometry": { "type": "Point", "coordinates": [ 30.243873, 59.986594 ] } },
{ "type": "Feature", "properties": { "service_name": "Mitsubishi Форсаж - Официальный дилер Митсубиши ", "address": "улица Хошимина, 1", "municipality": "Шувалово-Озерки", "administrative_unit": "Выборгский район", "Широта": 60.049307, "Долгота": 30.313044 }, "geometry": { "type": "Point", "coordinates": [ 30.313044, 60.049307 ] } },
{ "type": "Feature", "properties": { "service_name": "Motorville", "address": "проспект Народного Ополчения, 40", "municipality": "Ульянка", "administrative_unit": "Кировский район", "Широта": 59.828092, "Долгота": 30.237974 }, "geometry": { "type": "Point", "coordinates": [ 30.237974, 59.828092 ] } },
{ "type": "Feature", "properties": { "service_name": "MultiCars", "address": "улица Кубинская, 79", "municipality": "Новоизмайловское", "administrative_unit": "Московский район", "Широта": 59.838849, "Долгота": 30.299708 }, "geometry": { "type": "Point", "coordinates": [ 30.299708, 59.838849 ] } },
{ "type": "Feature", "properties": { "service_name": "Nippon cars", "address": "Социалистическая улица, 21", "municipality": "Владимирский", "administrative_unit": "Центральный район", "Широта": 59.92038, "Долгота": 30.346194 }, "geometry": { "type": "Point", "coordinates": [ 30.346194, 59.92038 ] } },
{ "type": "Feature", "properties": { "service_name": "OMODA Аларм-моторс", "address": "Выборгское шоссе, 27 к1", "municipality": "Шувалово-Озерки", "administrative_unit": "Выборгский район", "Широта": 60.060406, "Долгота": 30.30608 }, "geometry": { "type": "Point", "coordinates": [ 30.30608, 60.060406 ] } },
{ "type": "Feature", "properties": { "service_name": "OMODA ИАТ Приморский", "address": "улица Школьная, 98а", "municipality": "Муниципальный округ №65", "administrative_unit": "Приморский район", "Широта": 59.990129, "Долгота": 30.222422 }, "geometry": { "type": "Point", "coordinates": [ 30.222422, 59.990129 ] } },
{ "type": "Feature", "properties": { "service_name": "Omoda Ключавто", "address": "улица Руставели, 31а", "municipality": "Пискарёвка", "administrative_unit": "Калининский район", "Широта": 60.007881, "Долгота": 30.436252 }, "geometry": { "type": "Point", "coordinates": [ 30.436252, 60.007881 ] } },
{ "type": "Feature", "properties": { "service_name": "OMODA Максимум Обводный", "address": "Рыбинская улица, 1 лит З", "municipality": "Московская застава", "administrative_unit": "Московский район", "Широта": 59.911142, "Долгота": 30.333899 }, "geometry": { "type": "Point", "coordinates": [ 30.333899, 59.911142 ] } },
{ "type": "Feature", "properties": { "service_name": "Omoda Олимп Нева ", "address": "улица Исполкомская, 15", "municipality": "Смольнинское", "administrative_unit": "Центральный район", "Широта": 59.929242, "Долгота": 30.382945 }, "geometry": { "type": "Point", "coordinates": [ 30.382945, 59.929242 ] } },
{ "type": "Feature", "properties": { "service_name": "Omoda Петровский", "address": "улица Софийская, 87", "municipality": "Александровский", "administrative_unit": "Фрунзенский район", "Широта": 59.84511, "Долгота": 30.430647 }, "geometry": { "type": "Point", "coordinates": [ 30.430647, 59.84511 ] } },
{ "type": "Feature", "properties": { "service_name": "Omoda Сигма Авто", "address": "Большой проспект В.О., 98а", "municipality": "Гавань", "administrative_unit": "Василеостровский район", "Широта": 59.927954, "Долгота": 30.245819 }, "geometry": { "type": "Point", "coordinates": [ 30.245819, 59.927954 ] } },
{ "type": "Feature", "properties": { "service_name": "Ora Аларм-Моторс", "address": "Выборгское шоссе, 23 к1", "municipality": "Шувалово-Озерки", "administrative_unit": "Выборгский район", "Широта": 60.059601, "Долгота": 30.306503 }, "geometry": { "type": "Point", "coordinates": [ 30.306503, 60.059601 ] } },
{ "type": "Feature", "properties": { "service_name": "Original Island", "address": "Выборгская набережная, 55", "municipality": "Сампсониевское", "administrative_unit": "Выборгский район", "Широта": 59.977454, "Долгота": 30.328442 }, "geometry": { "type": "Point", "coordinates": [ 30.328442, 59.977454 ] } },
{ "type": "Feature", "properties": { "service_name": "Outlet auto village", "address": "проспект Культуры, 61 лит В", "municipality": null, "administrative_unit": null, "Широта": 60.077111, "Долгота": 30.377546 }, "geometry": { "type": "Point", "coordinates": [ 30.377546, 60.077111 ] } },
{ "type": "Feature", "properties": { "service_name": "Pango Центр Бета", "address": "Пулковское шоссе, 70 лит Б", "municipality": "Шушары пос.", "administrative_unit": "Пушкинский район", "Широта": 59.783197, "Долгота": 30.328989 }, "geometry": { "type": "Point", "coordinates": [ 30.328989, 59.783197 ] } },
{ "type": "Feature", "properties": { "service_name": "Pango Центр Бета", "address": "улица Софийская, 2", "municipality": "Волковское", "administrative_unit": "Фрунзенский район", "Широта": 59.888148, "Долгота": 30.383197 }, "geometry": { "type": "Point", "coordinates": [ 30.383197, 59.888148 ] } },
{ "type": "Feature", "properties": { "service_name": "Place Auto", "address": "Нарвский проспект, 22", "municipality": "Екатерингофский", "administrative_unit": "Адмиралтейский район", "Широта": 59.902461, "Долгота": 30.273793 }, "geometry": { "type": "Point", "coordinates": [ 30.273793, 59.902461 ] } },
{ "type": "Feature", "properties": { "service_name": "Porsche центр Невский", "address": "Октябрьская набережная, 8 к5", "municipality": "Невский", "administrative_unit": "Невский район", "Широта": 59.913189, "Долгота": 30.41901 }, "geometry": { "type": "Point", "coordinates": [ 30.41901, 59.913189 ] } },
{ "type": "Feature", "properties": { "service_name": "Power yard", "address": "улица Комсомола, 5 к2", "municipality": "Финляндский", "administrative_unit": "Калининский район", "Широта": 59.955426, "Долгота": 30.36886 }, "geometry": { "type": "Point", "coordinates": [ 30.36886, 59.955426 ] } },
{ "type": "Feature", "properties": { "service_name": "Pro Import Group", "address": "Малый проспект В.О., 62 к1", "municipality": "Васильевский", "administrative_unit": "Василеостровский район", "Широта": 59.940396, "Долгота": 30.252395 }, "geometry": { "type": "Point", "coordinates": [ 30.252395, 59.940396 ] } },
{ "type": "Feature", "properties": { "service_name": "Proautosfera", "address": "Передовиков, 20 лит А", "municipality": "Пороховые", "administrative_unit": "Красногвардейский район", "Широта": 59.949689, "Долгота": 30.454605 }, "geometry": { "type": "Point", "coordinates": [ 30.454605, 59.949689 ] } },
{ "type": "Feature", "properties": { "service_name": "Renault Петровский", "address": "Выборгское шоссе, 31 к3", "municipality": "Шувалово-Озерки", "administrative_unit": "Выборгский район", "Широта": 60.064669, "Долгота": 30.302624 }, "geometry": { "type": "Point", "coordinates": [ 30.302624, 60.064669 ] } },
{ "type": "Feature", "properties": { "service_name": "Renault Петровский", "address": "улица Руставели, 31", "municipality": "Пискарёвка", "administrative_unit": "Калининский район", "Широта": 60.008349, "Долгота": 30.435932 }, "geometry": { "type": "Point", "coordinates": [ 30.435932, 60.008349 ] } },
{ "type": "Feature", "properties": { "service_name": "Renault Петровский", "address": "улица Софийская, 87", "municipality": "Александровский", "administrative_unit": "Фрунзенский район", "Широта": 59.84511, "Долгота": 30.430647 }, "geometry": { "type": "Point", "coordinates": [ 30.430647, 59.84511 ] } },
{ "type": "Feature", "properties": { "service_name": "Renault Рольф автопрайм", "address": "Полюстровский проспект, 68а", "municipality": "Сампсониевское", "administrative_unit": "Выборгский район", "Широта": 59.982123, "Долгота": 30.363943 }, "geometry": { "type": "Point", "coordinates": [ 30.363943, 59.982123 ] } },
{ "type": "Feature", "properties": { "service_name": "Renault Рольф Лахта", "address": "улица Савушкина, 103 лит Б", "municipality": "Муниципальный округ №65", "administrative_unit": "Приморский район", "Широта": 59.984765, "Долгота": 30.246058 }, "geometry": { "type": "Point", "coordinates": [ 30.246058, 59.984765 ] } },
{ "type": "Feature", "properties": { "service_name": "Rus Inter Car", "address": "Магнитогорская, 51 лит Е", "municipality": "Большая Охта", "administrative_unit": "Красногвардейский район", "Широта": 59.939468, "Долгота": 30.433087 }, "geometry": { "type": "Point", "coordinates": [ 30.433087, 59.939468 ] } },
{ "type": "Feature", "properties": { "service_name": "ShiftMotors", "address": "проспект Энергетиков, 53Б", "municipality": "Полюстрово", "administrative_unit": "Красногвардейский район", "Широта": 59.966793, "Долгота": 30.43835 }, "geometry": { "type": "Point", "coordinates": [ 30.43835, 59.966793 ] } },
{ "type": "Feature", "properties": { "service_name": "Ska-auto", "address": "Комендантский проспект, 44 к2 ст1", "municipality": "Юнтолово", "administrative_unit": "Приморский район", "Широта": 60.026339, "Долгота": 30.235077 }, "geometry": { "type": "Point", "coordinates": [ 30.235077, 60.026339 ] } },
{ "type": "Feature", "properties": { "service_name": "Skewer", "address": "Лётчика Пилютова, 54 к1", "municipality": "Константиновское", "administrative_unit": "Красносельский район", "Широта": 59.826054, "Долгота": 30.140734 }, "geometry": { "type": "Point", "coordinates": [ 30.140734, 59.826054 ] } },
{ "type": "Feature", "properties": { "service_name": "Skoda Рольф Витебский", "address": "Витебский проспект, 17 к6а", "municipality": "Гагаринское", "administrative_unit": "Московский район", "Широта": 59.869394, "Долгота": 30.354188 }, "geometry": { "type": "Point", "coordinates": [ 30.354188, 59.869394 ] } },
{ "type": "Feature", "properties": { "service_name": "Skywell Cars Family", "address": "проспект Энергетиков, 59 к3", "municipality": "Полюстрово", "administrative_unit": "Красногвардейский район", "Широта": 59.97505, "Долгота": 30.443855 }, "geometry": { "type": "Point", "coordinates": [ 30.443855, 59.97505 ] } },
{ "type": "Feature", "properties": { "service_name": "Spb avto", "address": "улица Краснопутиловская, 44а", "municipality": "Автово", "administrative_unit": "Кировский район", "Широта": 59.866252, "Долгота": 30.280535 }, "geometry": { "type": "Point", "coordinates": [ 30.280535, 59.866252 ] } },
{ "type": "Feature", "properties": { "service_name": "Subaru", "address": "проспект Науки, 50 к2 лит А", "municipality": "Пискарёвка", "administrative_unit": "Калининский район", "Широта": 60.004675, "Долгота": 30.434157 }, "geometry": { "type": "Point", "coordinates": [ 30.434157, 60.004675 ] } },
{ "type": "Feature", "properties": { "service_name": "Subaru", "address": "Пулковское шоссе, 27", "municipality": "Пулковский меридиан", "administrative_unit": "Московский район", "Широта": 59.815313, "Долгота": 30.321591 }, "geometry": { "type": "Point", "coordinates": [ 30.321591, 59.815313 ] } },
{ "type": "Feature", "properties": { "service_name": "Subaru", "address": "улица Савушкина, 119 к4 лит А", "municipality": "Муниципальный округ №65", "administrative_unit": "Приморский район", "Широта": 59.986416, "Долгота": 30.229063 }, "geometry": { "type": "Point", "coordinates": [ 30.229063, 59.986416 ] } },
{ "type": "Feature", "properties": { "service_name": "Tank Аларм-Моторс", "address": "Выборгское шоссе, 23 к1", "municipality": "Шувалово-Озерки", "administrative_unit": "Выборгский район", "Широта": 60.059797, "Долгота": 30.306363 }, "geometry": { "type": "Point", "coordinates": [ 30.306363, 60.059797 ] } },
{ "type": "Feature", "properties": { "service_name": "Tesla motors", "address": "Суздальское шоссе, 65 лит А", "municipality": "Коломяги", "administrative_unit": "Приморский район", "Широта": 60.062334, "Долгота": 30.280025 }, "geometry": { "type": "Point", "coordinates": [ 30.280025, 60.062334 ] } },
{ "type": "Feature", "properties": { "service_name": "Tesla point", "address": "проспект Маршала Блюхера, 12 к7", "municipality": "Пискарёвка", "administrative_unit": "Калининский район", "Широта": 59.981106, "Долгота": 30.378383 }, "geometry": { "type": "Point", "coordinates": [ 30.378383, 59.981106 ] } },
{ "type": "Feature", "properties": { "service_name": "Truck Garage", "address": "Мебельная улица, 11Б", "municipality": "Муниципальный округ №65", "administrative_unit": "Приморский район", "Широта": 59.995048, "Долгота": 30.226628 }, "geometry": { "type": "Point", "coordinates": [ 30.226628, 59.995048 ] } },
{ "type": "Feature", "properties": { "service_name": "Volkswagen Форсаж Озерки", "address": "Выборгское шоссе, 27 к2 лит Б", "municipality": "Шувалово-Озерки", "administrative_unit": "Выборгский район", "Широта": 60.061678, "Долгота": 30.304864 }, "geometry": { "type": "Point", "coordinates": [ 30.304864, 60.061678 ] } },
{ "type": "Feature", "properties": { "service_name": "Volvo car family", "address": "проспект Маршала Жукова, 25 к1", "municipality": "Юго-Запад", "administrative_unit": "Красносельский район", "Широта": 59.860911, "Долгота": 30.23325 }, "geometry": { "type": "Point", "coordinates": [ 30.23325, 59.860911 ] } },
{ "type": "Feature", "properties": { "service_name": "Volvo car family", "address": "проспект Энергетиков, 59 к3", "municipality": "Полюстрово", "administrative_unit": "Красногвардейский район", "Широта": 59.975366, "Долгота": 30.443463 }, "geometry": { "type": "Point", "coordinates": [ 30.443463, 59.975366 ] } },
{ "type": "Feature", "properties": { "service_name": "Volvo car Суздальский", "address": "Придорожная аллея, 16г", "municipality": "Сергиевское", "administrative_unit": "Выборгский район", "Широта": 60.056368, "Долгота": 30.359098 }, "geometry": { "type": "Point", "coordinates": [ 30.359098, 60.056368 ] } },
{ "type": "Feature", "properties": { "service_name": "Voyah Автопродикс", "address": "Дунайский проспект, 15 к2", "municipality": "Звездное", "administrative_unit": "Московский район", "Широта": 59.829786, "Долгота": 30.342499 }, "geometry": { "type": "Point", "coordinates": [ 30.342499, 59.829786 ] } },
{ "type": "Feature", "properties": { "service_name": "Voyah Рольф", "address": "Полюстровский проспект, 68а", "municipality": "Сампсониевское", "administrative_unit": "Выборгский район", "Широта": 59.981991, "Долгота": 30.363661 }, "geometry": { "type": "Point", "coordinates": [ 30.363661, 59.981991 ] } },
{ "type": "Feature", "properties": { "service_name": "Vs Cars", "address": "Индустриальный проспект, 44 к2", "municipality": "Пороховые", "administrative_unit": "Красногвардейский район", "Широта": 59.959513, "Долгота": 30.461105 }, "geometry": { "type": "Point", "coordinates": [ 30.461105, 59.959513 ] } },
{ "type": "Feature", "properties": { "service_name": "Zeekr Стартовая", "address": "Стартовая, 10", "municipality": "Пулковский меридиан", "administrative_unit": "Московский район", "Широта": 59.807124, "Долгота": 30.312372 }, "geometry": { "type": "Point", "coordinates": [ 30.312372, 59.807124 ] } },
{ "type": "Feature", "properties": { "service_name": "Авангард", "address": "Приморский проспект, 54 к3", "municipality": "Муниципальный округ №65", "administrative_unit": "Приморский район", "Широта": 59.983611, "Долгота": 30.23309 }, "geometry": { "type": "Point", "coordinates": [ 30.23309, 59.983611 ] } },
{ "type": "Feature", "properties": { "service_name": "Авангард", "address": "Приморский проспект, 54 к4 лит А", "municipality": "Муниципальный округ №65", "administrative_unit": "Приморский район", "Широта": 59.984318, "Долгота": 30.232044 }, "geometry": { "type": "Point", "coordinates": [ 30.232044, 59.984318 ] } },
{ "type": "Feature", "properties": { "service_name": "Авангард Skywell", "address": "Приморский проспект, 54 к3", "municipality": "Муниципальный округ №65", "administrative_unit": "Приморский район", "Широта": 59.983866, "Долгота": 30.232988 }, "geometry": { "type": "Point", "coordinates": [ 30.232988, 59.983866 ] } },
{ "type": "Feature", "properties": { "service_name": "Авангард Tank", "address": "Приморский проспект, 54 к3", "municipality": "Муниципальный округ №65", "administrative_unit": "Приморский район", "Широта": 59.983777, "Долгота": 30.233167 }, "geometry": { "type": "Point", "coordinates": [ 30.233167, 59.983777 ] } },
{ "type": "Feature", "properties": { "service_name": "Авангард Лахта", "address": "Приморский проспект, 54 к4 лит А", "municipality": "Муниципальный округ №65", "administrative_unit": "Приморский район", "Широта": 59.984318, "Долгота": 30.232044 }, "geometry": { "type": "Point", "coordinates": [ 30.232044, 59.984318 ] } },
{ "type": "Feature", "properties": { "service_name": "Авангард Пискаревский", "address": "Пискарёвский проспект, 2 к3 лит Б", "municipality": "Финляндский", "administrative_unit": "Калининский район", "Широта": 59.958103, "Долгота": 30.404246 }, "geometry": { "type": "Point", "coordinates": [ 30.404246, 59.958103 ] } },
{ "type": "Feature", "properties": { "service_name": "Авария-авто", "address": "Пугачёва, 5-7", "municipality": "Большая Охта", "administrative_unit": "Красногвардейский район", "Широта": 59.949891, "Долгота": 30.41801 }, "geometry": { "type": "Point", "coordinates": [ 30.41801, 59.949891 ] } },
{ "type": "Feature", "properties": { "service_name": "Аврора", "address": "проспект Юрия Гагарина, 32 к6 лит А", "municipality": "Гагаринское", "administrative_unit": "Московский район", "Широта": 59.850315, "Долгота": 30.339058 }, "geometry": { "type": "Point", "coordinates": [ 30.339058, 59.850315 ] } },
{ "type": "Feature", "properties": { "service_name": "Авто Премиум - Eurorepar", "address": "проспект Энгельса, 33 к1", "municipality": "Светлановское", "administrative_unit": "Выборгский район", "Широта": 60.010364, "Долгота": 30.326429 }, "geometry": { "type": "Point", "coordinates": [ 30.326429, 60.010364 ] } },
{ "type": "Feature", "properties": { "service_name": "Авто Премиум, ŠKODA", "address": "проспект Энгельса, 35", "municipality": "Светлановское", "administrative_unit": "Выборгский район", "Широта": 60.010727, "Долгота": 30.325985 }, "geometry": { "type": "Point", "coordinates": [ 30.325985, 60.010727 ] } },
{ "type": "Feature", "properties": { "service_name": "Авто Премиум, ŠKODA", "address": "улица Руставели, 25 к2", "municipality": "Пискарёвка", "administrative_unit": "Калининский район", "Широта": 60.006201, "Долгота": 30.437118 }, "geometry": { "type": "Point", "coordinates": [ 30.437118, 60.006201 ] } },
{ "type": "Feature", "properties": { "service_name": "Авто Премиум, ŠKODA", "address": "Хасанская, 5", "municipality": "Пороховые", "administrative_unit": "Красногвардейский район", "Широта": 59.93653, "Долгота": 30.478812 }, "geometry": { "type": "Point", "coordinates": [ 30.478812, 59.93653 ] } },
{ "type": "Feature", "properties": { "service_name": "Автобиография центр Jaguar Land Rover", "address": "набережная Обводного канала, 72 ст2", "municipality": "Московская застава", "administrative_unit": "Московский район", "Широта": 59.912114, "Долгота": 30.333201 }, "geometry": { "type": "Point", "coordinates": [ 30.333201, 59.912114 ] } },
{ "type": "Feature", "properties": { "service_name": "Автобург", "address": "проспект Энергетиков, 53 лит А", "municipality": "Полюстрово", "administrative_unit": "Красногвардейский район", "Широта": 59.965335, "Долгота": 30.43826 }, "geometry": { "type": "Point", "coordinates": [ 30.43826, 59.965335 ] } },
{ "type": "Feature", "properties": { "service_name": "Автовернисаж", "address": "Малый проспект В.О., 62 к1", "municipality": "Васильевский", "administrative_unit": "Василеостровский район", "Широта": 59.940654, "Долгота": 30.253082 }, "geometry": { "type": "Point", "coordinates": [ 30.253082, 59.940654 ] } },
{ "type": "Feature", "properties": { "service_name": "Автогалерея", "address": "проспект Маршала Жукова, 76 к2", "municipality": "Ульянка", "administrative_unit": "Кировский район", "Широта": 59.826816, "Долгота": 30.190476 }, "geometry": { "type": "Point", "coordinates": [ 30.190476, 59.826816 ] } },
{ "type": "Feature", "properties": { "service_name": "Автогольдер", "address": "улица Оптиков, 4 к2", "municipality": "Муниципальный округ №65", "administrative_unit": "Приморский район", "Широта": 59.995557, "Долгота": 30.249399 }, "geometry": { "type": "Point", "coordinates": [ 30.249399, 59.995557 ] } },
{ "type": "Feature", "properties": { "service_name": "Автодом BMW Стартовая", "address": "Стартовая, 10", "municipality": "Пулковский меридиан", "administrative_unit": "Московский район", "Широта": 59.806933, "Долгота": 30.313334 }, "geometry": { "type": "Point", "coordinates": [ 30.313334, 59.806933 ] } },
{ "type": "Feature", "properties": { "service_name": "Автодом BMW Стартовая", "address": "Стартовая, 10", "municipality": "Пулковский меридиан", "administrative_unit": "Московский район", "Широта": 59.807124, "Долгота": 30.312372 }, "geometry": { "type": "Point", "coordinates": [ 30.312372, 59.807124 ] } },
{ "type": "Feature", "properties": { "service_name": "Автодом Lamborghini Санкт-Петербург", "address": "Пулковское шоссе, 14 лит А", "municipality": "Звездное", "administrative_unit": "Московский район", "Широта": 59.831509, "Долгота": 30.324018 }, "geometry": { "type": "Point", "coordinates": [ 30.324018, 59.831509 ] } },
{ "type": "Feature", "properties": { "service_name": "Автодом MINI Стартовая", "address": "Стартовая, 10", "municipality": "Пулковский меридиан", "administrative_unit": "Московский район", "Широта": 59.807124, "Долгота": 30.312372 }, "geometry": { "type": "Point", "coordinates": [ 30.312372, 59.807124 ] } },
{ "type": "Feature", "properties": { "service_name": "Автодом Порше Центр Пулково", "address": "Пулковское шоссе, 14 лит Б", "municipality": "Звездное", "administrative_unit": "Московский район", "Широта": 59.831837, "Долгота": 30.323759 }, "geometry": { "type": "Point", "coordinates": [ 30.323759, 59.831837 ] } },
{ "type": "Feature", "properties": { "service_name": "Автодом Пулково", "address": "Пулковское шоссе, 14а", "municipality": "Звездное", "administrative_unit": "Московский район", "Широта": 59.831621, "Долгота": 30.323768 }, "geometry": { "type": "Point", "coordinates": [ 30.323768, 59.831621 ] } },
{ "type": "Feature", "properties": { "service_name": "Автодом Пулково – официальный дилер Mercedes-Benz", "address": "Пулковское шоссе, 14 лит А", "municipality": "Звездное", "administrative_unit": "Московский район", "Широта": 59.831509, "Долгота": 30.324018 }, "geometry": { "type": "Point", "coordinates": [ 30.324018, 59.831509 ] } },
{ "type": "Feature", "properties": { "service_name": "Автодом Стачек", "address": "проспект Стачек, 106", "municipality": "Княжево", "administrative_unit": "Кировский район", "Широта": 59.861365, "Долгота": 30.2624 }, "geometry": { "type": "Point", "coordinates": [ 30.2624, 59.861365 ] } },
{ "type": "Feature", "properties": { "service_name": "Автодрайв", "address": "улица Камчатская, 3а", "municipality": "Волковское", "administrative_unit": "Фрунзенский район", "Широта": 59.905109, "Долгота": 30.353943 }, "geometry": { "type": "Point", "coordinates": [ 30.353943, 59.905109 ] } },
{ "type": "Feature", "properties": { "service_name": "Автодрайв78", "address": "улица Бухарестская, 6", "municipality": "Волковское", "administrative_unit": "Фрунзенский район", "Широта": 59.892866, "Долгота": 30.359314 }, "geometry": { "type": "Point", "coordinates": [ 30.359314, 59.892866 ] } },
{ "type": "Feature", "properties": { "service_name": "АвтоИмпорт", "address": "улица Оптиков, 4 к2 лит А", "municipality": "Муниципальный округ №65", "administrative_unit": "Приморский район", "Широта": 59.995659, "Долгота": 30.24879 }, "geometry": { "type": "Point", "coordinates": [ 30.24879, 59.995659 ] } },
{ "type": "Feature", "properties": { "service_name": "Автоимпульс", "address": "Кржижановского, 12", "municipality": "Правобережный", "administrative_unit": "Невский район", "Широта": 59.93048, "Долгота": 30.485502 }, "geometry": { "type": "Point", "coordinates": [ 30.485502, 59.93048 ] } },
{ "type": "Feature", "properties": { "service_name": "АвтоКасса", "address": "проспект Энергетиков, 53 к2", "municipality": "Полюстрово", "administrative_unit": "Красногвардейский район", "Широта": 59.965514, "Долгота": 30.438235 }, "geometry": { "type": "Point", "coordinates": [ 30.438235, 59.965514 ] } },
{ "type": "Feature", "properties": { "service_name": "Автомиг", "address": "улица Краснопутиловская, 69", "municipality": "Автово", "administrative_unit": "Кировский район", "Широта": 59.860341, "Долгота": 30.287282 }, "geometry": { "type": "Point", "coordinates": [ 30.287282, 59.860341 ] } },
{ "type": "Feature", "properties": { "service_name": "Автомир, Changan", "address": "Дунайский проспект, 25 к3", "municipality": "Гагаринское", "administrative_unit": "Московский район", "Широта": 59.831693, "Долгота": 30.358915 }, "geometry": { "type": "Point", "coordinates": [ 30.358915, 59.831693 ] } },
{ "type": "Feature", "properties": { "service_name": "Автомир, официальный дилер Kia", "address": "Дунайский проспект, 25 к3", "municipality": "Гагаринское", "administrative_unit": "Московский район", "Широта": 59.831292, "Долгота": 30.35952 }, "geometry": { "type": "Point", "coordinates": [ 30.35952, 59.831292 ] } },
{ "type": "Feature", "properties": { "service_name": "Автомир, официальный дилер Suzuki", "address": "Дунайский проспект, 25 к3а", "municipality": "Гагаринское", "administrative_unit": "Московский район", "Широта": 59.831693, "Долгота": 30.358915 }, "geometry": { "type": "Point", "coordinates": [ 30.358915, 59.831693 ] } },
{ "type": "Feature", "properties": { "service_name": "Автомир, официальный дилер Москвич", "address": "Дунайский проспект, 25 к3", "municipality": "Гагаринское", "administrative_unit": "Московский район", "Широта": 59.83199, "Долгота": 30.36609 }, "geometry": { "type": "Point", "coordinates": [ 30.36609, 59.83199 ] } },
{ "type": "Feature", "properties": { "service_name": "Автополе pro на Неве", "address": "Октябрьская набережная, 44 к1 ст1", "municipality": "Муниципальный округ №54", "administrative_unit": "Невский район", "Широта": 59.893856, "Долгота": 30.447784 }, "geometry": { "type": "Point", "coordinates": [ 30.447784, 59.893856 ] } },
{ "type": "Feature", "properties": { "service_name": "Автополе на Неве JAC", "address": "Октябрьская набережная, 44 к1 ст1", "municipality": "Муниципальный округ №54", "administrative_unit": "Невский район", "Широта": 59.894003, "Долгота": 30.447746 }, "geometry": { "type": "Point", "coordinates": [ 30.447746, 59.894003 ] } },
{ "type": "Feature", "properties": { "service_name": "Автопродикс - официальный дилер Baic", "address": "улица Руставели, 55 к1", "municipality": "Муниципальный округ №21", "administrative_unit": "Калининский район", "Широта": 60.025259, "Долгота": 30.433716 }, "geometry": { "type": "Point", "coordinates": [ 30.433716, 60.025259 ] } },
{ "type": "Feature", "properties": { "service_name": "Автопродикс - официальный дилер Baic", "address": "улица Руставели, 55 к1 ст2", "municipality": "Муниципальный округ №21", "administrative_unit": "Калининский район", "Широта": 60.025895, "Долгота": 30.433685 }, "geometry": { "type": "Point", "coordinates": [ 30.433685, 60.025895 ] } },
{ "type": "Feature", "properties": { "service_name": "Автопродикс - официальный дилер Haval", "address": "Дальневосточный проспект, 12 к1", "municipality": "Правобережный", "administrative_unit": "Невский район", "Широта": 59.914451, "Долгота": 30.436391 }, "geometry": { "type": "Point", "coordinates": [ 30.436391, 59.914451 ] } },
{ "type": "Feature", "properties": { "service_name": "Автопродикс - официальный дилер Jetour", "address": "Московское шоссе, 11 к1", "municipality": "Звездное", "administrative_unit": "Московский район", "Широта": 59.829836, "Долгота": 30.344731 }, "geometry": { "type": "Point", "coordinates": [ 30.344731, 59.829836 ] } },
{ "type": "Feature", "properties": { "service_name": "Автопродикс - официальный дилер Kaiyi ", "address": "улица Руставели, 55 к1", "municipality": "Муниципальный округ №21", "administrative_unit": "Калининский район", "Широта": 60.025259, "Долгота": 30.433716 }, "geometry": { "type": "Point", "coordinates": [ 30.433716, 60.025259 ] } },
{ "type": "Feature", "properties": { "service_name": "Автопродикс - официальный дилер Renault", "address": "Седова, 13 к3", "municipality": "Невская застава", "administrative_unit": "Невский район", "Широта": 59.898687, "Долгота": 30.404239 }, "geometry": { "type": "Point", "coordinates": [ 30.404239, 59.898687 ] } },
{ "type": "Feature", "properties": { "service_name": "Автопродикс, Nissan", "address": "Московское шоссе, 11 к1", "municipality": "Звездное", "administrative_unit": "Московский район", "Широта": 59.829641, "Долгота": 30.344487 }, "geometry": { "type": "Point", "coordinates": [ 30.344487, 59.829641 ] } },
{ "type": "Feature", "properties": { "service_name": "Автопродикс, Nissan", "address": "улица Школьная, 71 к2", "municipality": "Муниципальный округ №65", "administrative_unit": "Приморский район", "Широта": 59.992202, "Долгота": 30.213075 }, "geometry": { "type": "Point", "coordinates": [ 30.213075, 59.992202 ] } },
{ "type": "Feature", "properties": { "service_name": "Автопродикс, Nissan", "address": "улица Школьная, 71 к3", "municipality": "Муниципальный округ №65", "administrative_unit": "Приморский район", "Широта": 59.993205, "Долгота": 30.213202 }, "geometry": { "type": "Point", "coordinates": [ 30.213202, 59.993205 ] } },
{ "type": "Feature", "properties": { "service_name": "Автопродикс, Renault", "address": "Дальневосточный проспект, 12 к1", "municipality": "Правобережный", "administrative_unit": "Невский район", "Широта": 59.914451, "Долгота": 30.436391 }, "geometry": { "type": "Point", "coordinates": [ 30.436391, 59.914451 ] } },
{ "type": "Feature", "properties": { "service_name": "Автопродикс, официальный дилер Infiniti", "address": "Дунайский проспект, 15 к2", "municipality": "Звездное", "administrative_unit": "Московский район", "Широта": 59.829786, "Долгота": 30.342499 }, "geometry": { "type": "Point", "coordinates": [ 30.342499, 59.829786 ] } },
{ "type": "Feature", "properties": { "service_name": "Авторитэйл", "address": "улица Михаила Дудина, 17 лит Д", "municipality": "Парголово пос.", "administrative_unit": "Выборгский район", "Широта": 60.068031, "Долгота": 30.341315 }, "geometry": { "type": "Point", "coordinates": [ 30.341315, 60.068031 ] } },
{ "type": "Feature", "properties": { "service_name": "Автосалон Синдиката СПб", "address": "улица Софийская, 6", "municipality": "Волковское", "administrative_unit": "Фрунзенский район", "Широта": 59.886258, "Долгота": 30.386463 }, "geometry": { "type": "Point", "coordinates": [ 30.386463, 59.886258 ] } },
{ "type": "Feature", "properties": { "service_name": "АвтоСтабильность", "address": "Шереметьевская, 15", "municipality": "Пулковский меридиан", "administrative_unit": "Московский район", "Широта": 59.806007, "Долгота": 30.321567 }, "geometry": { "type": "Point", "coordinates": [ 30.321567, 59.806007 ] } },
{ "type": "Feature", "properties": { "service_name": "Автостиль, Changan ", "address": "улица Краснопутиловская, 65", "municipality": "Автово", "administrative_unit": "Кировский район", "Широта": 59.863374, "Долгота": 30.282538 }, "geometry": { "type": "Point", "coordinates": [ 30.282538, 59.863374 ] } },
{ "type": "Feature", "properties": { "service_name": "Автостиль, Jaecoo", "address": "улица Кубинская, 4 к1", "municipality": "Московская застава", "administrative_unit": "Московский район", "Широта": 59.877775, "Долгота": 30.299229 }, "geometry": { "type": "Point", "coordinates": [ 30.299229, 59.877775 ] } },
{ "type": "Feature", "properties": { "service_name": "Автостиль, официальный дилер Chery ", "address": "улица Руставели, 53 к1", "municipality": "Муниципальный округ №21", "administrative_unit": "Калининский район", "Широта": 60.024719, "Долгота": 30.433677 }, "geometry": { "type": "Point", "coordinates": [ 30.433677, 60.024719 ] } },
{ "type": "Feature", "properties": { "service_name": "Автостиль, официальный дилер Chery ", "address": "улица Софийская, 4а", "municipality": "Волковское", "administrative_unit": "Фрунзенский район", "Широта": 59.887478, "Долгота": 30.384757 }, "geometry": { "type": "Point", "coordinates": [ 30.384757, 59.887478 ] } },
{ "type": "Feature", "properties": { "service_name": "Автостиль, официальный дилер Chery ", "address": "шоссе Революции, 65", "municipality": "Пороховые", "administrative_unit": "Красногвардейский район", "Широта": 59.961566, "Долгота": 30.459248 }, "geometry": { "type": "Point", "coordinates": [ 30.459248, 59.961566 ] } },
{ "type": "Feature", "properties": { "service_name": "Автостиль, официальный дилер Geely", "address": "шоссе Революции, 86", "municipality": "Ржевка", "administrative_unit": "Красногвардейский район", "Широта": 59.961535, "Долгота": 30.455296 }, "geometry": { "type": "Point", "coordinates": [ 30.455296, 59.961535 ] } },
{ "type": "Feature", "properties": { "service_name": "Автостиль, официальный дилер OMODA", "address": "улица Кубинская, 4 к1", "municipality": "Московская застава", "administrative_unit": "Московский район", "Широта": 59.878473, "Долгота": 30.299462 }, "geometry": { "type": "Point", "coordinates": [ 30.299462, 59.878473 ] } },
{ "type": "Feature", "properties": { "service_name": "Автофорум Нева – официальный дилер Mercedes-Benz", "address": "Орбели, 35 к1", "municipality": "Светлановское", "administrative_unit": "Выборгский район", "Широта": 60.007017, "Долгота": 30.340987 }, "geometry": { "type": "Point", "coordinates": [ 30.340987, 60.007017 ] } },
{ "type": "Feature", "properties": { "service_name": "АвтоХом", "address": "Южное шоссе, 37 к1 лит Е", "municipality": "Александровский", "administrative_unit": "Фрунзенский район", "Широта": 59.863985, "Долгота": 30.419945 }, "geometry": { "type": "Point", "coordinates": [ 30.419945, 59.863985 ] } },
{ "type": "Feature", "properties": { "service_name": "Аксель-Моторс", "address": "Шкиперский проток, 21", "municipality": "Гавань", "administrative_unit": "Василеостровский район", "Широта": 59.934386, "Долгота": 30.228146 }, "geometry": { "type": "Point", "coordinates": [ 30.228146, 59.934386 ] } },
{ "type": "Feature", "properties": { "service_name": "Аксель-Моторс", "address": "Кушелевская дорога, 14", "municipality": "Пискарёвка", "administrative_unit": "Калининский район", "Широта": 59.989988, "Долгота": 30.372111 }, "geometry": { "type": "Point", "coordinates": [ 30.372111, 59.989988 ] } },
{ "type": "Feature", "properties": { "service_name": "Аксель-Сити", "address": "улица Якорная, 5 лит А", "municipality": "Большая Охта", "administrative_unit": "Красногвардейский район", "Широта": 59.942493, "Долгота": 30.420325 }, "geometry": { "type": "Point", "coordinates": [ 30.420325, 59.942493 ] } },
{ "type": "Feature", "properties": { "service_name": "Аксель-Сити", "address": "Тельмана, 29", "municipality": "Народный", "administrative_unit": "Невский район", "Широта": 59.89147, "Долгота": 30.474197 }, "geometry": { "type": "Point", "coordinates": [ 30.474197, 59.89147 ] } },
{ "type": "Feature", "properties": { "service_name": "Аларм Моторс ", "address": "Выборгское шоссе, 27", "municipality": "Шувалово-Озерки", "administrative_unit": "Выборгский район", "Широта": 60.060223, "Долгота": 30.306 }, "geometry": { "type": "Point", "coordinates": [ 30.306, 60.060223 ] } },
{ "type": "Feature", "properties": { "service_name": "Аларм-Моторс", "address": "Выборгское шоссе, 23 к1", "municipality": "Шувалово-Озерки", "administrative_unit": "Выборгский район", "Широта": 60.059506, "Долгота": 30.306572 }, "geometry": { "type": "Point", "coordinates": [ 30.306572, 60.059506 ] } },
{ "type": "Feature", "properties": { "service_name": "Аларм-Моторс", "address": "Выборгское шоссе, 27", "municipality": "Шувалово-Озерки", "administrative_unit": "Выборгский район", "Широта": 60.060316, "Долгота": 30.306169 }, "geometry": { "type": "Point", "coordinates": [ 30.306169, 60.060316 ] } },
{ "type": "Feature", "properties": { "service_name": "Аларм-моторс", "address": "Выборгское шоссе, 27 к1", "municipality": "Шувалово-Озерки", "administrative_unit": "Выборгский район", "Широта": 60.060491, "Долгота": 30.3058 }, "geometry": { "type": "Point", "coordinates": [ 30.3058, 60.060491 ] } },
{ "type": "Feature", "properties": { "service_name": "Аларм-Моторс", "address": "Коломяжский проспект, 18", "municipality": "Комендантский аэродром", "administrative_unit": "Приморский район", "Широта": 59.997111, "Долгота": 30.298919 }, "geometry": { "type": "Point", "coordinates": [ 30.298919, 59.997111 ] } },
{ "type": "Feature", "properties": { "service_name": "Аларм-моторс", "address": "Коломяжский проспект, 18", "municipality": "Комендантский аэродром", "administrative_unit": "Приморский район", "Широта": 59.997111, "Долгота": 30.298919 }, "geometry": { "type": "Point", "coordinates": [ 30.298919, 59.997111 ] } },
{ "type": "Feature", "properties": { "service_name": "Аларм-моторс", "address": "Коломяжский проспект, 18", "municipality": "Комендантский аэродром", "administrative_unit": "Приморский район", "Широта": 59.997111, "Долгота": 30.298919 }, "geometry": { "type": "Point", "coordinates": [ 30.298919, 59.997111 ] } },
{ "type": "Feature", "properties": { "service_name": "Аларм-моторс", "address": "Коломяжский проспект, 18", "municipality": "Комендантский аэродром", "administrative_unit": "Приморский район", "Широта": 59.997111, "Долгота": 30.298919 }, "geometry": { "type": "Point", "coordinates": [ 30.298919, 59.997111 ] } },
{ "type": "Feature", "properties": { "service_name": "Аларм-Моторс", "address": "Коломяжский проспект, 18", "municipality": "Комендантский аэродром", "administrative_unit": "Приморский район", "Широта": 59.996716, "Долгота": 30.299266 }, "geometry": { "type": "Point", "coordinates": [ 30.299266, 59.996716 ] } },
{ "type": "Feature", "properties": { "service_name": "Аларм-моторс", "address": "проспект Маршала Жукова, 51", "municipality": "Юго-Запад", "administrative_unit": "Красносельский район", "Широта": 59.847044, "Долгота": 30.213074 }, "geometry": { "type": "Point", "coordinates": [ 30.213074, 59.847044 ] } },
{ "type": "Feature", "properties": { "service_name": "Аларм-Моторс", "address": "проспект Маршала Жукова, 51", "municipality": "Юго-Запад", "administrative_unit": "Красносельский район", "Широта": 59.8471, "Долгота": 30.213581 }, "geometry": { "type": "Point", "coordinates": [ 30.213581, 59.8471 ] } },
{ "type": "Feature", "properties": { "service_name": "Аларм-Моторс", "address": "проспект Маршала Жукова, 51", "municipality": "Юго-Запад", "administrative_unit": "Красносельский район", "Широта": 59.8471, "Долгота": 30.213581 }, "geometry": { "type": "Point", "coordinates": [ 30.213581, 59.8471 ] } },
{ "type": "Feature", "properties": { "service_name": "Аларм-Моторс", "address": "проспект Маршала Жукова, 51", "municipality": "Юго-Запад", "administrative_unit": "Красносельский район", "Широта": 59.8471, "Долгота": 30.213581 }, "geometry": { "type": "Point", "coordinates": [ 30.213581, 59.8471 ] } },
{ "type": "Feature", "properties": { "service_name": "Аларм-моторс", "address": "проспект Маршала Жукова, 51", "municipality": "Юго-Запад", "administrative_unit": "Красносельский район", "Широта": 59.846917, "Долгота": 30.213314 }, "geometry": { "type": "Point", "coordinates": [ 30.213314, 59.846917 ] } },
{ "type": "Feature", "properties": { "service_name": "Аларм-Моторс", "address": "проспект Маршала Жукова, 51", "municipality": "Юго-Запад", "administrative_unit": "Красносельский район", "Широта": 59.846954, "Долгота": 30.212896 }, "geometry": { "type": "Point", "coordinates": [ 30.212896, 59.846954 ] } },
{ "type": "Feature", "properties": { "service_name": "Аларм-Моторс", "address": "улица Савушкина, 108", "municipality": "Муниципальный округ №65", "administrative_unit": "Приморский район", "Широта": 59.983866, "Долгота": 30.245695 }, "geometry": { "type": "Point", "coordinates": [ 30.245695, 59.983866 ] } },
{ "type": "Feature", "properties": { "service_name": "Аларм-Моторс", "address": "улица Савушкина, 108", "municipality": "Муниципальный округ №65", "administrative_unit": "Приморский район", "Широта": 59.983942, "Долгота": 30.245685 }, "geometry": { "type": "Point", "coordinates": [ 30.245685, 59.983942 ] } },
{ "type": "Feature", "properties": { "service_name": "Аларм-Моторс ", "address": "Выборгское шоссе, 27 к1", "municipality": "Шувалово-Озерки", "administrative_unit": "Выборгский район", "Широта": 60.060491, "Долгота": 30.3058 }, "geometry": { "type": "Point", "coordinates": [ 30.3058, 60.060491 ] } },
{ "type": "Feature", "properties": { "service_name": "Алекс Моторс ", "address": "Московский проспект, 181 лит Ф", "municipality": "Пулковский меридиан", "administrative_unit": "Московский район", "Широта": 59.858015, "Долгота": 30.319389 }, "geometry": { "type": "Point", "coordinates": [ 30.319389, 59.858015 ] } },
{ "type": "Feature", "properties": { "service_name": "АС Моторс", "address": "Богатырский проспект, 14 к2 лит А", "municipality": "Озеро Долгое", "administrative_unit": "Приморский район", "Широта": 59.998654, "Долгота": 30.268581 }, "geometry": { "type": "Point", "coordinates": [ 30.268581, 59.998654 ] } },
{ "type": "Feature", "properties": { "service_name": "Аск-Авто", "address": "Седова, 12", "municipality": "Невская застава", "administrative_unit": "Невский район", "Широта": 59.902766, "Долгота": 30.398801 }, "geometry": { "type": "Point", "coordinates": [ 30.398801, 59.902766 ] } },
{ "type": "Feature", "properties": { "service_name": "АСТ Групп", "address": "Салтыковская дорога, 15", "municipality": "Полюстрово", "administrative_unit": "Красногвардейский район", "Широта": 59.967108, "Долгота": 30.43967 }, "geometry": { "type": "Point", "coordinates": [ 30.43967, 59.967108 ] } },
{ "type": "Feature", "properties": { "service_name": "Атлант Моторс", "address": "улица Коммуны, 16", "municipality": "Пороховые", "administrative_unit": "Красногвардейский район", "Широта": 59.942657, "Долгота": 30.504187 }, "geometry": { "type": "Point", "coordinates": [ 30.504187, 59.942657 ] } },
{ "type": "Feature", "properties": { "service_name": "Ауди Центр Витебский", "address": "Кузнецовская, 41", "municipality": "Гагаринское", "administrative_unit": "Московский район", "Широта": 59.872887, "Долгота": 30.352662 }, "geometry": { "type": "Point", "coordinates": [ 30.352662, 59.872887 ] } },
{ "type": "Feature", "properties": { "service_name": "Ауди Центр Лахта", "address": "Торфяная дорога, 8 к3", "municipality": "Муниципальный округ №65", "administrative_unit": "Приморский район", "Широта": 59.991393, "Долгота": 30.255339 }, "geometry": { "type": "Point", "coordinates": [ 30.255339, 59.991393 ] } },
{ "type": "Feature", "properties": { "service_name": "Ауди Центр Петроградский", "address": "проспект Медиков, 8 к1", "municipality": "Аптекарский остров", "administrative_unit": "Петроградский район", "Широта": 59.972946, "Долгота": 30.315241 }, "geometry": { "type": "Point", "coordinates": [ 30.315241, 59.972946 ] } },
{ "type": "Feature", "properties": { "service_name": "Бета Kaiyi Лиговский", "address": "улица Камчатская, 3 лит А", "municipality": "Волковское", "administrative_unit": "Фрунзенский район", "Широта": 59.904512, "Долгота": 30.35454 }, "geometry": { "type": "Point", "coordinates": [ 30.35454, 59.904512 ] } },
{ "type": "Feature", "properties": { "service_name": "Бета Mg Motor", "address": "улица Софийская, 2", "municipality": "Волковское", "administrative_unit": "Фрунзенский район", "Широта": 59.887914, "Долгота": 30.384399 }, "geometry": { "type": "Point", "coordinates": [ 30.384399, 59.887914 ] } },
{ "type": "Feature", "properties": { "service_name": "БИТАВТО", "address": "Колхозная, 10 лит Б", "municipality": "Горелово", "administrative_unit": null, "Широта": 59.783146, "Долгота": 30.133151 }, "geometry": { "type": "Point", "coordinates": [ 30.133151, 59.783146 ] } },
{ "type": "Feature", "properties": { "service_name": "Битавто", "address": "Колхозная, 10 лит Б", "municipality": "Горелово", "administrative_unit": null, "Широта": 59.783142, "Долгота": 30.133165 }, "geometry": { "type": "Point", "coordinates": [ 30.133165, 59.783142 ] } },
{ "type": "Feature", "properties": { "service_name": "БорисХоф Вольт", "address": "Ленинский проспект, 146", "municipality": "Княжево", "administrative_unit": "Кировский район", "Широта": 59.852996, "Долгота": 30.289508 }, "geometry": { "type": "Point", "coordinates": [ 30.289508, 59.852996 ] } },
{ "type": "Feature", "properties": { "service_name": "Вагнер", "address": "Стартовая, 5 лит А", "municipality": "Пулковский меридиан", "administrative_unit": "Московский район", "Широта": 59.810957, "Долгота": 30.317616 }, "geometry": { "type": "Point", "coordinates": [ 30.317616, 59.810957 ] } },
{ "type": "Feature", "properties": { "service_name": "Вагнер", "address": "Таллинское шоссе, 157 лит Д", "municipality": "Горелово", "administrative_unit": "Красносельский район", "Широта": 59.808758, "Долгота": 30.165699 }, "geometry": { "type": "Point", "coordinates": [ 30.165699, 59.808758 ] } },
{ "type": "Feature", "properties": { "service_name": "Вагнер", "address": "Таллинское шоссе, 157а", "municipality": "Горелово", "administrative_unit": "Красносельский район", "Широта": 59.808224, "Долгота": 30.165618 }, "geometry": { "type": "Point", "coordinates": [ 30.165618, 59.808224 ] } },
{ "type": "Feature", "properties": { "service_name": "Вагнер", "address": "улица Оптиков, 3а", "municipality": "Муниципальный округ №65", "administrative_unit": "Приморский район", "Широта": 59.996768, "Долгота": 30.248415 }, "geometry": { "type": "Point", "coordinates": [ 30.248415, 59.996768 ] } },
{ "type": "Feature", "properties": { "service_name": "Вагнер ", "address": "Стартовая, 5", "municipality": "Пулковский меридиан", "administrative_unit": "Московский район", "Широта": 59.810625, "Долгота": 30.317408 }, "geometry": { "type": "Point", "coordinates": [ 30.317408, 59.810625 ] } },
{ "type": "Feature", "properties": { "service_name": "Вагнер ", "address": "Таллинское шоссе, 157а", "municipality": "Горелово", "administrative_unit": "Красносельский район", "Широта": 59.808045, "Долгота": 30.165404 }, "geometry": { "type": "Point", "coordinates": [ 30.165404, 59.808045 ] } },
{ "type": "Feature", "properties": { "service_name": "Вагнер ", "address": "Таллинское шоссе, 157а", "municipality": "Горелово", "administrative_unit": "Красносельский район", "Широта": 59.808472, "Долгота": 30.16447 }, "geometry": { "type": "Point", "coordinates": [ 30.16447, 59.808472 ] } },
{ "type": "Feature", "properties": { "service_name": "Вагнер", "address": "улица Оптиков, 3а", "municipality": "Муниципальный округ №65", "administrative_unit": "Приморский район", "Широта": 59.99666, "Долгота": 30.249246 }, "geometry": { "type": "Point", "coordinates": [ 30.249246, 59.99666 ] } },
{ "type": "Feature", "properties": { "service_name": "Вагнер ", "address": "улица Оптиков, 3а", "municipality": "Муниципальный округ №65", "administrative_unit": "Приморский район", "Широта": 59.997032, "Долгота": 30.249002 }, "geometry": { "type": "Point", "coordinates": [ 30.249002, 59.997032 ] } },
{ "type": "Feature", "properties": { "service_name": "Вагнер", "address": "Таллинское шоссе, 157а", "municipality": "Горелово", "administrative_unit": "Красносельский район", "Широта": 59.80798, "Долгота": 30.164972 }, "geometry": { "type": "Point", "coordinates": [ 30.164972, 59.80798 ] } },
{ "type": "Feature", "properties": { "service_name": "Восток-Авто", "address": "улица Бухарестская, 1", "municipality": "Волковское", "administrative_unit": "Фрунзенский район", "Широта": 59.89246, "Долгота": 30.357853 }, "geometry": { "type": "Point", "coordinates": [ 30.357853, 59.89246 ] } },
{ "type": "Feature", "properties": { "service_name": "Восток-Авто", "address": "улица Бухарестская, 1", "municipality": "Волковское", "administrative_unit": "Фрунзенский район", "Широта": 59.89246, "Долгота": 30.357853 }, "geometry": { "type": "Point", "coordinates": [ 30.357853, 59.89246 ] } },
{ "type": "Feature", "properties": { "service_name": "Восток-Авто Жукова", "address": "Портовая улица, 15 лит Б", "municipality": "Автово", "administrative_unit": "Кировский район", "Широта": 59.865906, "Долгота": 30.24563 }, "geometry": { "type": "Point", "coordinates": [ 30.24563, 59.865906 ] } },
{ "type": "Feature", "properties": { "service_name": "Восход", "address": "Торфяная дорога, 7 лит Ф", "municipality": "Озеро Долгое", "administrative_unit": "Приморский район", "Широта": 59.99073, "Долгота": 30.259891 }, "geometry": { "type": "Point", "coordinates": [ 30.259891, 59.99073 ] } },
{ "type": "Feature", "properties": { "service_name": "Автопродикс - официальный дилер Nissan", "address": "улица Руставели, 55 к1 ст2", "municipality": "Муниципальный округ №21", "administrative_unit": "Калининский район", "Широта": 60.025895, "Долгота": 30.433685 }, "geometry": { "type": "Point", "coordinates": [ 30.433685, 60.025895 ] } },
{ "type": "Feature", "properties": { "service_name": "Автопродикс, Infiniti", "address": "улица Школьная, 71 к2", "municipality": "Муниципальный округ №65", "administrative_unit": "Приморский район", "Широта": 59.992202, "Долгота": 30.213075 }, "geometry": { "type": "Point", "coordinates": [ 30.213075, 59.992202 ] } },
{ "type": "Feature", "properties": { "service_name": "Город русских машин ГАЗ", "address": "Дунайский проспект, 15 к1", "municipality": "Звездное", "administrative_unit": "Московский район", "Широта": 59.829976, "Долгота": 30.340128 }, "geometry": { "type": "Point", "coordinates": [ 30.340128, 59.829976 ] } },
{ "type": "Feature", "properties": { "service_name": "Город русских машин ГАЗ", "address": "улица Руставели, 27", "municipality": "Пискарёвка", "administrative_unit": "Калининский район", "Широта": 60.006049, "Долгота": 30.437806 }, "geometry": { "type": "Point", "coordinates": [ 30.437806, 60.006049 ] } },
{ "type": "Feature", "properties": { "service_name": "Город русских машин, официальный дилер Lada", "address": "улица Руставели, 27", "municipality": "Пискарёвка", "administrative_unit": "Калининский район", "Широта": 60.006049, "Долгота": 30.437806 }, "geometry": { "type": "Point", "coordinates": [ 30.437806, 60.006049 ] } },
{ "type": "Feature", "properties": { "service_name": "Гранд авто", "address": "Выборгская набережная, 55 к3", "municipality": "Сампсониевское", "administrative_unit": "Выборгский район", "Широта": 59.977454, "Долгота": 30.328442 }, "geometry": { "type": "Point", "coordinates": [ 30.328442, 59.977454 ] } },
{ "type": "Feature", "properties": { "service_name": "Грейс авто", "address": "улица Благодатная, 69 к1 лит Д", "municipality": "Гагаринское", "administrative_unit": "Московский район", "Широта": 59.876682, "Долгота": 30.345236 }, "geometry": { "type": "Point", "coordinates": [ 30.345236, 59.876682 ] } },
{ "type": "Feature", "properties": { "service_name": "Гриффин-Авто", "address": "Симонова, 14", "municipality": "Шувалово-Озерки", "administrative_unit": "Выборгский район", "Широта": 60.062147, "Долгота": 30.326476 }, "geometry": { "type": "Point", "coordinates": [ 30.326476, 60.062147 ] } },
{ "type": "Feature", "properties": { "service_name": "Дакар", "address": "Богатырский проспект, 14 к2 лит А", "municipality": "Озеро Долгое", "administrative_unit": "Приморский район", "Широта": 59.99849, "Долгота": 30.267993 }, "geometry": { "type": "Point", "coordinates": [ 30.267993, 59.99849 ] } },
{ "type": "Feature", "properties": { "service_name": "Дакар", "address": "Богатырский проспект, 14 к2 лит А", "municipality": "Озеро Долгое", "administrative_unit": "Приморский район", "Широта": 59.998744, "Долгота": 30.268945 }, "geometry": { "type": "Point", "coordinates": [ 30.268945, 59.998744 ] } },
{ "type": "Feature", "properties": { "service_name": "Дакар", "address": "Кржижановского, 15 к2", "municipality": "Правобережный", "administrative_unit": "Невский район", "Широта": 59.929972, "Долгота": 30.483613 }, "geometry": { "type": "Point", "coordinates": [ 30.483613, 59.929972 ] } },
{ "type": "Feature", "properties": { "service_name": "Дакар", "address": "Кржижановского, 15 к2", "municipality": "Правобережный", "administrative_unit": "Невский район", "Широта": 59.93015, "Долгота": 30.482897 }, "geometry": { "type": "Point", "coordinates": [ 30.482897, 59.93015 ] } },
{ "type": "Feature", "properties": { "service_name": "Дакар", "address": "Кржижановского, 15 к2 ст2", "municipality": "Правобережный", "administrative_unit": "Невский район", "Широта": 59.929061, "Долгота": 30.484421 }, "geometry": { "type": "Point", "coordinates": [ 30.484421, 59.929061 ] } },
{ "type": "Feature", "properties": { "service_name": "Дакар", "address": "Кржижановского, 15 к2 ст2", "municipality": "Правобережный", "administrative_unit": "Невский район", "Широта": 59.929164, "Долгота": 30.484324 }, "geometry": { "type": "Point", "coordinates": [ 30.484324, 59.929164 ] } },
{ "type": "Feature", "properties": { "service_name": "Дакар", "address": "Пулковское шоссе, 44 к1 лит А", "municipality": "Звездное", "administrative_unit": "Московский район", "Широта": 59.814354, "Долгота": 30.324311 }, "geometry": { "type": "Point", "coordinates": [ 30.324311, 59.814354 ] } },
{ "type": "Feature", "properties": { "service_name": "Дакар", "address": "Пулковское шоссе, 44 к1 лит А", "municipality": "Звездное", "administrative_unit": "Московский район", "Широта": 59.814354, "Долгота": 30.324311 }, "geometry": { "type": "Point", "coordinates": [ 30.324311, 59.814354 ] } },
{ "type": "Feature", "properties": { "service_name": "Дакар", "address": "Таллинское шоссе, 202", "municipality": "Горелово", "administrative_unit": "Красносельский район", "Широта": 59.806573, "Долгота": 30.166185 }, "geometry": { "type": "Point", "coordinates": [ 30.166185, 59.806573 ] } },
{ "type": "Feature", "properties": { "service_name": "Дакар", "address": "Таллинское шоссе, 202", "municipality": "Горелово", "administrative_unit": "Красносельский район", "Широта": 59.806415, "Долгота": 30.166759 }, "geometry": { "type": "Point", "coordinates": [ 30.166759, 59.806415 ] } },
{ "type": "Feature", "properties": { "service_name": "Дакар", "address": "Таллинское шоссе, 202 лит Д", "municipality": "Горелово", "administrative_unit": "Красносельский район", "Широта": 59.806011, "Долгота": 30.165519 }, "geometry": { "type": "Point", "coordinates": [ 30.165519, 59.806011 ] } },
{ "type": "Feature", "properties": { "service_name": "Дакар", "address": "Таллинское шоссе, 202 лит Д", "municipality": "Горелово", "administrative_unit": "Красносельский район", "Широта": 59.806011, "Долгота": 30.165519 }, "geometry": { "type": "Point", "coordinates": [ 30.165519, 59.806011 ] } },
{ "type": "Feature", "properties": { "service_name": "Дакар", "address": "Таллинское шоссе, 202 ст3", "municipality": "Горелово", "administrative_unit": "Красносельский район", "Широта": 59.806242, "Долгота": 30.165792 }, "geometry": { "type": "Point", "coordinates": [ 30.165792, 59.806242 ] } },
{ "type": "Feature", "properties": { "service_name": "Дакар", "address": "Таллинское шоссе, 202 ст3", "municipality": "Горелово", "administrative_unit": "Красносельский район", "Широта": 59.806242, "Долгота": 30.165792 }, "geometry": { "type": "Point", "coordinates": [ 30.165792, 59.806242 ] } },
{ "type": "Feature", "properties": { "service_name": "Дакар", "address": "Таллинское шоссе, 202 ст3", "municipality": "Горелово", "administrative_unit": "Красносельский район", "Широта": 59.806242, "Долгота": 30.165792 }, "geometry": { "type": "Point", "coordinates": [ 30.165792, 59.806242 ] } },
{ "type": "Feature", "properties": { "service_name": "Дакар", "address": "Пулковское шоссе, 44 к1 лит А", "municipality": "Звездное", "administrative_unit": "Московский район", "Широта": 59.814516, "Долгота": 30.324552 }, "geometry": { "type": "Point", "coordinates": [ 30.324552, 59.814516 ] } },
{ "type": "Feature", "properties": { "service_name": "Дакар ", "address": "Кржижановского, 15 к2", "municipality": "Правобережный", "administrative_unit": "Невский район", "Широта": 59.930052, "Долгота": 30.483448 }, "geometry": { "type": "Point", "coordinates": [ 30.483448, 59.930052 ] } },
{ "type": "Feature", "properties": { "service_name": "Дакар ", "address": "Таллинское шоссе, 202", "municipality": "Горелово", "administrative_unit": "Красносельский район", "Широта": 59.806573, "Долгота": 30.166185 }, "geometry": { "type": "Point", "coordinates": [ 30.166185, 59.806573 ] } },
{ "type": "Feature", "properties": { "service_name": "Джетур СПб-Юг", "address": "улица Салова, 68 лит Б", "municipality": "Волковское", "administrative_unit": "Фрунзенский район", "Широта": 59.886548, "Долгота": 30.375696 }, "geometry": { "type": "Point", "coordinates": [ 30.375696, 59.886548 ] } },
{ "type": "Feature", "properties": { "service_name": "Дом Авто", "address": "Малый проспект В.О., 66 к2 лит А", "municipality": "Гавань", "administrative_unit": "Василеостровский район", "Широта": 59.938926, "Долгота": 30.246894 }, "geometry": { "type": "Point", "coordinates": [ 30.246894, 59.938926 ] } },
{ "type": "Feature", "properties": { "service_name": "BMW Motorrad Евросиб", "address": "набережная Обводного канала, 72 ст1", "municipality": "Московская застава", "administrative_unit": "Московский район", "Широта": 59.912382, "Долгота": 30.332503 }, "geometry": { "type": "Point", "coordinates": [ 30.332503, 59.912382 ] } },
{ "type": "Feature", "properties": { "service_name": "Евросиб BMW", "address": "набережная Обводного канала, 72 ст1", "municipality": "Московская застава", "administrative_unit": "Московский район", "Широта": 59.912382, "Долгота": 30.332503 }, "geometry": { "type": "Point", "coordinates": [ 30.332503, 59.912382 ] } },
{ "type": "Feature", "properties": { "service_name": "Евросиб Opel", "address": "Пулковское шоссе, 36/3", "municipality": "Звездное", "administrative_unit": "Московский район", "Широта": 59.821704, "Долгота": 30.324101 }, "geometry": { "type": "Point", "coordinates": [ 30.324101, 59.821704 ] } },
{ "type": "Feature", "properties": { "service_name": "Евросиб BMW", "address": "Курская, 28/32 лит З", "municipality": "Волковское", "administrative_unit": "Фрунзенский район", "Широта": 59.911593, "Долгота": 30.354416 }, "geometry": { "type": "Point", "coordinates": [ 30.354416, 59.911593 ] } },
{ "type": "Feature", "properties": { "service_name": "Евросиб BMW Motorrad", "address": "набережная Обводного канала, 72 ст1", "municipality": "Московская застава", "administrative_unit": "Московский район", "Широта": 59.912382, "Долгота": 30.332503 }, "geometry": { "type": "Point", "coordinates": [ 30.332503, 59.912382 ] } },
{ "type": "Feature", "properties": { "service_name": "Евросиб Лахта", "address": "улица Савушкина, 112 к2", "municipality": "Муниципальный округ №65", "administrative_unit": "Приморский район", "Широта": 59.983088, "Долгота": 30.227647 }, "geometry": { "type": "Point", "coordinates": [ 30.227647, 59.983088 ] } },
{ "type": "Feature", "properties": { "service_name": "Евросиб Лахта Mini", "address": "улица Савушкина, 112 к4", "municipality": "Муниципальный округ №65", "administrative_unit": "Приморский район", "Широта": 59.98363, "Долгота": 30.22471 }, "geometry": { "type": "Point", "coordinates": [ 30.22471, 59.98363 ] } },
{ "type": "Feature", "properties": { "service_name": "Евросиб-Авто", "address": "Пулковское шоссе, 36/3 к1", "municipality": "Звездное", "administrative_unit": "Московский район", "Широта": 59.820646, "Долгота": 30.324676 }, "geometry": { "type": "Point", "coordinates": [ 30.324676, 59.820646 ] } },
{ "type": "Feature", "properties": { "service_name": "Звезда Невы Honda", "address": "Витебский проспект, 17 к1", "municipality": "Гагаринское", "administrative_unit": "Московский район", "Широта": 59.872043, "Долгота": 30.353178 }, "geometry": { "type": "Point", "coordinates": [ 30.353178, 59.872043 ] } },
{ "type": "Feature", "properties": { "service_name": "Звезда Невы - официальный дилер Mercedes-Benz", "address": "Витебский проспект, 17 к1", "municipality": "Гагаринское", "administrative_unit": "Московский район", "Широта": 59.872043, "Долгота": 30.353178 }, "geometry": { "type": "Point", "coordinates": [ 30.353178, 59.872043 ] } },
{ "type": "Feature", "properties": { "service_name": "Integral Auto", "address": "Ириновский проспект, 1 лит Ж", "municipality": "Пороховые", "administrative_unit": "Красногвардейский район", "Широта": 59.952909, "Долгота": 30.453988 }, "geometry": { "type": "Point", "coordinates": [ 30.453988, 59.952909 ] } },
{ "type": "Feature", "properties": { "service_name": "Автоцентр Интей Лада - официальный дилер LADA", "address": "Коломяжский проспект, 30", "municipality": "Комендантский аэродром", "administrative_unit": "Приморский район", "Широта": 60.010032, "Долгота": 30.294571 }, "geometry": { "type": "Point", "coordinates": [ 30.294571, 60.010032 ] } },
{ "type": "Feature", "properties": { "service_name": "Инфо-кар плюс", "address": "улица Ивана Зубкова, 12 ст1", "municipality": "Автово", "administrative_unit": "Кировский район", "Широта": 59.867659, "Долгота": 30.250759 }, "geometry": { "type": "Point", "coordinates": [ 30.250759, 59.867659 ] } },
{ "type": "Feature", "properties": { "service_name": "Карро", "address": "проспект Маршала Жукова, 78 лит А", "municipality": "Ульянка", "administrative_unit": "Кировский район", "Широта": 59.826552, "Долгота": 30.190096 }, "geometry": { "type": "Point", "coordinates": [ 30.190096, 59.826552 ] } },
{ "type": "Feature", "properties": { "service_name": "КарСпрей", "address": "Ириновский проспект, 2", "municipality": "Пороховые", "administrative_unit": "Красногвардейский район", "Широта": 59.953514, "Долгота": 30.448692 }, "geometry": { "type": "Point", "coordinates": [ 30.448692, 59.953514 ] } },
{ "type": "Feature", "properties": { "service_name": "Кинг Моторс", "address": "Придорожная аллея, 8", "municipality": "Сергиевское", "administrative_unit": "Выборгский район", "Широта": 60.058464, "Долгота": 30.348855 }, "geometry": { "type": "Point", "coordinates": [ 30.348855, 60.058464 ] } },
{ "type": "Feature", "properties": { "service_name": "HONGQI КЛЮЧАВТО", "address": "Кузнецовская, 41", "municipality": "Гагаринское", "administrative_unit": "Московский район", "Широта": 59.872887, "Долгота": 30.352662 }, "geometry": { "type": "Point", "coordinates": [ 30.352662, 59.872887 ] } },
{ "type": "Feature", "properties": { "service_name": "Чанган КЛЮЧАВТО", "address": "улица Руставели, 31а", "municipality": "Пискарёвка", "administrative_unit": "Калининский район", "Широта": 60.007881, "Долгота": 30.436252 }, "geometry": { "type": "Point", "coordinates": [ 30.436252, 60.007881 ] } },
{ "type": "Feature", "properties": { "service_name": "OMODA КЛЮЧАВТО", "address": "улица Руставели, 31а", "municipality": "Пискарёвка", "administrative_unit": "Калининский район", "Широта": 60.007881, "Долгота": 30.436252 }, "geometry": { "type": "Point", "coordinates": [ 30.436252, 60.007881 ] } },
{ "type": "Feature", "properties": { "service_name": "КЛЮЧАВТО Автомобили с пробегом Пулково", "address": "Шереметьевская, 17", "municipality": "Пулковский меридиан", "administrative_unit": "Московский район", "Широта": 59.804644, "Долгота": 30.320041 }, "geometry": { "type": "Point", "coordinates": [ 30.320041, 59.804644 ] } },
{ "type": "Feature", "properties": { "service_name": "Lexus КЛЮЧАВТО", "address": "Шереметьевская, 17а", "municipality": "Пулковский меридиан", "administrative_unit": "Московский район", "Широта": 59.804051, "Долгота": 30.322678 }, "geometry": { "type": "Point", "coordinates": [ 30.322678, 59.804051 ] } },
{ "type": "Feature", "properties": { "service_name": "КЛЮЧАВТО Автомобили с пробегом Витебский", "address": "Кузнецовская, 41", "municipality": "Гагаринское", "administrative_unit": "Московский район", "Широта": 59.872887, "Долгота": 30.352662 }, "geometry": { "type": "Point", "coordinates": [ 30.352662, 59.872887 ] } },
{ "type": "Feature", "properties": { "service_name": "Lexus КЛЮЧАВТО", "address": "Шереметьевская, 17", "municipality": "Пулковский меридиан", "administrative_unit": "Московский район", "Широта": 59.804644, "Долгота": 30.320041 }, "geometry": { "type": "Point", "coordinates": [ 30.320041, 59.804644 ] } },
{ "type": "Feature", "properties": { "service_name": "КЛЮЧАВТО Мультисервис", "address": "Кузнецовская, 41", "municipality": "Гагаринское", "administrative_unit": "Московский район", "Широта": 59.872887, "Долгота": 30.352662 }, "geometry": { "type": "Point", "coordinates": [ 30.352662, 59.872887 ] } },
{ "type": "Feature", "properties": { "service_name": "Ключавто Тойота Центр Пискаревский", "address": "улица Руставели, 31а", "municipality": "Пискарёвка", "administrative_unit": "Калининский район", "Широта": 60.007881, "Долгота": 30.436252 }, "geometry": { "type": "Point", "coordinates": [ 30.436252, 60.007881 ] } },
{ "type": "Feature", "properties": { "service_name": "Коравто-Питер", "address": "Екатерининский проспект, 1", "municipality": "Полюстрово", "administrative_unit": "Красногвардейский район", "Широта": 59.976577, "Долгота": 30.438289 }, "geometry": { "type": "Point", "coordinates": [ 30.438289, 59.976577 ] } },
{ "type": "Feature", "properties": { "service_name": "Лада-центр Озерки", "address": "Выборгское шоссе, 31 к2 лит А", "municipality": "Шувалово-Озерки", "administrative_unit": "Выборгский район", "Широта": 60.063891, "Долгота": 30.303589 }, "geometry": { "type": "Point", "coordinates": [ 30.303589, 60.063891 ] } },
{ "type": "Feature", "properties": { "service_name": "Лада-центр Пулково", "address": "Пулковское шоссе, 70 лит Е", "municipality": "Шушары пос.", "administrative_unit": "Пушкинский район", "Широта": 59.7827, "Долгота": 30.327484 }, "geometry": { "type": "Point", "coordinates": [ 30.327484, 59.7827 ] } },
{ "type": "Feature", "properties": { "service_name": "Лада-центр Юго-Запад", "address": "улица Маршала Захарова, 41", "municipality": "Юго-Запад", "administrative_unit": "Красносельский район", "Широта": 59.84827, "Долгота": 30.214988 }, "geometry": { "type": "Point", "coordinates": [ 30.214988, 59.84827 ] } },
{ "type": "Feature", "properties": { "service_name": "Лексус-Приморский", "address": "улица Школьная, 98 лит А", "municipality": "Муниципальный округ №65", "administrative_unit": "Приморский район", "Широта": 59.990129, "Долгота": 30.222422 }, "geometry": { "type": "Point", "coordinates": [ 30.222422, 59.990129 ] } },
{ "type": "Feature", "properties": { "service_name": "Максимум", "address": "проспект Непокорённых, 47", "municipality": "Пискарёвка", "administrative_unit": "Калининский район", "Широта": 59.994667, "Долгота": 30.385464 }, "geometry": { "type": "Point", "coordinates": [ 30.385464, 59.994667 ] } },
{ "type": "Feature", "properties": { "service_name": "Максимум", "address": "проспект Непокорённых, 47а", "municipality": "Пискарёвка", "administrative_unit": "Калининский район", "Широта": 59.993995, "Долгота": 30.386187 }, "geometry": { "type": "Point", "coordinates": [ 30.386187, 59.993995 ] } },
{ "type": "Feature", "properties": { "service_name": "Максимум", "address": "Рыбинская улица, 1 лит З", "municipality": "Московская застава", "administrative_unit": "Московский район", "Широта": 59.910575, "Долгота": 30.333111 }, "geometry": { "type": "Point", "coordinates": [ 30.333111, 59.910575 ] } },
{ "type": "Feature", "properties": { "service_name": "Максимум", "address": "территория Транспортная, 6", "municipality": null, "administrative_unit": null, "Широта": 60.047987, "Долгота": 30.417714 }, "geometry": { "type": "Point", "coordinates": [ 30.417714, 60.047987 ] } },
{ "type": "Feature", "properties": { "service_name": "Максимум", "address": "Торфяная дорога, 8 к3", "municipality": "Муниципальный округ №65", "administrative_unit": "Приморский район", "Широта": 59.991393, "Долгота": 30.255339 }, "geometry": { "type": "Point", "coordinates": [ 30.255339, 59.991393 ] } },
{ "type": "Feature", "properties": { "service_name": "Максимум ", "address": "улица Руставели, 53", "municipality": "Муниципальный округ №21", "administrative_unit": "Калининский район", "Широта": 60.024128, "Долгота": 30.433607 }, "geometry": { "type": "Point", "coordinates": [ 30.433607, 60.024128 ] } },
{ "type": "Feature", "properties": { "service_name": "Максимум ", "address": "улица Руставели, 53", "municipality": "Муниципальный округ №21", "administrative_unit": "Калининский район", "Широта": 60.024128, "Долгота": 30.433607 }, "geometry": { "type": "Point", "coordinates": [ 30.433607, 60.024128 ] } },
{ "type": "Feature", "properties": { "service_name": "Маршал ", "address": "проспект Маршала Жукова, 21", "municipality": "Юго-Запад", "administrative_unit": "Красносельский район", "Широта": 59.862373, "Долгота": 30.234143 }, "geometry": { "type": "Point", "coordinates": [ 30.234143, 59.862373 ] } },
{ "type": "Feature", "properties": { "service_name": "Маршал ", "address": "улица Краснопутиловская, 69", "municipality": "Автово", "administrative_unit": "Кировский район", "Широта": 59.860341, "Долгота": 30.287282 }, "geometry": { "type": "Point", "coordinates": [ 30.287282, 59.860341 ] } },
{ "type": "Feature", "properties": { "service_name": "Меридиан", "address": "улица Краснопутиловская, 69", "municipality": "Автово", "administrative_unit": "Кировский район", "Широта": 59.860341, "Долгота": 30.287282 }, "geometry": { "type": "Point", "coordinates": [ 30.287282, 59.860341 ] } },
{ "type": "Feature", "properties": { "service_name": "Мл-авто", "address": "Екатерининский проспект, 1", "municipality": "Полюстрово", "administrative_unit": "Красногвардейский район", "Широта": 59.976464, "Долгота": 30.438289 }, "geometry": { "type": "Point", "coordinates": [ 30.438289, 59.976464 ] } },
{ "type": "Feature", "properties": { "service_name": "Нева-Автоком", "address": "Московский проспект, 154", "municipality": "Московская застава", "administrative_unit": "Московский район", "Широта": 59.882362, "Долгота": 30.321041 }, "geometry": { "type": "Point", "coordinates": [ 30.321041, 59.882362 ] } },
{ "type": "Feature", "properties": { "service_name": "Олимп Нева", "address": "улица Исполкомская, 15 лит А", "municipality": "Смольнинское", "administrative_unit": "Центральный район", "Широта": 59.929242, "Долгота": 30.382945 }, "geometry": { "type": "Point", "coordinates": [ 30.382945, 59.929242 ] } },
{ "type": "Feature", "properties": { "service_name": "Официальный дилер Lada Форсаж", "address": "улица Бухарестская, 22 к3", "municipality": "Волковское", "administrative_unit": "Фрунзенский район", "Широта": 59.887127, "Долгота": 30.364746 }, "geometry": { "type": "Point", "coordinates": [ 30.364746, 59.887127 ] } },
{ "type": "Feature", "properties": { "service_name": "Официальный дилер Volvo Автобиография", "address": "Пулковское шоссе, 36/3", "municipality": "Звездное", "administrative_unit": "Московский район", "Широта": 59.821115, "Долгота": 30.324134 }, "geometry": { "type": "Point", "coordinates": [ 30.324134, 59.821115 ] } },
{ "type": "Feature", "properties": { "service_name": "Пикап-СПб", "address": "Выборгское шоссе, 362", "municipality": "Парголово пос.", "administrative_unit": "Выборгский район", "Широта": 60.09885, "Долгота": 30.251592 }, "geometry": { "type": "Point", "coordinates": [ 30.251592, 60.09885 ] } },
{ "type": "Feature", "properties": { "service_name": "Пикап-Центр Петербург", "address": "набережная Обводного канала, 72 ст1", "municipality": "Московская застава", "administrative_unit": "Московский район", "Широта": 59.912382, "Долгота": 30.332503 }, "geometry": { "type": "Point", "coordinates": [ 30.332503, 59.912382 ] } },
{ "type": "Feature", "properties": { "service_name": "Питер-Лада", "address": "Кингисеппское шоссе, 50", "municipality": "Красное Село г.", "administrative_unit": "Красносельский район", "Широта": 59.717551, "Долгота": 30.052923 }, "geometry": { "type": "Point", "coordinates": [ 30.052923, 59.717551 ] } },
{ "type": "Feature", "properties": { "service_name": "Порше Центр Приморский", "address": "улица Школьная, 71 к1", "municipality": "Муниципальный округ №65", "administrative_unit": "Приморский район", "Широта": 59.992369, "Долгота": 30.215079 }, "geometry": { "type": "Point", "coordinates": [ 30.215079, 59.992369 ] } },
{ "type": "Feature", "properties": { "service_name": "Прагматика Kaiyi", "address": "улица Уральская, 35 лит А", "municipality": "Остров Декабристов", "administrative_unit": "Василеостровский район", "Широта": 59.956104, "Долгота": 30.23822 }, "geometry": { "type": "Point", "coordinates": [ 30.23822, 59.956104 ] } },
{ "type": "Feature", "properties": { "service_name": "Прагматика Geely", "address": "улица Уральская, 35 лит А", "municipality": "Остров Декабристов", "administrative_unit": "Василеостровский район", "Широта": 59.955861, "Долгота": 30.237662 }, "geometry": { "type": "Point", "coordinates": [ 30.237662, 59.955861 ] } },
{ "type": "Feature", "properties": { "service_name": "Прагматика Василеостровский", "address": "улица Уральская, 33", "municipality": "Остров Декабристов", "administrative_unit": "Василеостровский район", "Широта": 59.955512, "Долгота": 30.238948 }, "geometry": { "type": "Point", "coordinates": [ 30.238948, 59.955512 ] } },
{ "type": "Feature", "properties": { "service_name": "Прагматика Василеостровский", "address": "улица Уральская, 35 лит А", "municipality": "Остров Декабристов", "administrative_unit": "Василеостровский район", "Широта": 59.955677, "Долгота": 30.238333 }, "geometry": { "type": "Point", "coordinates": [ 30.238333, 59.955677 ] } },
{ "type": "Feature", "properties": { "service_name": "Прагматика Купчино", "address": "Малая Балканская, 57", "municipality": "Александровский", "administrative_unit": "Фрунзенский район", "Широта": 59.828948, "Долгота": 30.426036 }, "geometry": { "type": "Point", "coordinates": [ 30.426036, 59.828948 ] } },
{ "type": "Feature", "properties": { "service_name": "Прагматика Купчино", "address": "Малая Балканская, 57", "municipality": "Александровский", "administrative_unit": "Фрунзенский район", "Широта": 59.828948, "Долгота": 30.426036 }, "geometry": { "type": "Point", "coordinates": [ 30.426036, 59.828948 ] } },
{ "type": "Feature", "properties": { "service_name": "Прагматика Купчино", "address": "Малая Балканская, 57 к1", "municipality": "Александровский", "administrative_unit": "Фрунзенский район", "Широта": 59.829247, "Долгота": 30.427205 }, "geometry": { "type": "Point", "coordinates": [ 30.427205, 59.829247 ] } },
{ "type": "Feature", "properties": { "service_name": "Прагматика Парнас", "address": "4-й Верхний переулок, 1а", "municipality": "Парголово пос.", "administrative_unit": "Выборгский район", "Широта": 60.071873, "Долгота": 30.340087 }, "geometry": { "type": "Point", "coordinates": [ 30.340087, 60.071873 ] } },
{ "type": "Feature", "properties": { "service_name": "Прагматика Эксперт", "address": "Малая Балканская, 57 к1", "municipality": "Александровский", "administrative_unit": "Фрунзенский район", "Широта": 59.829247, "Долгота": 30.427205 }, "geometry": { "type": "Point", "coordinates": [ 30.427205, 59.829247 ] } },
{ "type": "Feature", "properties": { "service_name": "Прагматика Эксперт", "address": "Малая Балканская, 57 к1", "municipality": "Александровский", "administrative_unit": "Фрунзенский район", "Широта": 59.829247, "Долгота": 30.427205 }, "geometry": { "type": "Point", "coordinates": [ 30.427205, 59.829247 ] } },
{ "type": "Feature", "properties": { "service_name": "Прагматика Эксперт", "address": "Малая Балканская, 57 к1", "municipality": "Александровский", "administrative_unit": "Фрунзенский район", "Широта": 59.829247, "Долгота": 30.427205 }, "geometry": { "type": "Point", "coordinates": [ 30.427205, 59.829247 ] } },
{ "type": "Feature", "properties": { "service_name": "Прагматика Эксперт", "address": "улица Меркурьева, 6", "municipality": "Парголово пос.", "administrative_unit": "Выборгский район", "Широта": 60.072028, "Долгота": 30.340211 }, "geometry": { "type": "Point", "coordinates": [ 30.340211, 60.072028 ] } },
{ "type": "Feature", "properties": { "service_name": "Прагматика Эксперт", "address": "улица Уральская, 33", "municipality": "Остров Декабристов", "administrative_unit": "Василеостровский район", "Широта": 59.955512, "Долгота": 30.238948 }, "geometry": { "type": "Point", "coordinates": [ 30.238948, 59.955512 ] } },