{
"type": "FeatureCollection",
"name": "stadium",
"crs": { "type": "name", "properties": { "name": "urn:ogc:def:crs:OGC:1.3:CRS84" } },
"features": [
{ "type": "Feature", "properties": { "city_service_type": "Стадион", "service_name": "Озерки Арена", "address": "улица Жака Дюкло, 66", "administrative_unit": "Выборгский", "municipality": "Светлановское", "Широта": null, "Долгота": null }, "geometry": { "type": "Point", "coordinates": [ 30.3347518, 60.02483095 ] } },
{ "type": "Feature", "properties": { "city_service_type": "Стадион", "service_name": "Лига5", "address": "Шкапина, 52", "administrative_unit": "Кировский", "municipality": "Нарвский округ", "Широта": null, "Долгота": null }, "geometry": { "type": "Point", "coordinates": [ 30.2920588, 59.90217245 ] } },
{ "type": "Feature", "properties": { "city_service_type": "Стадион", "service_name": "Дворец спортивных игр Зенит", "address": "улица Бутлерова, 9", "administrative_unit": "Калининский", "municipality": "Гражданка", "Широта": null, "Долгота": null }, "geometry": { "type": "Point", "coordinates": [ 30.400028686654998, 60.001625034119797 ] } },
{ "type": "Feature", "properties": { "city_service_type": "Стадион", "service_name": "Газпром Арена", "address": "Футбольная аллея, 1", "administrative_unit": "Петроградский", "municipality": "Чкаловское", "Широта": null, "Долгота": null }, "geometry": { "type": "Point", "coordinates": [ 30.220638473168023, 59.972972539216507 ] } },
{ "type": "Feature", "properties": { "city_service_type": "Стадион", "service_name": "F-Base", "address": "Латышских Стрелков, 19", "administrative_unit": "Невский", "municipality": "Правобережный", "Широта": null, "Долгота": null }, "geometry": { "type": "Point", "coordinates": [ 30.450735585372037, 59.931735993946745 ] } },
{ "type": "Feature", "properties": { "city_service_type": "Стадион", "service_name": "Центр физической культуры, спорта и здоровья Василеостровского района", "address": "Малый проспект Васильевского острова, 66", "administrative_unit": "Василеостровский", "municipality": "Гавань", "Широта": null, "Долгота": null }, "geometry": { "type": "Point", "coordinates": [ 30.248420734338403, 59.939043496315129 ] } },
{ "type": "Feature", "properties": { "city_service_type": "Стадион", "service_name": "Политехник", "address": "Политехническая улица, 27", "administrative_unit": "Калининский", "municipality": "Академическое", "Широта": null, "Долгота": null }, "geometry": { "type": "Point", "coordinates": [ 30.369323502435705, 60.002711924666364 ] } },
{ "type": "Feature", "properties": { "city_service_type": "Стадион", "service_name": "Динамо", "address": "проспект Динамо, 44 лит А", "administrative_unit": "Петроградский", "municipality": "Чкаловское", "Широта": null, "Долгота": null }, "geometry": { "type": "Point", "coordinates": [ 30.265500910066056, 59.968195178382629 ] } },
{ "type": "Feature", "properties": { "city_service_type": "Стадион", "service_name": "СИБУР АРЕНА", "address": "Футбольная аллея, 8", "administrative_unit": "Петроградский", "municipality": "Чкаловское", "Широта": null, "Долгота": null }, "geometry": { "type": "Point", "coordinates": [ 30.226654472702517, 59.971341164095051 ] } },
{ "type": "Feature", "properties": { "city_service_type": "Стадион", "service_name": "Метрострой", "address": "Левашовский проспект, 11/7", "administrative_unit": "Петроградский", "municipality": "Чкаловское", "Широта": null, "Долгота": null }, "geometry": { "type": "Point", "coordinates": [ 30.290044882524345, 59.966632392922776 ] } },
{ "type": "Feature", "properties": { "city_service_type": "Стадион", "service_name": "Кировец", "address": "Перекопская улица, 6-8", "administrative_unit": "Кировский", "municipality": "Нарвский округ", "Широта": null, "Долгота": null }, "geometry": { "type": "Point", "coordinates": [ 30.26833092094115, 59.901269141955467 ] } },
{ "type": "Feature", "properties": { "city_service_type": "Стадион", "service_name": "Кронштадтский городской стадион", "address": "Тулонская аллея, 11", "administrative_unit": "Кронштадтский", "municipality": "Кронштадт", "Широта": null, "Долгота": null }, "geometry": { "type": "Point", "coordinates": [ 29.7986868, 59.985575800000014 ] } },
{ "type": "Feature", "properties": { "city_service_type": null, "service_name": "Nova arena", "address": "Северный проспект, 60", "administrative_unit": "Калининский район", "municipality": "Академическое", "Широта": 60.024357, "Долгота": 30.405885 }, "geometry": { "type": "Point", "coordinates": [ 30.405885, 60.024357 ] } },
{ "type": "Feature", "properties": { "city_service_type": null, "service_name": "Балтика", "address": "Петровский проспект, 16", "administrative_unit": "Петроградский район", "municipality": "Петровский", "Широта": 59.958131, "Долгота": 30.270186 }, "geometry": { "type": "Point", "coordinates": [ 30.270186, 59.958131 ] } },
{ "type": "Feature", "properties": { "city_service_type": null, "service_name": "Дворец спорта Хоккейный", "address": "Ждановская наб,, 2", "administrative_unit": "Петроградский район", "municipality": "Чкаловское", "Широта": 59.957564, "Долгота": 30.27954 }, "geometry": { "type": "Point", "coordinates": [ 30.27954, 59.957564 ] } },
{ "type": "Feature", "properties": { "city_service_type": null, "service_name": "Зима-лето", "address": "Выборгское шоссе, 132", "administrative_unit": "Выборгский район", "municipality": "Шувалово-Озерки", "Широта": 60.058349, "Долгота": 30.30574 }, "geometry": { "type": "Point", "coordinates": [ 30.30574, 60.058349 ] } },
{ "type": "Feature", "properties": { "city_service_type": null, "service_name": "Зимний стадион", "address": "Манежная площадь,2", "administrative_unit": "Центральный район", "municipality": "Дворцовый", "Широта": 59.936983, "Долгота": 30.339223 }, "geometry": { "type": "Point", "coordinates": [ 30.339223, 59.936983 ] } },
{ "type": "Feature", "properties": { "city_service_type": null, "service_name": "Ижорец", "address": null, "administrative_unit": "Колпинский район", "municipality": "Колпино", "Широта": 59.737281, "Долгота": 30.608643 }, "geometry": { "type": "Point", "coordinates": [ 30.608643, 59.737281 ] } },
{ "type": "Feature", "properties": { "city_service_type": null, "service_name": "Коломяги-Спорт", "address": "территория Коломяги", "administrative_unit": null, "municipality": null, "Широта": 60.014367, "Долгота": 30.299431 }, "geometry": { "type": "Point", "coordinates": [ 30.299431, 60.014367 ] } },
{ "type": "Feature", "properties": { "city_service_type": null, "service_name": "Конькобежный стадион им. Шилкова", "address": "ул, Демьяна Бедного, 19к2", "administrative_unit": "Калининский район", "municipality": "Прометей", "Широта": 60.044433, "Долгота": 30.390177 }, "geometry": { "type": "Point", "coordinates": [ 30.390177, 60.044433 ] } },
{ "type": "Feature", "properties": { "city_service_type": null, "service_name": "Красный треугольник", "address": "парк Екатерингорф", "administrative_unit": null, "municipality": null, "Широта": 59.902504, "Долгота": 30.256698 }, "geometry": { "type": "Point", "coordinates": [ 30.256698, 59.902504 ] } },
{ "type": "Feature", "properties": { "city_service_type": null, "service_name": "Ледовый дворец", "address": "проспект Пятилеток, 1 лит А", "administrative_unit": "Невский район", "municipality": "Правобережный", "Широта": 59.921223, "Долгота": 30.469264 }, "geometry": { "type": "Point", "coordinates": [ 30.469264, 59.921223 ] } },
{ "type": "Feature", "properties": { "city_service_type": null, "service_name": "Малая спортивная арена Петровский", "address": "Петровский остров, 2 лит,3", "administrative_unit": "Петроградский район", "municipality": "Петровский", "Широта": 59.952281, "Долгота": 30.285514 }, "geometry": { "type": "Point", "coordinates": [ 30.285514, 59.952281 ] } },
{ "type": "Feature", "properties": { "city_service_type": null, "service_name": "Маршал Арена", "address": "Автобусная, 4к2 лит А", "administrative_unit": "Приморский район", "municipality": "Юнтолово", "Широта": 60.026992, "Долгота": 30.270908 }, "geometry": { "type": "Point", "coordinates": [ 30.270908, 60.026992 ] } },
{ "type": "Feature", "properties": { "city_service_type": null, "service_name": "Московский", "address": "Московский проспект, 102 к2", "administrative_unit": "Московский район", "municipality": "Московская застава", "Широта": 59.896251, "Долгота": 30.320494 }, "geometry": { "type": "Point", "coordinates": [ 30.320494, 59.896251 ] } },
{ "type": "Feature", "properties": { "city_service_type": null, "service_name": "Муниципальный стадион", "address": "посёлок Комарово", "administrative_unit": "Курортный район", "municipality": null, "Широта": 60.183738, "Долгота": 29.823037 }, "geometry": { "type": "Point", "coordinates": [ 29.823037, 60.183738 ] } },
{ "type": "Feature", "properties": { "city_service_type": null, "service_name": "Обводный манеж", "address": "набережная Обводного канала, 74 лит Ф", "administrative_unit": "Московский район", "municipality": "Московская застава", "Широта": 59.911493, "Долгота": 30.329709 }, "geometry": { "type": "Point", "coordinates": [ 30.329709, 59.911493 ] } },
{ "type": "Feature", "properties": { "city_service_type": null, "service_name": "Петровский", "address": "Петровский остров, 2", "administrative_unit": "Петроградский район", "municipality": "Петровский", "Широта": 59.952242, "Долгота": 30.285416 }, "geometry": { "type": "Point", "coordinates": [ 30.285416, 59.952242 ] } },
{ "type": "Feature", "properties": { "city_service_type": null, "service_name": "Приморец", "address": "Приморский проспект, 56к2", "administrative_unit": "Приморский район", "municipality": "Муниципальный округ №65", "Широта": 59.982932, "Долгота": 30.23475 }, "geometry": { "type": "Point", "coordinates": [ 30.23475, 59.982932 ] } },
{ "type": "Feature", "properties": { "city_service_type": null, "service_name": "Рощино арена", "address": "Советская ул,, 20", "administrative_unit": "Выборгский район", "municipality": "Рощино", "Широта": 60.256276, "Долгота": 29.612532 }, "geometry": { "type": "Point", "coordinates": [ 29.612532, 60.256276 ] } },
{ "type": "Feature", "properties": { "city_service_type": null, "service_name": "СК Юбилейный", "address": "проспект Добролюбова, 18", "administrative_unit": "Петроградский район", "municipality": "Введенский", "Широта": 59.950294, "Долгота": 30.292109 }, "geometry": { "type": "Point", "coordinates": [ 30.292109, 59.950294 ] } },
{ "type": "Feature", "properties": { "city_service_type": null, "service_name": "СКА Арена", "address": "просп, Юрия Гагарина, 8", "administrative_unit": "Московский район", "municipality": "Гагаринское", "Широта": 59.868771, "Долгота": 30.341335 }, "geometry": { "type": "Point", "coordinates": [ 30.341335, 59.868771 ] } },
{ "type": "Feature", "properties": { "city_service_type": null, "service_name": "Спартак", "address": "Михайловская ул,, 29к1", "administrative_unit": "Петродворцовый район", "municipality": "Ломоносов", "Широта": 59.907818, "Долгота": 29.764829 }, "geometry": { "type": "Point", "coordinates": [ 29.764829, 59.907818 ] } },
{ "type": "Feature", "properties": { "city_service_type": null, "service_name": "Спорткомплекс", "address": "просп, Обуховской обороны, 149У", "administrative_unit": "Невский район", "municipality": "Ивановский", "Широта": 59.884054, "Долгота": 30.437405 }, "geometry": { "type": "Point", "coordinates": [ 30.437405, 59.884054 ] } },
{ "type": "Feature", "properties": { "city_service_type": null, "service_name": "Стадион", "address": "Гатчинская ул,, 22", "administrative_unit": "Петроградский район", "municipality": "Петровский", "Широта": 59.962264, "Долгота": 30.298486 }, "geometry": { "type": "Point", "coordinates": [ 30.298486, 59.962264 ] } },
{ "type": "Feature", "properties": { "city_service_type": null, "service_name": "Стадион", "address": "Институтский пер, 5М", "administrative_unit": "Выборгский район", "municipality": "Светлановское", "Широта": 59.993869, "Долгота": 30.33428 }, "geometry": { "type": "Point", "coordinates": [ 30.33428, 59.993869 ] } },
{ "type": "Feature", "properties": { "city_service_type": null, "service_name": "Стадион", "address": "Коломенский остров", "administrative_unit": "Адмиралтейский район", "municipality": "Коломна", "Широта": 59.926047, "Долгота": 30.288287 }, "geometry": { "type": "Point", "coordinates": [ 30.288287, 59.926047 ] } },
{ "type": "Feature", "properties": { "city_service_type": null, "service_name": "Стадион", "address": "Парголовская ул,, 8", "administrative_unit": "Выборгский район", "municipality": "Сампсониевское", "Широта": 59.986475, "Долгота": 30.344738 }, "geometry": { "type": "Point", "coordinates": [ 30.344738, 59.986475 ] } },
{ "type": "Feature", "properties": { "city_service_type": null, "service_name": "Стадион", "address": "территория Лигово", "administrative_unit": null, "municipality": null, "Широта": 59.827417, "Долгота": 30.180364 }, "geometry": { "type": "Point", "coordinates": [ 30.180364, 59.827417 ] } },
{ "type": "Feature", "properties": { "city_service_type": null, "service_name": "Стадион", "address": null, "administrative_unit": "Кировский район", "municipality": "Ульянка", "Широта": 59.83242, "Долгота": 30.223743 }, "geometry": { "type": "Point", "coordinates": [ 30.223743, 59.83242 ] } },
{ "type": "Feature", "properties": { "city_service_type": null, "service_name": "Стадион", "address": null, "administrative_unit": "Калининский район", "municipality": "Академическое", "Широта": 60.002404, "Долгота": 30.371187 }, "geometry": { "type": "Point", "coordinates": [ 30.371187, 60.002404 ] } },
{ "type": "Feature", "properties": { "city_service_type": null, "service_name": "Стадион Олимпиец", "address": "улица Госпитальная, 24ст1", "administrative_unit": "Пушкинский район", "municipality": "Павловск г,", "Широта": 59.682246, "Долгота": 30.438335 }, "geometry": { "type": "Point", "coordinates": [ 30.438335, 59.682246 ] } },
{ "type": "Feature", "properties": { "city_service_type": null, "service_name": "Стадион Павловск", "address": "Садовая ул,, 20Б", "administrative_unit": "Пушкинский район", "municipality": "Павловск г,", "Широта": 59.933397, "Долгота": 30.334194 }, "geometry": { "type": "Point", "coordinates": [ 30.334194, 59.933397 ] } },
{ "type": "Feature", "properties": { "city_service_type": null, "service_name": "Стадион ПКиО Дубки", "address": "Дубковское шоссе, 44", "administrative_unit": "Курортный район", "municipality": "Сестрорецк", "Широта": 60.090863, "Долгота": 29.941837 }, "geometry": { "type": "Point", "coordinates": [ 29.941837, 60.090863 ] } },
{ "type": "Feature", "properties": { "city_service_type": null, "service_name": "Стадион СКА", "address": "Средний проспект В,О,, 87к2", "administrative_unit": "Василиостровский район", "municipality": "Гавань", "Широта": 59.939157, "Долгота": 30.249601 }, "geometry": { "type": "Point", "coordinates": [ 30.249601, 59.939157 ] } },
{ "type": "Feature", "properties": { "city_service_type": null, "service_name": "Стадион Смена", "address": "ул, Верности, 21С", "administrative_unit": "Калининский район", "municipality": "Гражданка", "Широта": 60.003939, "Долгота": 30.410631 }, "geometry": { "type": "Point", "coordinates": [ 30.410631, 60.003939 ] } },
{ "type": "Feature", "properties": { "city_service_type": null, "service_name": "Стадион Химик", "address": "Рябовское шоссе, 9", "administrative_unit": "Красногвардейский район", "municipality": "Ржевка", "Широта": 59.963372, "Долгота": 30.496376 }, "geometry": { "type": "Point", "coordinates": [ 30.496376, 59.963372 ] } },
{ "type": "Feature", "properties": { "city_service_type": null, "service_name": "Форвард", "address": "​проспект Обуховской Обороны, 105в", "administrative_unit": "Невский район", "municipality": "Невская застава", "Широта": 59.894888, "Долгота": 30.435685 }, "geometry": { "type": "Point", "coordinates": [ 30.435685, 59.894888 ] } },
{ "type": "Feature", "properties": { "city_service_type": null, "service_name": "Фрунзенский манеж", "address": "улица Софийская, 2лит В", "administrative_unit": "Фрунзенский район", "municipality": "Волковское", "Широта": 59.888241, "Долгота": 30.384687 }, "geometry": { "type": "Point", "coordinates": [ 30.384687, 59.888241 ] } },
{ "type": "Feature", "properties": { "city_service_type": null, "service_name": "Футбольная арена Комфорт", "address": "Киевская улица, 5 лит БА", "administrative_unit": "Московский район", "municipality": "Московская застава", "Широта": 59.899379, "Долгота": 30.329591 }, "geometry": { "type": "Point", "coordinates": [ 30.329591, 59.899379 ] } },
{ "type": "Feature", "properties": { "city_service_type": null, "service_name": "Футбольная арена Прайд", "address": "улица Благодатная, 67 лит В", "administrative_unit": "Московский район", "municipality": "Гагаринское", "Широта": 59.876336, "Долгота": 30.3448 }, "geometry": { "type": "Point", "coordinates": [ 30.3448, 59.876336 ] } },
{ "type": "Feature", "properties": { "city_service_type": null, "service_name": "Футбольное поле", "address": "парк Сосновка", "administrative_unit": "Выборгский район", "municipality": "Светлановское", "Широта": 60.018553, "Долгота": 30.340847 }, "geometry": { "type": "Point", "coordinates": [ 30.340847, 60.018553 ] } },
{ "type": "Feature", "properties": { "city_service_type": null, "service_name": "Футбольный комплекс Лиговский", "address": "Лигвоский проспект, 246Б", "administrative_unit": "Московский район", "municipality": "Московская застава", "Широта": 59.898837, "Долгота": 30.33864 }, "geometry": { "type": "Point", "coordinates": [ 30.33864, 59.898837 ] } },
{ "type": "Feature", "properties": { "city_service_type": null, "service_name": "Футбольный стадион Алмаз-Антей", "address": "сад Спартак", "administrative_unit": "Невский район", "municipality": "Рыбацкое", "Широта": 59.849457, "Долгота": 30.483708 }, "geometry": { "type": "Point", "coordinates": [ 30.483708, 59.849457 ] } },
{ "type": "Feature", "properties": { "city_service_type": null, "service_name": "Футстарт Арена", "address": "улица Маршала Казакова, 35", "administrative_unit": "Красносельский район", "municipality": "Южно-Приморский", "Широта": 59.862373, "Долгота": 30.205426 }, "geometry": { "type": "Point", "coordinates": [ 30.205426, 59.862373 ] } },
{ "type": "Feature", "properties": { "city_service_type": null, "service_name": "Шторм", "address": "исторический район Княжево", "administrative_unit": "Кировский район", "municipality": null, "Широта": 59.84286, "Долгота": 30.278293 }, "geometry": { "type": "Point", "coordinates": [ 30.278293, 59.84286 ] } },
{ "type": "Feature", "properties": { "city_service_type": null, "service_name": "Юбилейный (малая арена)", "address": "проспект Добролюбова, 18", "administrative_unit": "Петроградский район", "municipality": "Введенский", "Широта": 59.950039, "Долгота": 30.290365 }, "geometry": { "type": "Point", "coordinates": [ 30.290365, 59.950039 ] } }
]
}
